rosbagTimestamp,header,seq,stamp,secs,nsecs,frame_id,orientation,x,y,z,w,orientation_covariance,angular_velocity,x,y,z,angular_velocity_covariance,linear_acceleration,x,y,z,linear_acceleration_covariance
1579257327736131848,,1249,,1579257327,735966543,"""base_link""",,-0.00084288705076,0.00277719994655,0.465215136631,-0.885192890477,"[1.0, 0.0, 0.0, 0.0, 1.0, 0.0, 0.0, 0.0, 1.0]",,0.0141484988853,-0.0074759805575,-0.0035612299107,"[1.2184696791468346e-07, 0.0, 0.0, 0.0, 1.2184696791468346e-07, 0.0, 0.0, 0.0, 1.2184696791468346e-07]",,-0.40207265,0.48052585,9.7478101,"[8.999999999999999e-08, 0.0, 0.0, 0.0, 8.999999999999999e-08, 0.0, 0.0, 0.0, 8.999999999999999e-08]"
1579257327981847325,,1250,,1579257327,981445426,"""base_link""",,0.000701165305962,0.00215609796388,0.464810343763,-0.885407366097,"[1.0, 0.0, 0.0, 0.0, 1.0, 0.0, 0.0, 0.0, 1.0]",,0.0151770086959,-0.00283895642497,0.0214485600591,"[1.2184696791468346e-07, 0.0, 0.0, 0.0, 1.2184696791468346e-07, 0.0, 0.0, 0.0, 1.2184696791468346e-07]",,-0.2353596,0.196133,9.73800345,"[8.999999999999999e-08, 0.0, 0.0, 0.0, 8.999999999999999e-08, 0.0, 0.0, 0.0, 8.999999999999999e-08]"
1579257328236133751,,1251,,1579257328,235944994,"""base_link""",,-0.000415084243911,0.00284082907811,0.464920684019,-0.885347680274,"[1.0, 0.0, 0.0, 0.0, 1.0, 0.0, 0.0, 0.0, 1.0]",,-0.0183447264135,-0.00720749096945,-0.019612474367,"[1.2184696791468346e-07, 0.0, 0.0, 0.0, 1.2184696791468346e-07, 0.0, 0.0, 0.0, 1.2184696791468346e-07]",,-0.32361945,0.5295591,9.7478101,"[8.999999999999999e-08, 0.0, 0.0, 0.0, 8.999999999999999e-08, 0.0, 0.0, 0.0, 8.999999999999999e-08]"
1579257328456457256,,1252,,1579257328,456343376,"""base_link""",,0.00155404271047,0.00134621720938,0.464579093032,-0.8855292423,"[1.0, 0.0, 0.0, 0.0, 1.0, 0.0, 0.0, 0.0, 1.0]",,-0.046288240701,0.0158680882305,0.00764636835083,"[1.2184696791468346e-07, 0.0, 0.0, 0.0, 1.2184696791468346e-07, 0.0, 0.0, 0.0, 1.2184696791468346e-07]",,-0.392266,0.4707192,9.7478101,"[8.999999999999999e-08, 0.0, 0.0, 0.0, 8.999999999999999e-08, 0.0, 0.0, 0.0, 8.999999999999999e-08]"
1579257328699699893,,1253,,1579257328,699415518,"""base_link""",,0.0105181055678,-0.00267551713254,0.464223399759,-0.885651650583,"[1.0, 0.0, 0.0, 0.0, 1.0, 0.0, 0.0, 0.0, 1.0]",,-0.119749486446,-0.0118451006711,0.029563780874,"[1.2184696791468346e-07, 0.0, 0.0, 0.0, 1.2184696791468346e-07, 0.0, 0.0, 0.0, 1.2184696791468346e-07]",,-0.38245935,0.1569064,9.79684335,"[8.999999999999999e-08, 0.0, 0.0, 0.0, 8.999999999999999e-08, 0.0, 0.0, 0.0, 8.999999999999999e-08]"
1579257328936455402,,1254,,1579257328,936367017,"""base_link""",,0.00908075795147,-0.00193877460402,0.466248017432,-0.884605317206,"[1.0, 0.0, 0.0, 0.0, 1.0, 0.0, 0.0, 0.0, 1.0]",,0.096695035696,-0.0116256522015,0.0262716040015,"[1.2184696791468346e-07, 0.0, 0.0, 0.0, 1.2184696791468346e-07, 0.0, 0.0, 0.0, 1.2184696791468346e-07]",,-0.3334261,0.12748645,9.7674234,"[8.999999999999999e-08, 0.0, 0.0, 0.0, 8.999999999999999e-08, 0.0, 0.0, 0.0, 8.999999999999999e-08]"
1579257329182125039,,1255,,1579257329,181861283,"""base_link""",,0.00192664097379,0.00182622175718,0.466022339754,-0.884768970873,"[1.0, 0.0, 0.0, 0.0, 1.0, 0.0, 0.0, 0.0, 1.0]",,-0.00116857211106,-0.00469540944323,0.0396976470947,"[1.2184696791468346e-07, 0.0, 0.0, 0.0, 1.2184696791468346e-07, 0.0, 0.0, 0.0, 1.2184696791468346e-07]",,-0.2941995,0.59820565,9.7870367,"[8.999999999999999e-08, 0.0, 0.0, 0.0, 8.999999999999999e-08, 0.0, 0.0, 0.0, 8.999999999999999e-08]"
1579257329416057033,,1256,,1579257329,415711492,"""base_link""",,0.00407260861008,0.000557286093832,0.465513495163,-0.885031236235,"[1.0, 0.0, 0.0, 0.0, 1.0, 0.0, 0.0, 0.0, 1.0]",,-0.024016359821,0.00585484365001,0.0152706466615,"[1.2184696791468346e-07, 0.0, 0.0, 0.0, 1.2184696791468346e-07, 0.0, 0.0, 0.0, 1.2184696791468346e-07]",,-0.44129925,0.28439285,9.7870367,"[8.999999999999999e-08, 0.0, 0.0, 0.0, 8.999999999999999e-08, 0.0, 0.0, 0.0, 8.999999999999999e-08]"
1579257329663332709,,1257,,1579257329,663188077,"""base_link""",,0.00436701488601,8.14464176073e-05,0.465231111925,-0.885178476379,"[1.0, 0.0, 0.0, 0.0, 1.0, 0.0, 0.0, 0.0, 1.0]",,0.000176701461896,0.00897472724319,0.0112654138356,"[1.2184696791468346e-07, 0.0, 0.0, 0.0, 1.2184696791468346e-07, 0.0, 0.0, 0.0, 1.2184696791468346e-07]",,-0.392266,0.2549729,9.75761675,"[8.999999999999999e-08, 0.0, 0.0, 0.0, 8.999999999999999e-08, 0.0, 0.0, 0.0, 8.999999999999999e-08]"
1579257329893135368,,1258,,1579257329,892808962,"""base_link""",,0.00179089862475,-8.2744506053e-06,0.463815926998,-0.885929781911,"[1.0, 0.0, 0.0, 0.0, 1.0, 0.0, 0.0, 0.0, 1.0]",,0.147008419037,0.0372485369444,0.0319434180856,"[1.2184696791468346e-07, 0.0, 0.0, 0.0, 1.2184696791468346e-07, 0.0, 0.0, 0.0, 1.2184696791468346e-07]",,-0.1176798,0.53936575,11.179581,"[8.999999999999999e-08, 0.0, 0.0, 0.0, 8.999999999999999e-08, 0.0, 0.0, 0.0, 8.999999999999999e-08]"
1579257330141206814,,1259,,1579257330,141033458,"""base_link""",,-0.0325699419031,0.0159969103657,0.475296461552,-0.879077113443,"[1.0, 0.0, 0.0, 0.0, 1.0, 0.0, 0.0, 0.0, 1.0]",,0.381346315145,-0.0683329552412,-0.0963925272226,"[1.2184696791468346e-07, 0.0, 0.0, 0.0, 1.2184696791468346e-07, 0.0, 0.0, 0.0, 1.2184696791468346e-07]",,-0.4118793,1.52003075,10.787315,"[8.999999999999999e-08, 0.0, 0.0, 0.0, 8.999999999999999e-08, 0.0, 0.0, 0.0, 8.999999999999999e-08]"
1579257330376192367,,1260,,1579257330,376050299,"""base_link""",,-0.0769635360039,0.0635083650081,0.469192929079,-0.877440195684,"[1.0, 0.0, 0.0, 0.0, 1.0, 0.0, 0.0, 0.0, 1.0]",,0.783111214638,-0.314178436995,0.15131354332,"[1.2184696791468346e-07, 0.0, 0.0, 0.0, 1.2184696791468346e-07, 0.0, 0.0, 0.0, 1.2184696791468346e-07]",,-0.1372931,1.67693715,10.6500219,"[8.999999999999999e-08, 0.0, 0.0, 0.0, 8.999999999999999e-08, 0.0, 0.0, 0.0, 8.999999999999999e-08]"
1579257330613970356,,1261,,1579257330,613582053,"""base_link""",,-0.104289796816,0.122526544425,0.431400143978,-0.88769634446,"[1.0, 0.0, 0.0, 0.0, 1.0, 0.0, 0.0, 0.0, 1.0]",,-0.343816608191,-0.457188636065,0.457826167345,"[1.2184696791468346e-07, 0.0, 0.0, 0.0, 1.2184696791468346e-07, 0.0, 0.0, 0.0, 1.2184696791468346e-07]",,0.53936575,3.0400615,10.71866845,"[8.999999999999999e-08, 0.0, 0.0, 0.0, 8.999999999999999e-08, 0.0, 0.0, 0.0, 8.999999999999999e-08]"
1579257330881822016,,1262,,1579257330,881560644,"""base_link""",,0.00849995918268,0.116239566523,0.421304885591,-0.899398858819,"[1.0, 0.0, 0.0, 0.0, 1.0, 0.0, 0.0, 0.0, 1.0]",,-1.09999036789,0.271712362766,-0.131038859487,"[1.2184696791468346e-07, 0.0, 0.0, 0.0, 1.2184696791468346e-07, 0.0, 0.0, 0.0, 1.2184696791468346e-07]",,1.9809433,1.96133,8.9044382,"[8.999999999999999e-08, 0.0, 0.0, 0.0, 8.999999999999999e-08, 0.0, 0.0, 0.0, 8.999999999999999e-08]"
1579257331103526795,,1263,,1579257331,103378000,"""base_link""",,0.0383293678916,-0.0968181486714,0.477947716109,-0.872194408553,"[1.0, 0.0, 0.0, 0.0, 1.0, 0.0, 0.0, 0.0, 1.0]",,-0.700982034206,2.20210623741,-0.477878659964,"[1.2184696791468346e-07, 0.0, 0.0, 0.0, 1.2184696791468346e-07, 0.0, 0.0, 0.0, 1.2184696791468346e-07]",,-0.87279185,-0.5099458,7.6295737,"[8.999999999999999e-08, 0.0, 0.0, 0.0, 8.999999999999999e-08, 0.0, 0.0, 0.0, 8.999999999999999e-08]"
1579257331363162609,,1264,,1579257331,362790092,"""base_link""",,-0.0208292593144,-0.22689909604,0.496269670449,-0.837734657493,"[1.0, 0.0, 0.0, 0.0, 1.0, 0.0, 0.0, 0.0, 1.0]",,0.25786998868,0.133341878653,0.0415706858039,"[1.2184696791468346e-07, 0.0, 0.0, 0.0, 1.2184696791468346e-07, 0.0, 0.0, 0.0, 1.2184696791468346e-07]",,-3.9422733,-1.765197,8.8455983,"[8.999999999999999e-08, 0.0, 0.0, 0.0, 8.999999999999999e-08, 0.0, 0.0, 0.0, 8.999999999999999e-08]"
1579257331575815424,,1265,,1579257331,575660036,"""base_link""",,-0.000802070995094,-0.151166002356,0.482881291317,-0.862539190362,"[1.0, 0.0, 0.0, 0.0, 1.0, 0.0, 0.0, 0.0, 1.0]",,-0.0848253369331,-0.910404384136,0.233291476965,"[1.2184696791468346e-07, 0.0, 0.0, 0.0, 1.2184696791468346e-07, 0.0, 0.0, 0.0, 1.2184696791468346e-07]",,-3.0989014,-1.6867438,9.1594111,"[8.999999999999999e-08, 0.0, 0.0, 0.0, 8.999999999999999e-08, 0.0, 0.0, 0.0, 8.999999999999999e-08]"
1579257331809603295,,1266,,1579257331,809419613,"""base_link""",,0.0726592741255,-0.0730707062247,0.473413720832,-0.874791832783,"[1.0, 0.0, 0.0, 0.0, 1.0, 0.0, 0.0, 0.0, 1.0]",,-0.280463814735,-0.95745575428,-0.0886542052031,"[1.2184696791468346e-07, 0.0, 0.0, 0.0, 1.2184696791468346e-07, 0.0, 0.0, 0.0, 1.2184696791468346e-07]",,-1.765197,-2.24572285,9.09076455,"[8.999999999999999e-08, 0.0, 0.0, 0.0, 8.999999999999999e-08, 0.0, 0.0, 0.0, 8.999999999999999e-08]"
1579257332078414213,,1267,,1579257332,78051151,"""base_link""",,0.184842873485,0.0595083574564,0.467342512526,-0.862486430908,"[1.0, 0.0, 0.0, 0.0, 1.0, 0.0, 0.0, 0.0, 1.0]",,-0.318816125393,-1.54963445663,0.0595049597323,"[1.2184696791468346e-07, 0.0, 0.0, 0.0, 1.2184696791468346e-07, 0.0, 0.0, 0.0, 1.2184696791468346e-07]",,-0.0392266,-3.34406765,9.610517,"[8.999999999999999e-08, 0.0, 0.0, 0.0, 8.999999999999999e-08, 0.0, 0.0, 0.0, 8.999999999999999e-08]"
1579257332298248896,,1268,,1579257332,298084502,"""base_link""",,0.216547264828,0.0940155588811,0.425021501751,-0.873856441203,"[1.0, 0.0, 0.0, 0.0, 1.0, 0.0, 0.0, 0.0, 1.0]",,0.0985236540437,0.549995720387,0.368369519711,"[1.2184696791468346e-07, 0.0, 0.0, 0.0, 1.2184696791468346e-07, 0.0, 0.0, 0.0, 1.2184696791468346e-07]",,5.32501095,-3.93246665,9.12999115,"[8.999999999999999e-08, 0.0, 0.0, 0.0, 8.999999999999999e-08, 0.0, 0.0, 0.0, 8.999999999999999e-08]"
1579257332532025940,,1269,,1579257332,531848028,"""base_link""",,0.142543760213,0.0201191967604,0.409088874994,-0.901067581651,"[1.0, 0.0, 0.0, 0.0, 1.0, 0.0, 0.0, 0.0, 1.0]",,0.566438317299,0.86001086235,0.161447048187,"[1.2184696791468346e-07, 0.0, 0.0, 0.0, 1.2184696791468346e-07, 0.0, 0.0, 0.0, 1.2184696791468346e-07]",,2.38301595,-0.4511059,9.0809579,"[8.999999999999999e-08, 0.0, 0.0, 0.0, 8.999999999999999e-08, 0.0, 0.0, 0.0, 8.999999999999999e-08]"
1579257332775815981,,1270,,1579257332,775506061,"""base_link""",,0.0323462810521,-0.0649311753831,0.375947127083,-0.923797281985,"[1.0, 0.0, 0.0, 0.0, 1.0, 0.0, 0.0, 0.0, 1.0]",,0.227245122194,0.731740891933,0.0376310497522,"[1.2184696791468346e-07, 0.0, 0.0, 0.0, 1.2184696791468346e-07, 0.0, 0.0, 0.0, 1.2184696791468346e-07]",,-2.38301595,-0.0980665,8.62004535,"[8.999999999999999e-08, 0.0, 0.0, 0.0, 8.999999999999999e-08, 0.0, 0.0, 0.0, 8.999999999999999e-08]"
1579257333014941409,,1271,,1579257333,14811201,"""base_link""",,0.089479624944,0.00110775626861,0.435005270867,-0.895970191421,"[1.0, 0.0, 0.0, 0.0, 1.0, 0.0, 0.0, 0.0, 1.0]",,-0.514312505722,-1.50954556465,-0.678680896759,"[1.2184696791468346e-07, 0.0, 0.0, 0.0, 1.2184696791468346e-07, 0.0, 0.0, 0.0, 1.2184696791468346e-07]",,1.53964405,-0.71588545,8.36507245,"[8.999999999999999e-08, 0.0, 0.0, 0.0, 8.999999999999999e-08, 0.0, 0.0, 0.0, 8.999999999999999e-08]"
1579257333263107175,,1272,,1579257333,262954273,"""base_link""",,0.116738906738,-0.0432847883416,0.430839392331,-0.893798563865,"[1.0, 0.0, 0.0, 0.0, 1.0, 0.0, 0.0, 0.0, 1.0]",,-0.0589054971933,2.01651406288,0.865769982338,"[1.2184696791468346e-07, 0.0, 0.0, 0.0, 1.2184696791468346e-07, 0.0, 0.0, 0.0, 1.2184696791468346e-07]",,1.569064,-1.16699135,8.6886919,"[8.999999999999999e-08, 0.0, 0.0, 0.0, 8.999999999999999e-08, 0.0, 0.0, 0.0, 8.999999999999999e-08]"
1579257333518160570,,1273,,1579257333,517844802,"""base_link""",,0.011686538623,-0.2920985548,0.329709000856,-0.897682479417,"[1.0, 0.0, 0.0, 0.0, 1.0, 0.0, 0.0, 0.0, 1.0]",,-0.167264759541,1.35980808735,0.729077875614,"[1.2184696791468346e-07, 0.0, 0.0, 0.0, 1.2184696791468346e-07, 0.0, 0.0, 0.0, 1.2184696791468346e-07]",,-5.95263655,-2.0986231,7.6688003,"[8.999999999999999e-08, 0.0, 0.0, 0.0, 8.999999999999999e-08, 0.0, 0.0, 0.0, 8.999999999999999e-08]"
1579257333741039792,,1274,,1579257333,740896923,"""base_link""",,-0.0509156518971,-0.386380197544,0.308307159803,-0.867792967563,"[1.0, 0.0, 0.0, 0.0, 1.0, 0.0, 0.0, 0.0, 1.0]",,0.207327187061,0.743571817875,-0.0737569183111,"[1.2184696791468346e-07, 0.0, 0.0, 0.0, 1.2184696791468346e-07, 0.0, 0.0, 0.0, 1.2184696791468346e-07]",,-7.60015375,-1.2356379,6.2566427,"[8.999999999999999e-08, 0.0, 0.0, 0.0, 8.999999999999999e-08, 0.0, 0.0, 0.0, 8.999999999999999e-08]"
1579257333972895627,,1275,,1579257333,972725834,"""base_link""",,-0.0849421602078,-0.42272670933,0.346474154533,-0.833092203108,"[1.0, 0.0, 0.0, 0.0, 1.0, 0.0, 0.0, 0.0, 1.0]",,0.396417677402,0.145739287138,-0.505340754986,"[1.2184696791468346e-07, 0.0, 0.0, 0.0, 1.2184696791468346e-07, 0.0, 0.0, 0.0, 1.2184696791468346e-07]",,-7.20788775,-1.6867438,5.7466969,"[8.999999999999999e-08, 0.0, 0.0, 0.0, 8.999999999999999e-08, 0.0, 0.0, 0.0, 8.999999999999999e-08]"
1579257334212921600,,1276,,1579257334,212550080,"""base_link""",,-0.0941290535413,-0.442039759413,0.391277024491,-0.801650087309,"[1.0, 0.0, 0.0, 0.0, 1.0, 0.0, 0.0, 0.0, 1.0]",,0.065907664597,0.354615539312,-0.34588560462,"[1.2184696791468346e-07, 0.0, 0.0, 0.0, 1.2184696791468346e-07, 0.0, 0.0, 0.0, 1.2184696791468346e-07]",,-7.7864801,-1.61809725,6.48219565,"[8.999999999999999e-08, 0.0, 0.0, 0.0, 8.999999999999999e-08, 0.0, 0.0, 0.0, 8.999999999999999e-08]"
1579257334449541319,,1277,,1579257334,449370009,"""base_link""",,-0.105014481795,-0.457777036748,0.407477067675,-0.783182343109,"[1.0, 0.0, 0.0, 0.0, 1.0, 0.0, 0.0, 0.0, 1.0]",,-0.0538569763303,0.178966462612,-0.023053959012,"[1.2184696791468346e-07, 0.0, 0.0, 0.0, 1.2184696791468346e-07, 0.0, 0.0, 0.0, 1.2184696791468346e-07]",,-6.9627215,-1.6279039,5.99186315,"[8.999999999999999e-08, 0.0, 0.0, 0.0, 8.999999999999999e-08, 0.0, 0.0, 0.0, 8.999999999999999e-08]"
1579257334696281000,,1278,,1579257334,696114462,"""base_link""",,-0.0950713669163,-0.498508711289,0.400281701691,-0.763036735192,"[1.0, 0.0, 0.0, 0.0, 1.0, 0.0, 0.0, 0.0, 1.0]",,-0.0773108825088,0.40058773756,-0.175221696496,"[1.2184696791468346e-07, 0.0, 0.0, 0.0, 1.2184696791468346e-07, 0.0, 0.0, 0.0, 1.2184696791468346e-07]",,-7.8257067,-2.22610955,5.14849125,"[8.999999999999999e-08, 0.0, 0.0, 0.0, 8.999999999999999e-08, 0.0, 0.0, 0.0, 8.999999999999999e-08]"
1579257334938364148,,1279,,1579257334,937984893,"""base_link""",,-0.138076837063,-0.53322430311,0.426649579937,-0.717340062717,"[1.0, 0.0, 0.0, 0.0, 1.0, 0.0, 0.0, 0.0, 1.0]",,0.685710370541,0.307938158512,-0.0329649373889,"[1.2184696791468346e-07, 0.0, 0.0, 0.0, 1.2184696791468346e-07, 0.0, 0.0, 0.0, 1.2184696791468346e-07]",,-9.414384,-2.5301157,2.44185585,"[8.999999999999999e-08, 0.0, 0.0, 0.0, 8.999999999999999e-08, 0.0, 0.0, 0.0, 8.999999999999999e-08]"
1579257335177198653,,1280,,1579257335,177040301,"""base_link""",,-0.121769534371,-0.456888053462,0.51470716219,-0.715193697045,"[1.0, 0.0, 0.0, 0.0, 1.0, 0.0, 0.0, 0.0, 1.0]",,0.418319284916,-1.53368544579,-0.503937184811,"[1.2184696791468346e-07, 0.0, 0.0, 0.0, 1.2184696791468346e-07, 0.0, 0.0, 0.0, 1.2184696791468346e-07]",,-9.11037785,-2.0790098,5.63882375,"[8.999999999999999e-08, 0.0, 0.0, 0.0, 8.999999999999999e-08, 0.0, 0.0, 0.0, 8.999999999999999e-08]"
1579257335421719144,,1281,,1579257335,421574372,"""base_link""",,-0.00764100094121,-0.258455320972,0.54715648998,-0.796091852513,"[1.0, 0.0, 0.0, 0.0, 1.0, 0.0, 0.0, 0.0, 1.0]",,0.0800088047981,-2.17483711243,0.238594979048,"[1.2184696791468346e-07, 0.0, 0.0, 0.0, 1.2184696791468346e-07, 0.0, 0.0, 0.0, 1.2184696791468346e-07]",,-5.8447634,-2.73605535,7.42363405,"[8.999999999999999e-08, 0.0, 0.0, 0.0, 8.999999999999999e-08, 0.0, 0.0, 0.0, 8.999999999999999e-08]"
1579257335664520529,,1282,,1579257335,664172109,"""base_link""",,0.150464260597,-0.0255364831417,0.56658875549,-0.809744142593,"[1.0, 0.0, 0.0, 0.0, 1.0, 0.0, 0.0, 0.0, 1.0]",,0.365059643984,-1.78954803944,-0.350778251886,"[1.2184696791468346e-07, 0.0, 0.0, 0.0, 1.2184696791468346e-07, 0.0, 0.0, 0.0, 1.2184696791468346e-07]",,-0.44129925,-3.2754211,7.8845466,"[8.999999999999999e-08, 0.0, 0.0, 0.0, 8.999999999999999e-08, 0.0, 0.0, 0.0, 8.999999999999999e-08]"
1579257335899839551,,1283,,1579257335,899637951,"""base_link""",,0.140599212435,0.0991095667001,0.529627283804,-0.830604656562,"[1.0, 0.0, 0.0, 0.0, 1.0, 0.0, 0.0, 0.0, 1.0]",,0.429721951485,-0.312474042177,0.453394889832,"[1.2184696791468346e-07, 0.0, 0.0, 0.0, 1.2184696791468346e-07, 0.0, 0.0, 0.0, 1.2184696791468346e-07]",,2.83412185,-1.24544455,9.81645665,"[8.999999999999999e-08, 0.0, 0.0, 0.0, 8.999999999999999e-08, 0.0, 0.0, 0.0, 8.999999999999999e-08]"
1579257336145756678,,1284,,1579257336,145600534,"""base_link""",,0.153661811656,0.116149852641,0.500763721506,-0.843879703864,"[1.0, 0.0, 0.0, 0.0, 1.0, 0.0, 0.0, 0.0, 1.0]",,-0.17771320045,-0.136199757457,0.0887642204762,"[1.2184696791468346e-07, 0.0, 0.0, 0.0, 1.2184696791468346e-07, 0.0, 0.0, 0.0, 1.2184696791468346e-07]",,3.67749375,-1.42196425,9.0613446,"[8.999999999999999e-08, 0.0, 0.0, 0.0, 8.999999999999999e-08, 0.0, 0.0, 0.0, 8.999999999999999e-08]"
1579257336388377629,,1285,,1579257336,388012133,"""base_link""",,0.167028941756,0.118466420722,0.498039254491,-0.842629183427,"[1.0, 0.0, 0.0, 0.0, 1.0, 0.0, 0.0, 0.0, 1.0]",,0.026196917519,-0.159311801195,0.120001547039,"[1.2184696791468346e-07, 0.0, 0.0, 0.0, 1.2184696791468346e-07, 0.0, 0.0, 0.0, 1.2184696791468346e-07]",,2.7850886,-1.04931155,8.9044382,"[8.999999999999999e-08, 0.0, 0.0, 0.0, 8.999999999999999e-08, 0.0, 0.0, 0.0, 8.999999999999999e-08]"
1579257336644889244,,1286,,1579257336,644707821,"""base_link""",,0.194342284832,0.174375204201,0.480096031351,-0.837455769081,"[1.0, 0.0, 0.0, 0.0, 1.0, 0.0, 0.0, 0.0, 1.0]",,0.0167484246194,-0.934792757034,0.13998940587,"[1.2184696791468346e-07, 0.0, 0.0, 0.0, 1.2184696791468346e-07, 0.0, 0.0, 0.0, 1.2184696791468346e-07]",,3.24600115,-1.48080415,9.1005712,"[8.999999999999999e-08, 0.0, 0.0, 0.0, 8.999999999999999e-08, 0.0, 0.0, 0.0, 8.999999999999999e-08]"
1579257336863654039,,1287,,1579257336,863512162,"""base_link""",,0.246152119157,0.284613662004,0.456344219726,-0.806321369404,"[1.0, 0.0, 0.0, 0.0, 1.0, 0.0, 0.0, 0.0, 1.0]",,-0.0470800511539,-1.36648464203,0.0372742116451,"[1.2184696791468346e-07, 0.0, 0.0, 0.0, 1.2184696791468346e-07, 0.0, 0.0, 0.0, 1.2184696791468346e-07]",,5.42307745,-0.7256921,7.85512665,"[8.999999999999999e-08, 0.0, 0.0, 0.0, 8.999999999999999e-08, 0.0, 0.0, 0.0, 8.999999999999999e-08]"
1579257337100869279,,1288,,1579257337,100551367,"""base_link""",,0.360271433843,0.454896116058,0.412875604383,-0.70200267297,"[1.0, 0.0, 0.0, 0.0, 1.0, 0.0, 0.0, 0.0, 1.0]",,-0.466334432364,-1.90773391724,-0.180633381009,"[1.2184696791468346e-07, 0.0, 0.0, 0.0, 1.2184696791468346e-07, 0.0, 0.0, 0.0, 1.2184696791468346e-07]",,8.83579165,-1.372931,3.65788045,"[8.999999999999999e-08, 0.0, 0.0, 0.0, 8.999999999999999e-08, 0.0, 0.0, 0.0, 8.999999999999999e-08]"
1579257337349207647,,1289,,1579257337,348968410,"""base_link""",,0.423159857846,0.563799898792,0.392335634117,-0.5908791408,"[1.0, 0.0, 0.0, 0.0, 1.0, 0.0, 0.0, 0.0, 1.0]",,-0.00273325201124,-0.955970823765,-0.185251876712,"[1.2184696791468346e-07, 0.0, 0.0, 0.0, 1.2184696791468346e-07, 0.0, 0.0, 0.0, 1.2184696791468346e-07]",,10.0616229,-1.0395049,-0.46091255,"[8.999999999999999e-08, 0.0, 0.0, 0.0, 8.999999999999999e-08, 0.0, 0.0, 0.0, 8.999999999999999e-08]"
1579257337591691556,,1290,,1579257337,591550392,"""base_link""",,0.429171355419,0.606615484173,0.346165434368,-0.572712051644,"[1.0, 0.0, 0.0, 0.0, 1.0, 0.0, 0.0, 0.0, 1.0]",,0.2110683918,-0.57128071785,-0.0816092267632,"[1.2184696791468346e-07, 0.0, 0.0, 0.0, 1.2184696791468346e-07, 0.0, 0.0, 0.0, 1.2184696791468346e-07]",,9.75761675,-1.36312435,-1.75539035,"[8.999999999999999e-08, 0.0, 0.0, 0.0, 8.999999999999999e-08, 0.0, 0.0, 0.0, 8.999999999999999e-08]"
1579257337824920237,,1291,,1579257337,824586804,"""base_link""",,0.438758541057,0.64221649652,0.321701260754,-0.539960381025,"[1.0, 0.0, 0.0, 0.0, 1.0, 0.0, 0.0, 0.0, 1.0]",,0.142893388867,-0.0966412946582,-0.189513519406,"[1.2184696791468346e-07, 0.0, 0.0, 0.0, 1.2184696791468346e-07, 0.0, 0.0, 0.0, 1.2184696791468346e-07]",,10.01258965,-0.8825985,-3.04986815,"[8.999999999999999e-08, 0.0, 0.0, 0.0, 8.999999999999999e-08, 0.0, 0.0, 0.0, 8.999999999999999e-08]"
1579257338063763522,,1292,,1579257338,63616153,"""base_link""",,0.41281343968,0.664023748249,0.306884306615,-0.542659698278,"[1.0, 0.0, 0.0, 0.0, 1.0, 0.0, 0.0, 0.0, 1.0]",,0.232433646917,-0.119934745133,-0.0650358200073,"[1.2184696791468346e-07, 0.0, 0.0, 0.0, 1.2184696791468346e-07, 0.0, 0.0, 0.0, 1.2184696791468346e-07]",,9.5516771,-0.69627215,-1.569064,"[8.999999999999999e-08, 0.0, 0.0, 0.0, 8.999999999999999e-08, 0.0, 0.0, 0.0, 8.999999999999999e-08]"
1579257338303245843,,1293,,1579257338,303073271,"""base_link""",,0.389075705905,0.684589817294,0.291685755036,-0.543025135184,"[1.0, 0.0, 0.0, 0.0, 1.0, 0.0, 0.0, 0.0, 1.0]",,0.206400826573,-0.3274076581,-0.120596438646,"[1.2184696791468346e-07, 0.0, 0.0, 0.0, 1.2184696791468346e-07, 0.0, 0.0, 0.0, 1.2184696791468346e-07]",,9.42419065,0.44129925,-2.57914895,"[8.999999999999999e-08, 0.0, 0.0, 0.0, 8.999999999999999e-08, 0.0, 0.0, 0.0, 8.999999999999999e-08]"
1579257338540533904,,1294,,1579257338,540338952,"""base_link""",,0.401959357662,0.713128588912,0.270618098574,-0.506598593748,"[1.0, 0.0, 0.0, 0.0, 1.0, 0.0, 0.0, 0.0, 1.0]",,-0.195573911071,-0.506719052792,-0.0308489054441,"[1.2184696791468346e-07, 0.0, 0.0, 0.0, 1.2184696791468346e-07, 0.0, 0.0, 0.0, 1.2184696791468346e-07]",,8.6102387,0.69627215,-3.50097405,"[8.999999999999999e-08, 0.0, 0.0, 0.0, 8.999999999999999e-08, 0.0, 0.0, 0.0, 8.999999999999999e-08]"
1579257338786091955,,1295,,1579257338,785717496,"""base_link""",,0.429655418556,0.722572386064,0.282375970418,-0.462113816644,"[1.0, 0.0, 0.0, 0.0, 1.0, 0.0, 0.0, 0.0, 1.0]",,-0.322911888361,0.137737512589,-0.159345254302,"[1.2184696791468346e-07, 0.0, 0.0, 0.0, 1.2184696791468346e-07, 0.0, 0.0, 0.0, 1.2184696791468346e-07]",,9.09076455,-6.58130602801e-16,-5.3740442,"[8.999999999999999e-08, 0.0, 0.0, 0.0, 8.999999999999999e-08, 0.0, 0.0, 0.0, 8.999999999999999e-08]"
1579257339024755530,,1296,,1579257339,24574813,"""base_link""",,-0.41816173623,-0.71569410795,-0.295152662344,0.475192184395,"[1.0, 0.0, 0.0, 0.0, 1.0, 0.0, 0.0, 0.0, 1.0]",,0.103081122041,0.0823905840516,-0.0309939235449,"[1.2184696791468346e-07, 0.0, 0.0, 0.0, 1.2184696791468346e-07, 0.0, 0.0, 0.0, 1.2184696791468346e-07]",,7.95319315,0.6864655,-4.50125235,"[8.999999999999999e-08, 0.0, 0.0, 0.0, 8.999999999999999e-08, 0.0, 0.0, 0.0, 8.999999999999999e-08]"
1579257339265674015,,1297,,1579257339,265283187,"""base_link""",,-0.416717066403,-0.716673829013,-0.302019334192,0.470648309409,"[1.0, 0.0, 0.0, 0.0, 1.0, 0.0, 0.0, 0.0, 1.0]",,-0.0673981904984,-0.115146614611,-0.0488144010305,"[1.2184696791468346e-07, 0.0, 0.0, 0.0, 1.2184696791468346e-07, 0.0, 0.0, 0.0, 1.2184696791468346e-07]",,8.9632781,0.588399,-4.01091985,"[8.999999999999999e-08, 0.0, 0.0, 0.0, 8.999999999999999e-08, 0.0, 0.0, 0.0, 8.999999999999999e-08]"
1579257339506602704,,1298,,1579257339,506440664,"""base_link""",,-0.413281334986,-0.724879239734,-0.294065989674,0.466126398815,"[1.0, 0.0, 0.0, 0.0, 1.0, 0.0, 0.0, 0.0, 1.0]",,0.0822129100561,-0.108678966761,0.0269051585346,"[1.2184696791468346e-07, 0.0, 0.0, 0.0, 1.2184696791468346e-07, 0.0, 0.0, 0.0, 1.2184696791468346e-07]",,9.3947707,0.2353596,-4.2560861,"[8.999999999999999e-08, 0.0, 0.0, 0.0, 8.999999999999999e-08, 0.0, 0.0, 0.0, 8.999999999999999e-08]"
1579257339758281089,,1299,,1579257339,758119687,"""base_link""",,-0.42201297577,-0.72908619747,-0.291145536849,0.453401192448,"[1.0, 0.0, 0.0, 0.0, 1.0, 0.0, 0.0, 0.0, 1.0]",,-0.152267858386,-0.374137282372,0.159265860915,"[1.2184696791468346e-07, 0.0, 0.0, 0.0, 1.2184696791468346e-07, 0.0, 0.0, 0.0, 1.2184696791468346e-07]",,8.9632781,-0.08825985,-4.10898635,"[8.999999999999999e-08, 0.0, 0.0, 0.0, 8.999999999999999e-08, 0.0, 0.0, 0.0, 8.999999999999999e-08]"
1579257339995684621,,1300,,1579257339,995304730,"""base_link""",,-0.456820494413,-0.762993056304,-0.272718338586,0.367125781872,"[1.0, 0.0, 0.0, 0.0, 1.0, 0.0, 0.0, 0.0, 1.0]",,-0.244250327349,-1.04096221924,-0.294473290443,"[1.2184696791468346e-07, 0.0, 0.0, 0.0, 1.2184696791468346e-07, 0.0, 0.0, 0.0, 1.2184696791468346e-07]",,7.3549875,0.0784532,-6.5900688,"[8.999999999999999e-08, 0.0, 0.0, 0.0, 8.999999999999999e-08, 0.0, 0.0, 0.0, 8.999999999999999e-08]"
1579257340224452987,,1301,,1579257340,224304641,"""base_link""",,-0.45435422175,-0.811119627828,-0.249255625605,0.271143548024,"[1.0, 0.0, 0.0, 0.0, 1.0, 0.0, 0.0, 0.0, 1.0]",,-0.0101509587839,-0.329877853394,-0.439439475536,"[1.2184696791468346e-07, 0.0, 0.0, 0.0, 1.2184696791468346e-07, 0.0, 0.0, 0.0, 1.2184696791468346e-07]",,5.7270836,1.57887065,-8.24739265,"[8.999999999999999e-08, 0.0, 0.0, 0.0, 8.999999999999999e-08, 0.0, 0.0, 0.0, 8.999999999999999e-08]"
1579257340467120399,,1302,,1579257340,466879162,"""base_link""",,-0.433842389626,-0.818153490335,-0.246716177198,0.285546450029,"[1.0, 0.0, 0.0, 0.0, 1.0, 0.0, 0.0, 0.0, 1.0]",,0.0122109027579,0.284217357635,0.0339914374053,"[1.2184696791468346e-07, 0.0, 0.0, 0.0, 1.2184696791468346e-07, 0.0, 0.0, 0.0, 1.2184696791468346e-07]",,5.28578435,1.52003075,-8.0218397,"[8.999999999999999e-08, 0.0, 0.0, 0.0, 8.999999999999999e-08, 0.0, 0.0, 0.0, 8.999999999999999e-08]"
1579257340704730924,,1303,,1579257340,704558683,"""base_link""",,-0.428728534265,-0.797757791019,-0.262637843147,0.332859901645,"[1.0, 0.0, 0.0, 0.0, 1.0, 0.0, 0.0, 0.0, 1.0]",,0.0921346247196,1.0332095623,0.154324278235,"[1.2184696791468346e-07, 0.0, 0.0, 0.0, 1.2184696791468346e-07, 0.0, 0.0, 0.0, 1.2184696791468346e-07]",,7.8060934,1.5494507,-7.77667345,"[8.999999999999999e-08, 0.0, 0.0, 0.0, 8.999999999999999e-08, 0.0, 0.0, 0.0, 8.999999999999999e-08]"
1579257340952919506,,1304,,1579257340,952757187,"""base_link""",,-0.38772157661,-0.67342803259,-0.343576763466,0.52737242207,"[1.0, 0.0, 0.0, 0.0, 1.0, 0.0, 0.0, 0.0, 1.0]",,-0.108762837946,2.9089846611,0.285197526217,"[1.2184696791468346e-07, 0.0, 0.0, 0.0, 1.2184696791468346e-07, 0.0, 0.0, 0.0, 1.2184696791468346e-07]",,9.48303055,1.02969825,-4.36395925,"[8.999999999999999e-08, 0.0, 0.0, 0.0, 8.999999999999999e-08, 0.0, 0.0, 0.0, 8.999999999999999e-08]"
1579257341214367612,,1305,,1579257341,214103137,"""base_link""",,0.305651792023,0.421703269144,0.446643589714,-0.727497655387,"[1.0, 0.0, 0.0, 0.0, 1.0, 0.0, 0.0, 0.0, 1.0]",,-0.308532208204,3.06256699562,0.741784751415,"[1.2184696791468346e-07, 0.0, 0.0, 0.0, 1.2184696791468346e-07, 0.0, 0.0, 0.0, 1.2184696791468346e-07]",,7.4726673,0.22555295,2.81450855,"[8.999999999999999e-08, 0.0, 0.0, 0.0, 8.999999999999999e-08, 0.0, 0.0, 0.0, 8.999999999999999e-08]"
1579257341440948294,,1306,,1579257341,440583929,"""base_link""",,0.201261776378,0.137727742534,0.436174635965,-0.866184999435,"[1.0, 0.0, 0.0, 0.0, 1.0, 0.0, 0.0, 0.0, 1.0]",,0.217853143811,2.38146829605,0.956149697304,"[1.2184696791468346e-07, 0.0, 0.0, 0.0, 1.2184696791468346e-07, 0.0, 0.0, 0.0, 1.2184696791468346e-07]",,3.5696206,-1.91229675,8.237586,"[8.999999999999999e-08, 0.0, 0.0, 0.0, 8.999999999999999e-08, 0.0, 0.0, 0.0, 8.999999999999999e-08]"
1579257341670439299,,1307,,1579257341,670267652,"""base_link""",,0.0759196758791,-0.0923543045613,0.42589887549,-0.896837238912,"[1.0, 0.0, 0.0, 0.0, 1.0, 0.0, 0.0, 0.0, 1.0]",,0.213841855526,1.24679303169,-0.0845957249403,"[1.2184696791468346e-07, 0.0, 0.0, 0.0, 1.2184696791468346e-07, 0.0, 0.0, 0.0, 1.2184696791468346e-07]",,-2.4124359,-2.16726965,9.56148375,"[8.999999999999999e-08, 0.0, 0.0, 0.0, 8.999999999999999e-08, 0.0, 0.0, 0.0, 8.999999999999999e-08]"
1579257341903867429,,1308,,1579257341,903720922,"""base_link""",,0.0270579750956,-0.0907885946503,0.462420329754,-0.881585353607,"[1.0, 0.0, 0.0, 0.0, 1.0, 0.0, 0.0, 0.0, 1.0]",,0.585477292538,-0.533264100552,-0.322406709194,"[1.2184696791468346e-07, 0.0, 0.0, 0.0, 1.2184696791468346e-07, 0.0, 0.0, 0.0, 1.2184696791468346e-07]",,-1.61809725,-1.2748645,10.01258965,"[8.999999999999999e-08, 0.0, 0.0, 0.0, 8.999999999999999e-08, 0.0, 0.0, 0.0, 8.999999999999999e-08]"
1579257342142198224,,1309,,1579257342,141731791,"""base_link""",,0.011262214463,0.00316952764592,0.478424039868,-0.878050997776,"[1.0, 0.0, 0.0, 0.0, 1.0, 0.0, 0.0, 0.0, 1.0]",,0.41021168232,-0.533320844173,-0.0569058395922,"[1.2184696791468346e-07, 0.0, 0.0, 0.0, 1.2184696791468346e-07, 0.0, 0.0, 0.0, 1.2184696791468346e-07]",,0.9022118,-0.6472389,9.71839015,"[8.999999999999999e-08, 0.0, 0.0, 0.0, 8.999999999999999e-08, 0.0, 0.0, 0.0, 8.999999999999999e-08]"
1579257342394989669,,1310,,1579257342,394807583,"""base_link""",,-0.124494328988,-0.00497151151271,0.450207150706,-0.88418887551,"[1.0, 0.0, 0.0, 0.0, 1.0, 0.0, 0.0, 0.0, 1.0]",,1.15589976311,2.28176689148,0.278397768736,"[1.2184696791468346e-07, 0.0, 0.0, 0.0, 1.2184696791468346e-07, 0.0, 0.0, 0.0, 1.2184696791468346e-07]",,-0.8825985,2.4320492,7.75706015,"[8.999999999999999e-08, 0.0, 0.0, 0.0, 8.999999999999999e-08, 0.0, 0.0, 0.0, 8.999999999999999e-08]"
1579257342633619175,,1311,,1579257342,633223814,"""base_link""",,-0.22247159994,-0.173435955403,0.43982381141,-0.852632025853,"[1.0, 0.0, 0.0, 0.0, 1.0, 0.0, 0.0, 0.0, 1.0]",,-0.580195963383,0.626322686672,-0.584242522717,"[1.2184696791468346e-07, 0.0, 0.0, 0.0, 1.2184696791468346e-07, 0.0, 0.0, 0.0, 1.2184696791468346e-07]",,-5.65843705,3.4323275,7.46286065,"[8.999999999999999e-08, 0.0, 0.0, 0.0, 8.999999999999999e-08, 0.0, 0.0, 0.0, 8.999999999999999e-08]"
1579257342881371685,,1312,,1579257342,881153992,"""base_link""",,-0.136958851608,-0.204909627478,0.452486926359,-0.857035529606,"[1.0, 0.0, 0.0, 0.0, 1.0, 0.0, 0.0, 0.0, 1.0]",,-0.533715724945,-0.879889547825,-0.0732792317867,"[1.2184696791468346e-07, 0.0, 0.0, 0.0, 1.2184696791468346e-07, 0.0, 0.0, 0.0, 1.2184696791468346e-07]",,-5.8055368,0.57859235,8.18855275,"[8.999999999999999e-08, 0.0, 0.0, 0.0, 8.999999999999999e-08, 0.0, 0.0, 0.0, 8.999999999999999e-08]"
1579257343113638405,,1313,,1579257343,113495766,"""base_link""",,-0.0298784804571,-0.120470281647,0.475642510499,-0.870837751738,"[1.0, 0.0, 0.0, 0.0, 1.0, 0.0, 0.0, 0.0, 1.0]",,-0.518134057522,-1.02162384987,-0.206580072641,"[1.2184696791468346e-07, 0.0, 0.0, 0.0, 1.2184696791468346e-07, 0.0, 0.0, 0.0, 1.2184696791468346e-07]",,-2.12804305,1.0395049,9.05153795,"[8.999999999999999e-08, 0.0, 0.0, 0.0, 8.999999999999999e-08, 0.0, 0.0, 0.0, 8.999999999999999e-08]"
1579257343357255078,,1314,,1579257343,356859535,"""base_link""",,0.130130404248,-0.0665240367962,0.478710654004,-0.865723246865,"[1.0, 0.0, 0.0, 0.0, 1.0, 0.0, 0.0, 0.0, 1.0]",,-1.22566318512,-1.43938720226,-0.213765308261,"[1.2184696791468346e-07, 0.0, 0.0, 0.0, 1.2184696791468346e-07, 0.0, 0.0, 0.0, 1.2184696791468346e-07]",,-0.59820565,-0.51975245,9.93413645,"[8.999999999999999e-08, 0.0, 0.0, 0.0, 8.999999999999999e-08, 0.0, 0.0, 0.0, 8.999999999999999e-08]"
1579257343586334321,,1315,,1579257343,586155095,"""base_link""",,0.310865143794,0.0550700323264,0.485386250211,-0.815309966835,"[1.0, 0.0, 0.0, 0.0, 1.0, 0.0, 0.0, 0.0, 1.0]",,-0.0903205126524,-1.19777500629,-0.265757381916,"[1.2184696791468346e-07, 0.0, 0.0, 0.0, 1.2184696791468346e-07, 0.0, 0.0, 0.0, 1.2184696791468346e-07]",,4.28550605,-3.57942725,7.99241975,"[8.999999999999999e-08, 0.0, 0.0, 0.0, 8.999999999999999e-08, 0.0, 0.0, 0.0, 8.999999999999999e-08]"
1579257343820783276,,1316,,1579257343,820613356,"""base_link""",,0.349862225446,0.130223829859,0.461666298247,-0.804675342238,"[1.0, 0.0, 0.0, 0.0, 1.0, 0.0, 0.0, 0.0, 1.0]",,-0.0629898384213,-0.706657290459,0.196278318763,"[1.2184696791468346e-07, 0.0, 0.0, 0.0, 1.2184696791468346e-07, 0.0, 0.0, 0.0, 1.2184696791468346e-07]",,2.34378935,-4.89351835,8.041453,"[8.999999999999999e-08, 0.0, 0.0, 0.0, 8.999999999999999e-08, 0.0, 0.0, 0.0, 8.999999999999999e-08]"
1579257344084477653,,1317,,1579257344,84145897,"""base_link""",,0.3667503195,0.183081532239,0.409993714703,-0.814788628789,"[1.0, 0.0, 0.0, 0.0, 1.0, 0.0, 0.0, 0.0, 1.0]",,0.105855725706,-0.220461905003,-0.0217064246535,"[1.2184696791468346e-07, 0.0, 0.0, 0.0, 1.2184696791468346e-07, 0.0, 0.0, 0.0, 1.2184696791468346e-07]",,5.0602314,-4.26589275,7.5118939,"[8.999999999999999e-08, 0.0, 0.0, 0.0, 8.999999999999999e-08, 0.0, 0.0, 0.0, 8.999999999999999e-08]"
1579257344314457649,,1318,,1579257344,314295353,"""base_link""",,0.298814471092,0.140188316262,0.417026930877,-0.846844546994,"[1.0, 0.0, 0.0, 0.0, 1.0, 0.0, 0.0, 0.0, 1.0]",,0.804089128971,1.34167540073,0.768312633038,"[1.2184696791468346e-07, 0.0, 0.0, 0.0, 1.2184696791468346e-07, 0.0, 0.0, 0.0, 1.2184696791468346e-07]",,7.3942141,-5.42307745,7.83551335,"[8.999999999999999e-08, 0.0, 0.0, 0.0, 8.999999999999999e-08, 0.0, 0.0, 0.0, 8.999999999999999e-08]"
1579257344556861967,,1319,,1579257344,556691372,"""base_link""",,0.0805685174639,-0.100367535712,0.377208396997,-0.917141699523,"[1.0, 0.0, 0.0, 0.0, 1.0, 0.0, 0.0, 0.0, 1.0]",,0.943354427814,3.45855641365,0.424200475216,"[1.2184696791468346e-07, 0.0, 0.0, 0.0, 1.2184696791468346e-07, 0.0, 0.0, 0.0, 1.2184696791468346e-07]",,1.765197,-2.745862,7.77667345,"[8.999999999999999e-08, 0.0, 0.0, 0.0, 8.999999999999999e-08, 0.0, 0.0, 0.0, 8.999999999999999e-08]"
1579257344801681262,,1320,,1579257344,801259257,"""base_link""",,-0.0530829833395,-0.37015729682,0.421922657525,-0.825921935511,"[1.0, 0.0, 0.0, 0.0, 1.0, 0.0, 0.0, 0.0, 1.0]",,-0.0518648177385,0.77932292223,-1.3164075613,"[1.2184696791468346e-07, 0.0, 0.0, 0.0, 1.2184696791468346e-07, 0.0, 0.0, 0.0, 1.2184696791468346e-07]",,-6.18799615,-1.3337044,6.58026215,"[8.999999999999999e-08, 0.0, 0.0, 0.0, 8.999999999999999e-08, 0.0, 0.0, 0.0, 8.999999999999999e-08]"
1579257345025354912,,1321,,1579257345,25179574,"""base_link""",,0.128795317427,-0.181388775778,0.49301074469,-0.841100638361,"[1.0, 0.0, 0.0, 0.0, 1.0, 0.0, 0.0, 0.0, 1.0]",,-0.245487585664,-3.56159090996,-0.258348047733,"[1.2184696791468346e-07, 0.0, 0.0, 0.0, 1.2184696791468346e-07, 0.0, 0.0, 0.0, 1.2184696791468346e-07]",,-5.5897905,-4.34434595,8.60043205,"[8.999999999999999e-08, 0.0, 0.0, 0.0, 8.999999999999999e-08, 0.0, 0.0, 0.0, 8.999999999999999e-08]"
1579257345265911816,,1322,,1579257345,265772049,"""base_link""",,0.249640291351,0.0744515018722,0.486437426087,-0.833975616733,"[1.0, 0.0, 0.0, 0.0, 1.0, 0.0, 0.0, 0.0, 1.0]",,0.535778045654,-1.07023608685,-0.433271408081,"[1.2184696791468346e-07, 0.0, 0.0, 0.0, 1.2184696791468346e-07, 0.0, 0.0, 0.0, 1.2184696791468346e-07]",,2.5301157,-3.01064155,8.9632781,"[8.999999999999999e-08, 0.0, 0.0, 0.0, 8.999999999999999e-08, 0.0, 0.0, 0.0, 8.999999999999999e-08]"
1579257345508923995,,1323,,1579257345,508630157,"""base_link""",,0.257880244437,0.179606241119,0.465764768263,-0.827225820635,"[1.0, 0.0, 0.0, 0.0, 1.0, 0.0, 0.0, 0.0, 1.0]",,0.0924208238721,-0.767465829849,0.473615348339,"[1.2184696791468346e-07, 0.0, 0.0, 0.0, 1.2184696791468346e-07, 0.0, 0.0, 0.0, 1.2184696791468346e-07]",,5.32501095,-2.95180165,7.7080269,"[8.999999999999999e-08, 0.0, 0.0, 0.0, 8.999999999999999e-08, 0.0, 0.0, 0.0, 8.999999999999999e-08]"
1579257345748990175,,1324,,1579257345,748829371,"""base_link""",,0.223767687075,0.13623970844,0.416629941429,-0.870509193501,"[1.0, 0.0, 0.0, 0.0, 1.0, 0.0, 0.0, 0.0, 1.0]",,0.357129722834,1.53131699562,0.493821114302,"[1.2184696791468346e-07, 0.0, 0.0, 0.0, 1.2184696791468346e-07, 0.0, 0.0, 0.0, 1.2184696791468346e-07]",,3.95207995,-3.1185147,8.46313895,"[8.999999999999999e-08, 0.0, 0.0, 0.0, 8.999999999999999e-08, 0.0, 0.0, 0.0, 8.999999999999999e-08]"
1579257345996193084,,1325,,1579257345,995998051,"""base_link""",,0.11115823044,-0.0350460929224,0.403694791054,-0.907439328469,"[1.0, 0.0, 0.0, 0.0, 1.0, 0.0, 0.0, 0.0, 1.0]",,0.137808963656,1.92973411083,0.348254680634,"[1.2184696791468346e-07, 0.0, 0.0, 0.0, 1.2184696791468346e-07, 0.0, 0.0, 0.0, 1.2184696791468346e-07]",,-0.36284605,-1.6475172,9.1397978,"[8.999999999999999e-08, 0.0, 0.0, 0.0, 8.999999999999999e-08, 0.0, 0.0, 0.0, 8.999999999999999e-08]"
1579257346233609840,,1326,,1579257346,233290170,"""base_link""",,-0.0274255456855,-0.344289202859,0.359447442891,-0.866896948915,"[1.0, 0.0, 0.0, 0.0, 1.0, 0.0, 0.0, 0.0, 1.0]",,-0.245249524713,3.52489376068,0.479476422071,"[1.2184696791468346e-07, 0.0, 0.0, 0.0, 1.2184696791468346e-07, 0.0, 0.0, 0.0, 1.2184696791468346e-07]",,-6.26644935,-1.0787315,5.5113373,"[8.999999999999999e-08, 0.0, 0.0, 0.0, 8.999999999999999e-08, 0.0, 0.0, 0.0, 8.999999999999999e-08]"
1579257346467334755,,1327,,1579257346,467243336,"""base_link""",,-0.146149709739,-0.57054998537,0.311541742404,-0.745690766523,"[1.0, 0.0, 0.0, 0.0, 1.0, 0.0, 0.0, 0.0, 1.0]",,0.482297599316,1.41137182713,-0.0903239250183,"[1.2184696791468346e-07, 0.0, 0.0, 0.0, 1.2184696791468346e-07, 0.0, 0.0, 0.0, 1.2184696791468346e-07]",,-9.26728425,-0.7453054,2.73605535,"[8.999999999999999e-08, 0.0, 0.0, 0.0, 8.999999999999999e-08, 0.0, 0.0, 0.0, 8.999999999999999e-08]"
1579257346716023063,,1328,,1579257346,715951414,"""base_link""",,0.191809625799,0.658653552065,-0.343356053718,0.641475787678,"[1.0, 0.0, 0.0, 0.0, 1.0, 0.0, 0.0, 0.0, 1.0]",,0.364611059427,0.72252035141,-0.186997339129,"[1.2184696791468346e-07, 0.0, 0.0, 0.0, 1.2184696791468346e-07, 0.0, 0.0, 0.0, 1.2184696791468346e-07]",,-10.07142955,-0.97085835,1.48080415,"[8.999999999999999e-08, 0.0, 0.0, 0.0, 8.999999999999999e-08, 0.0, 0.0, 0.0, 8.999999999999999e-08]"
1579257346950824638,,1329,,1579257346,950540174,"""base_link""",,0.186090987356,0.761827833142,-0.294648118751,0.546050348587,"[1.0, 0.0, 0.0, 0.0, 1.0, 0.0, 0.0, 0.0, 1.0]",,-0.781342685223,1.15081357956,-0.256888955832,"[1.2184696791468346e-07, 0.0, 0.0, 0.0, 1.2184696791468346e-07, 0.0, 0.0, 0.0, 1.2184696791468346e-07]",,-9.6301303,-2.34378935,-1.65732385,"[8.999999999999999e-08, 0.0, 0.0, 0.0, 8.999999999999999e-08, 0.0, 0.0, 0.0, 8.999999999999999e-08]"
1579257347190824149,,1330,,1579257347,190645546,"""base_link""",,0.203943273837,0.822078373518,-0.23661870334,0.476031383504,"[1.0, 0.0, 0.0, 0.0, 1.0, 0.0, 0.0, 0.0, 1.0]",,0.355432063341,0.947859764099,0.0639170482755,"[1.2184696791468346e-07, 0.0, 0.0, 0.0, 1.2184696791468346e-07, 0.0, 0.0, 0.0, 1.2184696791468346e-07]",,-8.62004535,-2.6477955,-4.9229383,"[8.999999999999999e-08, 0.0, 0.0, 0.0, 8.999999999999999e-08, 0.0, 0.0, 0.0, 8.999999999999999e-08]"
1579257347435266553,,1331,,1579257347,435098650,"""base_link""",,0.245518876199,0.846420939119,-0.231108603544,0.412166093485,"[1.0, 0.0, 0.0, 0.0, 1.0, 0.0, 0.0, 0.0, 1.0]",,0.278265058994,0.436360627413,0.115355558693,"[1.2184696791468346e-07, 0.0, 0.0, 0.0, 1.2184696791468346e-07, 0.0, 0.0, 0.0, 1.2184696791468346e-07]",,-7.83551335,-2.42224255,-5.1779112,"[8.999999999999999e-08, 0.0, 0.0, 0.0, 8.999999999999999e-08, 0.0, 0.0, 0.0, 8.999999999999999e-08]"
1579257347670133716,,1332,,1579257347,669677624,"""base_link""",,0.290900610322,0.860654344926,-0.224694764146,0.352367984415,"[1.0, 0.0, 0.0, 0.0, 1.0, 0.0, 0.0, 0.0, 1.0]",,0.0700819194317,0.339659661055,0.128563478589,"[1.2184696791468346e-07, 0.0, 0.0, 0.0, 1.2184696791468346e-07, 0.0, 0.0, 0.0, 1.2184696791468346e-07]",,-7.060788,-1.8436502,-5.9232166,"[8.999999999999999e-08, 0.0, 0.0, 0.0, 8.999999999999999e-08, 0.0, 0.0, 0.0, 8.999999999999999e-08]"
1579257347923786915,,1333,,1579257347,923600008,"""base_link""",,0.297149527044,0.848838893719,-0.278244829483,0.337275119086,"[1.0, 0.0, 0.0, 0.0, 1.0, 0.0, 0.0, 0.0, 1.0]",,0.63518178463,-0.330838322639,-0.425436347723,"[1.2184696791468346e-07, 0.0, 0.0, 0.0, 1.2184696791468346e-07, 0.0, 0.0, 0.0, 1.2184696791468346e-07]",,-7.30595425,-2.9223817,-4.6287388,"[8.999999999999999e-08, 0.0, 0.0, 0.0, 8.999999999999999e-08, 0.0, 0.0, 0.0, 8.999999999999999e-08]"
1579257348160098502,,1334,,1579257348,159868277,"""base_link""",,0.173943170143,0.786253549124,-0.451629200355,0.384161678772,"[1.0, 0.0, 0.0, 0.0, 1.0, 0.0, 0.0, 0.0, 1.0]",,1.24644899368,-1.56487393379,-0.819946408272,"[1.2184696791468346e-07, 0.0, 0.0, 0.0, 1.2184696791468346e-07, 0.0, 0.0, 0.0, 1.2184696791468346e-07]",,-8.18855275,-5.14849125,-3.73633365,"[8.999999999999999e-08, 0.0, 0.0, 0.0, 8.999999999999999e-08, 0.0, 0.0, 0.0, 8.999999999999999e-08]"
1579257348391418089,,1335,,1579257348,391070831,"""base_link""",,0.0837100464863,0.648769599402,-0.563527109414,0.50450751428,"[1.0, 0.0, 0.0, 0.0, 1.0, 0.0, 0.0, 0.0, 1.0]",,0.0617547370493,-1.70741248131,0.172306835651,"[1.2184696791468346e-07, 0.0, 0.0, 0.0, 1.2184696791468346e-07, 0.0, 0.0, 0.0, 1.2184696791468346e-07]",,-8.65927195,-6.7469752,1.4906108,"[8.999999999999999e-08, 0.0, 0.0, 0.0, 8.999999999999999e-08, 0.0, 0.0, 0.0, 8.999999999999999e-08]"
1579257348637062173,,1336,,1579257348,636888530,"""base_link""",,-0.0270408909354,0.545555948213,-0.531543110181,0.647378884121,"[1.0, 0.0, 0.0, 0.0, 1.0, 0.0, 0.0, 0.0, 1.0]",,-0.123478330672,-1.65366339684,0.433807462454,"[1.2184696791468346e-07, 0.0, 0.0, 0.0, 1.2184696791468346e-07, 0.0, 0.0, 0.0, 1.2184696791468346e-07]",,-7.9629998,-6.52142225,2.3928226,"[8.999999999999999e-08, 0.0, 0.0, 0.0, 8.999999999999999e-08, 0.0, 0.0, 0.0, 8.999999999999999e-08]"
1579257348883439837,,1337,,1579257348,883262131,"""base_link""",,0.118504205124,-0.349113498044,0.516240950337,-0.773027683881,"[1.0, 0.0, 0.0, 0.0, 1.0, 0.0, 0.0, 0.0, 1.0]",,0.361516594887,-2.21712660789,-0.0154053475708,"[1.2184696791468346e-07, 0.0, 0.0, 0.0, 1.2184696791468346e-07, 0.0, 0.0, 0.0, 1.2184696791468346e-07]",,-5.5701772,-5.48191735,6.22722275,"[8.999999999999999e-08, 0.0, 0.0, 0.0, 8.999999999999999e-08, 0.0, 0.0, 0.0, 8.999999999999999e-08]"
1579257349126041161,,1338,,1579257349,125641235,"""base_link""",,0.253178704965,-0.0842937353402,0.506613728735,-0.819840008411,"[1.0, 0.0, 0.0, 0.0, 1.0, 0.0, 0.0, 0.0, 1.0]",,0.240172445774,-2.69346284866,-0.431712567806,"[1.2184696791468346e-07, 0.0, 0.0, 0.0, 1.2184696791468346e-07, 0.0, 0.0, 0.0, 1.2184696791468346e-07]",,-0.3138128,-4.5698989,6.4527757,"[8.999999999999999e-08, 0.0, 0.0, 0.0, 8.999999999999999e-08, 0.0, 0.0, 0.0, 8.999999999999999e-08]"
1579257349365108397,,1339,,1579257349,364975992,"""base_link""",,0.313161034876,0.117440000276,0.462522173392,-0.821103679014,"[1.0, 0.0, 0.0, 0.0, 1.0, 0.0, 0.0, 0.0, 1.0]",,0.407863736153,-0.68977856636,-0.0284857265651,"[1.2184696791468346e-07, 0.0, 0.0, 0.0, 1.2184696791468346e-07, 0.0, 0.0, 0.0, 1.2184696791468346e-07]",,4.77583855,-5.16810455,8.12971285,"[8.999999999999999e-08, 0.0, 0.0, 0.0, 8.999999999999999e-08, 0.0, 0.0, 0.0, 8.999999999999999e-08]"
1579257349605566598,,1340,,1579257349,605202834,"""base_link""",,0.241028827647,0.176496727758,0.450647367248,-0.841231810933,"[1.0, 0.0, 0.0, 0.0, 1.0, 0.0, 0.0, 0.0, 1.0]",,1.4436968565,-0.361596941948,-0.158170998096,"[1.2184696791468346e-07, 0.0, 0.0, 0.0, 1.2184696791468346e-07, 0.0, 0.0, 0.0, 1.2184696791468346e-07]",,5.71727695,-3.40290755,11.0226746,"[8.999999999999999e-08, 0.0, 0.0, 0.0, 8.999999999999999e-08, 0.0, 0.0, 0.0, 8.999999999999999e-08]"
1579257349844741833,,1341,,1579257349,844531308,"""base_link""",,0.124194391206,0.321523124863,0.397835512066,-0.850250280041,"[1.0, 0.0, 0.0, 0.0, 1.0, 0.0, 0.0, 0.0, 1.0]",,0.450127601624,-0.611682534218,-0.228789389133,"[1.2184696791468346e-07, 0.0, 0.0, 0.0, 1.2184696791468346e-07, 0.0, 0.0, 0.0, 1.2184696791468346e-07]",,5.32501095,0.8433719,7.24711435,"[8.999999999999999e-08, 0.0, 0.0, 0.0, 8.999999999999999e-08, 0.0, 0.0, 0.0, 8.999999999999999e-08]"
1579257350086466764,,1342,,1579257350,86267963,"""base_link""",,0.116643480245,0.381960066052,0.426685656409,-0.811443255608,"[1.0, 0.0, 0.0, 0.0, 1.0, 0.0, 0.0, 0.0, 1.0]",,-0.355560958385,-0.131649538875,-0.121832467616,"[1.2184696791468346e-07, 0.0, 0.0, 0.0, 1.2184696791468346e-07, 0.0, 0.0, 0.0, 1.2184696791468346e-07]",,6.12915625,1.6671305,7.75706015,"[8.999999999999999e-08, 0.0, 0.0, 0.0, 8.999999999999999e-08, 0.0, 0.0, 0.0, 8.999999999999999e-08]"
1579257350321913116,,1343,,1579257350,321420157,"""base_link""",,0.128288978457,0.218502163688,0.455950414341,-0.853175223581,"[1.0, 0.0, 0.0, 0.0, 1.0, 0.0, 0.0, 0.0, 1.0]",,-0.747424304485,2.29642391205,0.12547044456,"[1.2184696791468346e-07, 0.0, 0.0, 0.0, 1.2184696791468346e-07, 0.0, 0.0, 0.0, 1.2184696791468346e-07]",,5.4328841,-0.0784532,7.7080269,"[8.999999999999999e-08, 0.0, 0.0, 0.0, 8.999999999999999e-08, 0.0, 0.0, 0.0, 8.999999999999999e-08]"
1579257350556547769,,1344,,1579257350,556421212,"""base_link""",,0.0406377426856,-0.0619006283223,0.469614576859,-0.879760782988,"[1.0, 0.0, 0.0, 0.0, 1.0, 0.0, 0.0, 0.0, 1.0]",,-0.286720126867,2.62754583359,0.234308406711,"[1.2184696791468346e-07, 0.0, 0.0, 0.0, 1.2184696791468346e-07, 0.0, 0.0, 0.0, 1.2184696791468346e-07]",,1.10815145,-0.97085835,8.629852,"[8.999999999999999e-08, 0.0, 0.0, 0.0, 8.999999999999999e-08, 0.0, 0.0, 0.0, 8.999999999999999e-08]"
1579257350799885705,,1345,,1579257350,799769279,"""base_link""",,-0.100010480676,-0.331874806141,0.420647598262,-0.83839883998,"[1.0, 0.0, 0.0, 0.0, 1.0, 0.0, 0.0, 0.0, 1.0]",,0.271625161171,1.72958254814,0.0592921376228,"[1.2184696791468346e-07, 0.0, 0.0, 0.0, 1.2184696791468346e-07, 0.0, 0.0, 0.0, 1.2184696791468346e-07]",,-6.93330155,-0.97085835,6.276256,"[8.999999999999999e-08, 0.0, 0.0, 0.0, 8.999999999999999e-08, 0.0, 0.0, 0.0, 8.999999999999999e-08]"
1579257351035850268,,1346,,1579257351,35465556,"""base_link""",,-0.05759813188,-0.370799994511,0.421351121536,-0.82562282651,"[1.0, 0.0, 0.0, 0.0, 1.0, 0.0, 0.0, 0.0, 1.0]",,-0.412545263767,-1.19616174698,-0.781182348728,"[1.2184696791468346e-07, 0.0, 0.0, 0.0, 1.2184696791468346e-07, 0.0, 0.0, 0.0, 1.2184696791468346e-07]",,-7.9433865,-1.5886773,5.97224985,"[8.999999999999999e-08, 0.0, 0.0, 0.0, 8.999999999999999e-08, 0.0, 0.0, 0.0, 8.999999999999999e-08]"
1579257351278012315,,1347,,1579257351,277842753,"""base_link""",,0.0518333587451,-0.196668720486,0.484221011973,-0.850978688845,"[1.0, 0.0, 0.0, 0.0, 1.0, 0.0, 0.0, 0.0, 1.0]",,0.286278039217,-1.51948165894,-0.318621665239,"[1.2184696791468346e-07, 0.0, 0.0, 0.0, 1.2184696791468346e-07, 0.0, 0.0, 0.0, 1.2184696791468346e-07]",,-4.1580196,-3.2558078,8.67888525,"[8.999999999999999e-08, 0.0, 0.0, 0.0, 8.999999999999999e-08, 0.0, 0.0, 0.0, 8.999999999999999e-08]"
1579257351521048226,,1348,,1579257351,520878215,"""base_link""",,0.0657062933541,-0.0782555923481,0.500249505551,-0.859830900513,"[1.0, 0.0, 0.0, 0.0, 1.0, 0.0, 0.0, 0.0, 1.0]",,0.243384689093,-0.842149794102,-0.0747530162334,"[1.2184696791468346e-07, 0.0, 0.0, 0.0, 1.2184696791468346e-07, 0.0, 0.0, 0.0, 1.2184696791468346e-07]",,-0.34323275,-1.176798,10.198916,"[8.999999999999999e-08, 0.0, 0.0, 0.0, 8.999999999999999e-08, 0.0, 0.0, 0.0, 8.999999999999999e-08]"
1579257351768589530,,1349,,1579257351,768277265,"""base_link""",,0.109195910906,-0.0129479622809,0.496066338669,-0.861293672886,"[1.0, 0.0, 0.0, 0.0, 1.0, 0.0, 0.0, 0.0, 1.0]",,-0.0668273866177,-0.525542855263,0.103367380798,"[1.2184696791468346e-07, 0.0, 0.0, 0.0, 1.2184696791468346e-07, 0.0, 0.0, 0.0, 1.2184696791468346e-07]",,1.44157755,-1.63771055,9.1201845,"[8.999999999999999e-08, 0.0, 0.0, 0.0, 8.999999999999999e-08, 0.0, 0.0, 0.0, 8.999999999999999e-08]"
1579257352012929799,,1350,,1579257352,12748815,"""base_link""",,0.1604589666,0.0357414829082,0.487791950059,-0.857341518821,"[1.0, 0.0, 0.0, 0.0, 1.0, 0.0, 0.0, 0.0, 1.0]",,-0.533490240574,-0.588734328747,-0.26618540287,"[1.2184696791468346e-07, 0.0, 0.0, 0.0, 1.2184696791468346e-07, 0.0, 0.0, 0.0, 1.2184696791468346e-07]",,0.65704555,-2.10842975,8.97308475,"[8.999999999999999e-08, 0.0, 0.0, 0.0, 8.999999999999999e-08, 0.0, 0.0, 0.0, 8.999999999999999e-08]"
1579257352244071191,,1351,,1579257352,243917898,"""base_link""",,0.296354503391,0.0532528298943,0.49705766416,-0.813800849673,"[1.0, 0.0, 0.0, 0.0, 1.0, 0.0, 0.0, 0.0, 1.0]",,-1.22936284542,-0.426753520966,-0.0824045389891,"[1.2184696791468346e-07, 0.0, 0.0, 0.0, 1.2184696791468346e-07, 0.0, 0.0, 0.0, 1.2184696791468346e-07]",,2.89296175,-3.6088472,7.67860695,"[8.999999999999999e-08, 0.0, 0.0, 0.0, 8.999999999999999e-08, 0.0, 0.0, 0.0, 8.999999999999999e-08]"
1579257352479184599,,1352,,1579257352,478903850,"""base_link""",,0.433302630495,0.00969066275327,0.504342713303,-0.746855641339,"[1.0, 0.0, 0.0, 0.0, 1.0, 0.0, 0.0, 0.0, 1.0]",,-1.31663560867,-0.55412876606,-0.313080698252,"[1.2184696791468346e-07, 0.0, 0.0, 0.0, 1.2184696791468346e-07, 0.0, 0.0, 0.0, 1.2184696791468346e-07]",,5.34462425,-5.6094038,5.54075725,"[8.999999999999999e-08, 0.0, 0.0, 0.0, 8.999999999999999e-08, 0.0, 0.0, 0.0, 8.999999999999999e-08]"
1579257352726404226,,1353,,1579257352,726270971,"""base_link""",,0.587759270728,0.0152592846447,0.477121144654,-0.653193391906,"[1.0, 0.0, 0.0, 0.0, 1.0, 0.0, 0.0, 0.0, 1.0]",,-1.03580415249,-0.506956100464,-0.20150513947,"[1.2184696791468346e-07, 0.0, 0.0, 0.0, 1.2184696791468346e-07, 0.0, 0.0, 0.0, 1.2184696791468346e-07]",,6.1389629,-7.5118939,2.5301157,"[8.999999999999999e-08, 0.0, 0.0, 0.0, 8.999999999999999e-08, 0.0, 0.0, 0.0, 8.999999999999999e-08]"
1579257352959977012,,1354,,1579257352,959777996,"""base_link""",,0.64080257946,0.0030518624331,0.461533396245,-0.613473442329,"[1.0, 0.0, 0.0, 0.0, 1.0, 0.0, 0.0, 0.0, 1.0]",,-0.522985458374,-0.132555097342,0.198575288057,"[1.2184696791468346e-07, 0.0, 0.0, 0.0, 1.2184696791468346e-07, 0.0, 0.0, 0.0, 1.2184696791468346e-07]",,5.95263655,-7.8257067,1.2748645,"[8.999999999999999e-08, 0.0, 0.0, 0.0, 8.999999999999999e-08, 0.0, 0.0, 0.0, 8.999999999999999e-08]"
1579257353210690858,,1355,,1579257353,210305978,"""base_link""",,0.69713685645,-0.0281393324623,0.437766996375,-0.567070047025,"[1.0, 0.0, 0.0, 0.0, 1.0, 0.0, 0.0, 0.0, 1.0]",,-0.637678205967,-0.206993192434,-0.00410308269784,"[1.2184696791468346e-07, 0.0, 0.0, 0.0, 1.2184696791468346e-07, 0.0, 0.0, 0.0, 1.2184696791468346e-07]",,5.44269075,-8.7279185,1.1179581,"[8.999999999999999e-08, 0.0, 0.0, 0.0, 8.999999999999999e-08, 0.0, 0.0, 0.0, 8.999999999999999e-08]"
1579257353444470089,,1356,,1579257353,444333541,"""base_link""",,0.746471712176,-0.0505699723339,0.415508477463,-0.517276875547,"[1.0, 0.0, 0.0, 0.0, 1.0, 0.0, 0.0, 0.0, 1.0]",,-0.49903267622,-0.190260991454,0.169493705034,"[1.2184696791468346e-07, 0.0, 0.0, 0.0, 1.2184696791468346e-07, 0.0, 0.0, 0.0, 1.2184696791468346e-07]",,4.28550605,-8.22777935,0.5295591,"[8.999999999999999e-08, 0.0, 0.0, 0.0, 8.999999999999999e-08, 0.0, 0.0, 0.0, 8.999999999999999e-08]"
1579257353681724015,,1357,,1579257353,681534837,"""base_link""",,0.768089263721,-0.0703908020018,0.371440286505,-0.516832788734,"[1.0, 0.0, 0.0, 0.0, 1.0, 0.0, 0.0, 0.0, 1.0]",,0.038122870028,-0.115945033729,0.33955270052,"[1.2184696791468346e-07, 0.0, 0.0, 0.0, 1.2184696791468346e-07, 0.0, 0.0, 0.0, 1.2184696791468346e-07]",,5.3544309,-8.7279185,-1.3337044,"[8.999999999999999e-08, 0.0, 0.0, 0.0, 8.999999999999999e-08, 0.0, 0.0, 0.0, 8.999999999999999e-08]"
1579257353929895489,,1358,,1579257353,929464717,"""base_link""",,0.741216915305,-0.0726141681442,0.382294957714,-0.54696913291,"[1.0, 0.0, 0.0, 0.0, 1.0, 0.0, 0.0, 0.0, 1.0]",,0.569619119167,0.196489691734,-0.0940332710743,"[1.2184696791468346e-07, 0.0, 0.0, 0.0, 1.2184696791468346e-07, 0.0, 0.0, 0.0, 1.2184696791468346e-07]",,4.95235825,-8.50236555,-1.10815145,"[8.999999999999999e-08, 0.0, 0.0, 0.0, 8.999999999999999e-08, 0.0, 0.0, 0.0, 8.999999999999999e-08]"
1579257354159527149,,1359,,1579257354,159365261,"""base_link""",,0.682674662301,-0.0571929293951,0.404516062114,-0.605847365078,"[1.0, 0.0, 0.0, 0.0, 1.0, 0.0, 0.0, 0.0, 1.0]",,0.558815002441,0.28434664011,0.124170251191,"[1.2184696791468346e-07, 0.0, 0.0, 0.0, 1.2184696791468346e-07, 0.0, 0.0, 0.0, 1.2184696791468346e-07]",,5.0406181,-7.7668668,0.392266,"[8.999999999999999e-08, 0.0, 0.0, 0.0, 8.999999999999999e-08, 0.0, 0.0, 0.0, 8.999999999999999e-08]"
1579257354411062504,,1360,,1579257354,410633104,"""base_link""",,0.648238371999,-0.0548909809418,0.399805067934,-0.645701092561,"[1.0, 0.0, 0.0, 0.0, 1.0, 0.0, 0.0, 0.0, 1.0]",,0.422806948423,-0.088055498898,0.115638665855,"[1.2184696791468346e-07, 0.0, 0.0, 0.0, 1.2184696791468346e-07, 0.0, 0.0, 0.0, 1.2184696791468346e-07]",,4.6287388,-8.44352565,1.9221034,"[8.999999999999999e-08, 0.0, 0.0, 0.0, 8.999999999999999e-08, 0.0, 0.0, 0.0, 8.999999999999999e-08]"
1579257354644657267,,1361,,1579257354,644504864,"""base_link""",,0.619542818775,-0.0385170700676,0.403299515759,-0.672333720414,"[1.0, 0.0, 0.0, 0.0, 1.0, 0.0, 0.0, 0.0, 1.0]",,0.448270142078,0.07033316046,-0.064364887774,"[1.2184696791468346e-07, 0.0, 0.0, 0.0, 1.2184696791468346e-07, 0.0, 0.0, 0.0, 1.2184696791468346e-07]",,5.0406181,-11.0226746,3.36368095,"[8.999999999999999e-08, 0.0, 0.0, 0.0, 8.999999999999999e-08, 0.0, 0.0, 0.0, 8.999999999999999e-08]"
1579257354887348007,,1362,,1579257354,887176587,"""base_link""",,0.51229798545,0.0754382883744,0.423334277086,-0.743402938248,"[1.0, 0.0, 0.0, 0.0, 1.0, 0.0, 0.0, 0.0, 1.0]",,1.9840066433,-0.537114322186,-0.709452807903,"[1.2184696791468346e-07, 0.0, 0.0, 0.0, 1.2184696791468346e-07, 0.0, 0.0, 0.0, 1.2184696791468346e-07]",,4.5895122,-7.5903471,5.28578435,"[8.999999999999999e-08, 0.0, 0.0, 0.0, 8.999999999999999e-08, 0.0, 0.0, 0.0, 8.999999999999999e-08]"
1579257355129179900,,1363,,1579257355,128810721,"""base_link""",,0.378585266531,0.226207277055,0.426031440829,-0.7899371337,"[1.0, 0.0, 0.0, 0.0, 1.0, 0.0, 0.0, 0.0, 1.0]",,0.825309038162,-0.341520667076,-0.518175661564,"[1.2184696791468346e-07, 0.0, 0.0, 0.0, 1.2184696791468346e-07, 0.0, 0.0, 0.0, 1.2184696791468346e-07]",,5.38385085,-4.2953127,5.3544309,"[8.999999999999999e-08, 0.0, 0.0, 0.0, 8.999999999999999e-08, 0.0, 0.0, 0.0, 8.999999999999999e-08]"
1579257355369613072,,1364,,1579257355,369441268,"""base_link""",,0.315124937421,0.250029813481,0.456279428107,-0.793719377156,"[1.0, 0.0, 0.0, 0.0, 1.0, 0.0, 0.0, 0.0, 1.0]",,0.143315374851,0.307056099176,-0.486118555069,"[1.2184696791468346e-07, 0.0, 0.0, 0.0, 1.2184696791468346e-07, 0.0, 0.0, 0.0, 1.2184696791468346e-07]",,5.8643767,-3.8049802,7.56092715,"[8.999999999999999e-08, 0.0, 0.0, 0.0, 8.999999999999999e-08, 0.0, 0.0, 0.0, 8.999999999999999e-08]"
1579257355603221965,,1365,,1579257355,603068933,"""base_link""",,0.311477242127,0.323086275569,0.506627600555,-0.73615600285,"[1.0, 0.0, 0.0, 0.0, 1.0, 0.0, 0.0, 0.0, 1.0]",,0.407717168331,0.0487195141613,-0.472393006086,"[1.2184696791468346e-07, 0.0, 0.0, 0.0, 1.2184696791468346e-07, 0.0, 0.0, 0.0, 1.2184696791468346e-07]",,9.40457735,-1.69655045,5.9232166,"[8.999999999999999e-08, 0.0, 0.0, 0.0, 8.999999999999999e-08, 0.0, 0.0, 0.0, 8.999999999999999e-08]"
1579257355850636178,,1366,,1579257355,850252144,"""base_link""",,0.191235580818,0.245098545502,0.502567186362,-0.806710529753,"[1.0, 0.0, 0.0, 0.0, 1.0, 0.0, 0.0, 0.0, 1.0]",,0.435588628054,1.86028397083,0.39730745554,"[1.2184696791468346e-07, 0.0, 0.0, 0.0, 1.2184696791468346e-07, 0.0, 0.0, 0.0, 1.2184696791468346e-07]",,6.56064885,0.10787315,6.65871535,"[8.999999999999999e-08, 0.0, 0.0, 0.0, 8.999999999999999e-08, 0.0, 0.0, 0.0, 8.999999999999999e-08]"
1579257356095368163,,1367,,1579257356,95277938,"""base_link""",,0.0662684470401,0.0666336013533,0.509189149648,-0.855508542318,"[1.0, 0.0, 0.0, 0.0, 1.0, 0.0, 0.0, 0.0, 1.0]",,0.15974830091,1.68919861317,-0.0562449991703,"[1.2184696791468346e-07, 0.0, 0.0, 0.0, 1.2184696791468346e-07, 0.0, 0.0, 0.0, 1.2184696791468346e-07]",,1.44157755,-0.44129925,9.80665,"[8.999999999999999e-08, 0.0, 0.0, 0.0, 8.999999999999999e-08, 0.0, 0.0, 0.0, 8.999999999999999e-08]"
1579257356330593812,,1368,,1579257356,330469692,"""base_link""",,-0.0311247472338,-0.059508625433,0.503456092858,-0.861406951547,"[1.0, 0.0, 0.0, 0.0, 1.0, 0.0, 0.0, 0.0, 1.0]",,-0.037016518414,0.982085168362,-0.0457187183201,"[1.2184696791468346e-07, 0.0, 0.0, 0.0, 1.2184696791468346e-07, 0.0, 0.0, 0.0, 1.2184696791468346e-07]",,-2.941995,0.9414384,9.16921775,"[8.999999999999999e-08, 0.0, 0.0, 0.0, 8.999999999999999e-08, 0.0, 0.0, 0.0, 8.999999999999999e-08]"
1579257356564686287,,1369,,1579257356,564317315,"""base_link""",,-0.0469104159758,-0.131300593684,0.515106245627,-0.845709833623,"[1.0, 0.0, 0.0, 0.0, 1.0, 0.0, 0.0, 0.0, 1.0]",,-0.319684177637,0.339372456074,-0.0871016681194,"[1.2184696791468346e-07, 0.0, 0.0, 0.0, 1.2184696791468346e-07, 0.0, 0.0, 0.0, 1.2184696791468346e-07]",,-2.85373515,0.12748645,9.0417313,"[8.999999999999999e-08, 0.0, 0.0, 0.0, 8.999999999999999e-08, 0.0, 0.0, 0.0, 8.999999999999999e-08]"
1579257356807032336,,1370,,1579257356,806894827,"""base_link""",,-0.0250627151041,-0.174339230621,0.500650929663,-0.847541349791,"[1.0, 0.0, 0.0, 0.0, 1.0, 0.0, 0.0, 0.0, 1.0]",,-0.234788760543,-0.296843826771,0.117310069501,"[1.2184696791468346e-07, 0.0, 0.0, 0.0, 1.2184696791468346e-07, 0.0, 0.0, 0.0, 1.2184696791468346e-07]",,-3.6088472,-0.8629852,8.75733845,"[8.999999999999999e-08, 0.0, 0.0, 0.0, 8.999999999999999e-08, 0.0, 0.0, 0.0, 8.999999999999999e-08]"
1579257357039294897,,1371,,1579257357,39149246,"""base_link""",,0.0301634713352,-0.10695176598,0.504027028055,-0.856509334299,"[1.0, 0.0, 0.0, 0.0, 1.0, 0.0, 0.0, 0.0, 1.0]",,-0.0996260195971,-1.48478591442,-0.327308088541,"[1.2184696791468346e-07, 0.0, 0.0, 0.0, 1.2184696791468346e-07, 0.0, 0.0, 0.0, 1.2184696791468346e-07]",,-2.77528195,-1.2748645,9.6497436,"[8.999999999999999e-08, 0.0, 0.0, 0.0, 8.999999999999999e-08, 0.0, 0.0, 0.0, 8.999999999999999e-08]"
1579257357307394050,,1372,,1579257357,307106748,"""base_link""",,0.202811616996,0.137200390173,0.514384063322,-0.821859194965,"[1.0, 0.0, 0.0, 0.0, 1.0, 0.0, 0.0, 0.0, 1.0]",,-0.247059032321,-2.86073732376,-0.238051638007,"[1.2184696791468346e-07, 0.0, 0.0, 0.0, 1.2184696791468346e-07, 0.0, 0.0, 0.0, 1.2184696791468346e-07]",,2.2359162,-0.3726527,7.30595425,"[8.999999999999999e-08, 0.0, 0.0, 0.0, 8.999999999999999e-08, 0.0, 0.0, 0.0, 8.999999999999999e-08]"
1579257357524442173,,1373,,1579257357,524240134,"""base_link""",,0.344985633183,0.29201374406,0.461669807942,-0.763265271457,"[1.0, 0.0, 0.0, 0.0, 1.0, 0.0, 0.0, 0.0, 1.0]",,-0.601091682911,-0.72800642252,0.596027195454,"[1.2184696791468346e-07, 0.0, 0.0, 0.0, 1.2184696791468346e-07, 0.0, 0.0, 0.0, 1.2184696791468346e-07]",,7.1196279,-2.01036325,5.48191735,"[8.999999999999999e-08, 0.0, 0.0, 0.0, 8.999999999999999e-08, 0.0, 0.0, 0.0, 8.999999999999999e-08]"
1579257357764541241,,1374,,1579257357,764406747,"""base_link""",,0.422427787411,0.214908753644,0.410040988945,-0.779253090732,"[1.0, 0.0, 0.0, 0.0, 1.0, 0.0, 0.0, 0.0, 1.0]",,-0.313826024532,0.510856509209,0.796803295612,"[1.2184696791468346e-07, 0.0, 0.0, 0.0, 1.2184696791468346e-07, 0.0, 0.0, 0.0, 1.2184696791468346e-07]",,7.16866115,-4.4129925,5.42307745,"[8.999999999999999e-08, 0.0, 0.0, 0.0, 8.999999999999999e-08, 0.0, 0.0, 0.0, 8.999999999999999e-08]"
1579257358018286835,,1375,,1579257358,17974782,"""base_link""",,0.347925042271,0.113190476416,0.387021203787,-0.846375016662,"[1.0, 0.0, 0.0, 0.0, 1.0, 0.0, 0.0, 0.0, 1.0]",,0.84144037962,1.35529661179,0.32573518157,"[1.2184696791468346e-07, 0.0, 0.0, 0.0, 1.2184696791468346e-07, 0.0, 0.0, 0.0, 1.2184696791468346e-07]",,4.32473265,-4.95235825,6.3350959,"[8.999999999999999e-08, 0.0, 0.0, 0.0, 8.999999999999999e-08, 0.0, 0.0, 0.0, 8.999999999999999e-08]"
1579257358243898358,,1376,,1579257358,243742269,"""base_link""",,0.206245275892,0.0158760200218,0.428891153491,-0.879353863139,"[1.0, 0.0, 0.0, 0.0, 1.0, 0.0, 0.0, 0.0, 1.0]",,0.783696115017,0.920569956303,-0.260102748871,"[1.2184696791468346e-07, 0.0, 0.0, 0.0, 1.2184696791468346e-07, 0.0, 0.0, 0.0, 1.2184696791468346e-07]",,1.7455837,-3.91285335,8.6886919,"[8.999999999999999e-08, 0.0, 0.0, 0.0, 8.999999999999999e-08, 0.0, 0.0, 0.0, 8.999999999999999e-08]"
