rosbagTimestamp,header,seq,stamp,secs,nsecs,frame_id,orientation,x,y,z,w,orientation_covariance,angular_velocity,x,y,z,angular_velocity_covariance,linear_acceleration,x,y,z,linear_acceleration_covariance
1574068125011071599,,632,,1574068125,10741116,"""base_link""",,-0.0207949027898,-0.0123832703731,-0.956557083566,-0.290538762495,"[1.0, 0.0, 0.0, 0.0, 1.0, 0.0, 0.0, 0.0, 1.0]",,0.0534222833812,-0.0122145237401,-0.524122655392,"[1.2184696791468346e-07, 0.0, 0.0, 0.0, 1.2184696791468346e-07, 0.0, 0.0, 0.0, 1.2184696791468346e-07]",,0.1569064,0.0588399,7.2176944,"[8.999999999999999e-08, 0.0, 0.0, 0.0, 8.999999999999999e-08, 0.0, 0.0, 0.0, 8.999999999999999e-08]"
1574068125271021110,,633,,1574068125,270857811,"""base_link""",,-0.0300647565738,-0.01823433702,-0.932243445622,-0.360119115656,"[1.0, 0.0, 0.0, 0.0, 1.0, 0.0, 0.0, 0.0, 1.0]",,0.0458370819688,-0.122746542096,-0.6381098032,"[1.2184696791468346e-07, 0.0, 0.0, 0.0, 1.2184696791468346e-07, 0.0, 0.0, 0.0, 1.2184696791468346e-07]",,0.2353596,0.3530394,7.79628675,"[8.999999999999999e-08, 0.0, 0.0, 0.0, 8.999999999999999e-08, 0.0, 0.0, 0.0, 8.999999999999999e-08]"
1574068125555321026,,634,,1574068125,555015994,"""base_link""",,-0.034922220669,-0.0376850034802,-0.87801563919,-0.47586638498,"[1.0, 0.0, 0.0, 0.0, 1.0, 0.0, 0.0, 0.0, 1.0]",,0.0170140750706,0.426415890455,-1.3827277422,"[1.2184696791468346e-07, 0.0, 0.0, 0.0, 1.2184696791468346e-07, 0.0, 0.0, 0.0, 1.2184696791468346e-07]",,-4.8052585,6.08992965,0.93163175,"[8.999999999999999e-08, 0.0, 0.0, 0.0, 8.999999999999999e-08, 0.0, 0.0, 0.0, 8.999999999999999e-08]"
1574068125820684713,,635,,1574068125,820466234,"""base_link""",,-0.0353749125423,-0.0261846287062,-0.783279438687,-0.620109910993,"[1.0, 0.0, 0.0, 0.0, 1.0, 0.0, 0.0, 0.0, 1.0]",,-1.7119988203,-0.16773879528,-1.17986166477,"[1.2184696791468346e-07, 0.0, 0.0, 0.0, 1.2184696791468346e-07, 0.0, 0.0, 0.0, 1.2184696791468346e-07]",,0.38245935,-0.06864655,6.3939358,"[8.999999999999999e-08, 0.0, 0.0, 0.0, 8.999999999999999e-08, 0.0, 0.0, 0.0, 8.999999999999999e-08]"
1574068126083657499,,636,,1574068126,83289263,"""base_link""",,-0.017245512514,-0.011607273611,-0.690274267259,-0.723249126828,"[1.0, 0.0, 0.0, 0.0, 1.0, 0.0, 0.0, 0.0, 1.0]",,-0.542844593525,0.0161280557513,-0.792911887169,"[1.2184696791468346e-07, 0.0, 0.0, 0.0, 1.2184696791468346e-07, 0.0, 0.0, 0.0, 1.2184696791468346e-07]",,0.7453054,1.02969825,7.0019481,"[8.999999999999999e-08, 0.0, 0.0, 0.0, 8.999999999999999e-08, 0.0, 0.0, 0.0, 8.999999999999999e-08]"
1574068126340057639,,637,,1574068126,339835220,"""base_link""",,-0.00877092918545,-0.0223406053859,-0.661012094844,-0.749991319031,"[1.0, 0.0, 0.0, 0.0, 1.0, 0.0, 0.0, 0.0, 1.0]",,-0.0816694870591,0.0849030837417,0.00871090404689,"[1.2184696791468346e-07, 0.0, 0.0, 0.0, 1.2184696791468346e-07, 0.0, 0.0, 0.0, 1.2184696791468346e-07]",,-1.0787315,-0.8825985,9.8458766,"[8.999999999999999e-08, 0.0, 0.0, 0.0, 8.999999999999999e-08, 0.0, 0.0, 0.0, 8.999999999999999e-08]"
1574068126608701109,,638,,1574068126,608276619,"""base_link""",,-0.00741873163691,-0.0248354534666,-0.663525688418,-0.74770436904,"[1.0, 0.0, 0.0, 0.0, 1.0, 0.0, 0.0, 0.0, 1.0]",,-0.042466275394,0.0147665496916,0.0182804260403,"[1.2184696791468346e-07, 0.0, 0.0, 0.0, 1.2184696791468346e-07, 0.0, 0.0, 0.0, 1.2184696791468346e-07]",,-0.40207265,0.67665885,9.8654899,"[8.999999999999999e-08, 0.0, 0.0, 0.0, 8.999999999999999e-08, 0.0, 0.0, 0.0, 8.999999999999999e-08]"
1574068126886739510,,639,,1574068126,886572190,"""base_link""",,-0.0076387423946,-0.0259819095635,-0.66382659673,-0.747396039235,"[1.0, 0.0, 0.0, 0.0, 1.0, 0.0, 0.0, 0.0, 1.0]",,-0.0109186572954,-0.00967917218804,0.00904481671751,"[1.2184696791468346e-07, 0.0, 0.0, 0.0, 1.2184696791468346e-07, 0.0, 0.0, 0.0, 1.2184696791468346e-07]",,-0.4707192,0.14709975,9.71839015,"[8.999999999999999e-08, 0.0, 0.0, 0.0, 8.999999999999999e-08, 0.0, 0.0, 0.0, 8.999999999999999e-08]"
1574068127141071269,,640,,1574068127,140694717,"""base_link""",,-0.00763830304716,-0.0263989017531,-0.664197811408,-0.747051552193,"[1.0, 0.0, 0.0, 0.0, 1.0, 0.0, 0.0, 0.0, 1.0]",,-0.00685251131654,-0.0128186829388,-0.00455867312849,"[1.2184696791468346e-07, 0.0, 0.0, 0.0, 1.2184696791468346e-07, 0.0, 0.0, 0.0, 1.2184696791468346e-07]",,-0.53936575,0.46091255,9.91452315,"[8.999999999999999e-08, 0.0, 0.0, 0.0, 8.999999999999999e-08, 0.0, 0.0, 0.0, 8.999999999999999e-08]"
1574068127430912411,,641,,1574068127,430611142,"""base_link""",,-0.00743075745041,-0.0270662329819,-0.66483966695,-0.746458585673,"[1.0, 0.0, 0.0, 0.0, 1.0, 0.0, 0.0, 0.0, 1.0]",,-0.00864720437676,-0.000617500336375,-0.0108112609014,"[1.2184696791468346e-07, 0.0, 0.0, 0.0, 1.2184696791468346e-07, 0.0, 0.0, 0.0, 1.2184696791468346e-07]",,-0.3726527,0.61781895,9.8262633,"[8.999999999999999e-08, 0.0, 0.0, 0.0, 8.999999999999999e-08, 0.0, 0.0, 0.0, 8.999999999999999e-08]"
1574068127748312780,,642,,1574068127,747950047,"""base_link""",,-0.00705457384528,-0.028282588829,-0.665773870783,-0.745583986644,"[1.0, 0.0, 0.0, 0.0, 1.0, 0.0, 0.0, 0.0, 1.0]",,0.0359281487763,0.0298231188208,-0.00447987113148,"[1.2184696791468346e-07, 0.0, 0.0, 0.0, 1.2184696791468346e-07, 0.0, 0.0, 0.0, 1.2184696791468346e-07]",,-0.24516625,0.30400615,9.9439431,"[8.999999999999999e-08, 0.0, 0.0, 0.0, 8.999999999999999e-08, 0.0, 0.0, 0.0, 8.999999999999999e-08]"
1574068128015778599,,643,,1574068128,15523930,"""base_link""",,-0.00582479544692,-0.0292061870446,-0.667051281463,-0.744416320545,"[1.0, 0.0, 0.0, 0.0, 1.0, 0.0, 0.0, 0.0, 1.0]",,-0.00404032599181,-0.0071690119803,0.0483077950776,"[1.2184696791468346e-07, 0.0, 0.0, 0.0, 1.2184696791468346e-07, 0.0, 0.0, 0.0, 1.2184696791468346e-07]",,-0.3530394,0.30400615,9.83606995,"[8.999999999999999e-08, 0.0, 0.0, 0.0, 8.999999999999999e-08, 0.0, 0.0, 0.0, 8.999999999999999e-08]"
1574068128260663056,,644,,1574068128,260357759,"""base_link""",,-0.00536343387823,-0.0309478891147,-0.667256713296,-0.744165264103,"[1.0, 0.0, 0.0, 0.0, 1.0, 0.0, 0.0, 0.0, 1.0]",,0.033312600106,0.0108260782436,0.00609226152301,"[1.2184696791468346e-07, 0.0, 0.0, 0.0, 1.2184696791468346e-07, 0.0, 0.0, 0.0, 1.2184696791468346e-07]",,-0.4707192,0.5295591,9.87529655,"[8.999999999999999e-08, 0.0, 0.0, 0.0, 8.999999999999999e-08, 0.0, 0.0, 0.0, 8.999999999999999e-08]"
1574068128518699345,,645,,1574068128,518531328,"""base_link""",,-0.00441324158084,-0.0307287034245,-0.668409402461,-0.743145437169,"[1.0, 0.0, 0.0, 0.0, 1.0, 0.0, 0.0, 0.0, 1.0]",,-0.0482222549617,0.0187124423683,0.000577413709834,"[1.2184696791468346e-07, 0.0, 0.0, 0.0, 1.2184696791468346e-07, 0.0, 0.0, 0.0, 1.2184696791468346e-07]",,-0.6668522,0.4511059,9.610517,"[8.999999999999999e-08, 0.0, 0.0, 0.0, 8.999999999999999e-08, 0.0, 0.0, 0.0, 8.999999999999999e-08]"
1574068128809396048,,646,,1574068128,809078568,"""base_link""",,-0.00349834482373,-0.032130301315,-0.669203605099,-0.742375875311,"[1.0, 0.0, 0.0, 0.0, 1.0, 0.0, 0.0, 0.0, 1.0]",,0.00415717298165,0.00446080090478,0.00944962259382,"[1.2184696791468346e-07, 0.0, 0.0, 0.0, 1.2184696791468346e-07, 0.0, 0.0, 0.0, 1.2184696791468346e-07]",,-0.5295591,0.44129925,9.8654899,"[8.999999999999999e-08, 0.0, 0.0, 0.0, 8.999999999999999e-08, 0.0, 0.0, 0.0, 8.999999999999999e-08]"
1574068129085132880,,647,,1574068129,84809759,"""base_link""",,-0.00266964456674,-0.0328740022515,-0.669334081718,-0.742229115587,"[1.0, 0.0, 0.0, 0.0, 1.0, 0.0, 0.0, 0.0, 1.0]",,-0.0837794318795,0.0633915364742,-0.00660089589655,"[1.2184696791468346e-07, 0.0, 0.0, 0.0, 1.2184696791468346e-07, 0.0, 0.0, 0.0, 1.2184696791468346e-07]",,-0.4511059,0.34323275,9.71839015,"[8.999999999999999e-08, 0.0, 0.0, 0.0, 8.999999999999999e-08, 0.0, 0.0, 0.0, 8.999999999999999e-08]"
1574068129341317610,,648,,1574068129,341001868,"""base_link""",,0.0130310313782,-0.0385426149601,-0.674680357514,-0.736987838595,"[1.0, 0.0, 0.0, 0.0, 1.0, 0.0, 0.0, 0.0, 1.0]",,-0.0794485732913,0.14986461401,0.0658460184932,"[1.2184696791468346e-07, 0.0, 0.0, 0.0, 1.2184696791468346e-07, 0.0, 0.0, 0.0, 1.2184696791468346e-07]",,-0.26477955,0.16671305,9.85568325,"[8.999999999999999e-08, 0.0, 0.0, 0.0, 8.999999999999999e-08, 0.0, 0.0, 0.0, 8.999999999999999e-08]"
1574068129665545421,,649,,1574068129,665226210,"""base_link""",,0.0397621130245,-0.0637930875104,-0.677898278021,-0.731302496242,"[1.0, 0.0, 0.0, 0.0, 1.0, 0.0, 0.0, 0.0, 1.0]",,0.0286953579634,0.365083783865,-0.0136793768033,"[1.2184696791468346e-07, 0.0, 0.0, 0.0, 1.2184696791468346e-07, 0.0, 0.0, 0.0, 1.2184696791468346e-07]",,-1.4121576,0.1176798,10.01258965,"[8.999999999999999e-08, 0.0, 0.0, 0.0, 8.999999999999999e-08, 0.0, 0.0, 0.0, 8.999999999999999e-08]"
1574068129899875767,,650,,1574068129,899650123,"""base_link""",,0.0893406751011,-0.111457957845,-0.674108003339,-0.724688738176,"[1.0, 0.0, 0.0, 0.0, 1.0, 0.0, 0.0, 0.0, 1.0]",,-0.083558768034,0.666450500488,0.0409758649766,"[1.2184696791468346e-07, 0.0, 0.0, 0.0, 1.2184696791468346e-07, 0.0, 0.0, 0.0, 1.2184696791468346e-07]",,-1.69655045,-0.1372931,9.67916355,"[8.999999999999999e-08, 0.0, 0.0, 0.0, 8.999999999999999e-08, 0.0, 0.0, 0.0, 8.999999999999999e-08]"
1574068130192963307,,651,,1574068130,192620567,"""base_link""",,0.159101163129,-0.198037651553,-0.651322001613,-0.715015775122,"[1.0, 0.0, 0.0, 0.0, 1.0, 0.0, 0.0, 0.0, 1.0]",,0.187574803829,0.966906428337,-0.250934422016,"[1.2184696791468346e-07, 0.0, 0.0, 0.0, 1.2184696791468346e-07, 0.0, 0.0, 0.0, 1.2184696791468346e-07]",,-3.32445435,0.196133,9.52225715,"[8.999999999999999e-08, 0.0, 0.0, 0.0, 8.999999999999999e-08, 0.0, 0.0, 0.0, 8.999999999999999e-08]"
1574068130443925916,,652,,1574068130,443800162,"""base_link""",,0.292240391673,-0.333722304281,-0.599423992265,-0.666270106337,"[1.0, 0.0, 0.0, 0.0, 1.0, 0.0, 0.0, 0.0, 1.0]",,-0.228424683213,2.15934085846,0.0919028967619,"[1.2184696791468346e-07, 0.0, 0.0, 0.0, 1.2184696791468346e-07, 0.0, 0.0, 0.0, 1.2184696791468346e-07]",,-4.24627945,0.2353596,7.93357985,"[8.999999999999999e-08, 0.0, 0.0, 0.0, 8.999999999999999e-08, 0.0, 0.0, 0.0, 8.999999999999999e-08]"
1574068130699948610,,653,,1574068130,699631105,"""base_link""",,0.43038440138,-0.508253724725,-0.506673659071,-0.547475315933,"[1.0, 0.0, 0.0, 0.0, 1.0, 0.0, 0.0, 0.0, 1.0]",,0.149909228086,1.4399305582,-0.781773328781,"[1.2184696791468346e-07, 0.0, 0.0, 0.0, 1.2184696791468346e-07, 0.0, 0.0, 0.0, 1.2184696791468346e-07]",,-9.1397978,1.0002783,4.3345393,"[8.999999999999999e-08, 0.0, 0.0, 0.0, 8.999999999999999e-08, 0.0, 0.0, 0.0, 8.999999999999999e-08]"
1574068130964380237,,654,,1574068130,964232494,"""base_link""",,0.60246096958,-0.71530555001,-0.230269918164,-0.268987945912,"[1.0, 0.0, 0.0, 0.0, 1.0, 0.0, 0.0, 0.0, 1.0]",,0.000221243826672,5.33795452118,0.14966738224,"[1.2184696791468346e-07, 0.0, 0.0, 0.0, 1.2184696791468346e-07, 0.0, 0.0, 0.0, 1.2184696791468346e-07]",,-8.05125965,-1.01008495,-2.0201699,"[8.999999999999999e-08, 0.0, 0.0, 0.0, 8.999999999999999e-08, 0.0, 0.0, 0.0, 8.999999999999999e-08]"
1574068131231801464,,655,,1574068131,231358112,"""base_link""",,0.68099452782,-0.730627164852,-0.0413836068393,0.0267917178461,"[1.0, 0.0, 0.0, 0.0, 1.0, 0.0, 0.0, 0.0, 1.0]",,-0.96157926321,2.1092581749,-0.355255544186,"[1.2184696791468346e-07, 0.0, 0.0, 0.0, 1.2184696791468346e-07, 0.0, 0.0, 0.0, 1.2184696791468346e-07]",,2.7262487,0.8825985,1.06892485,"[8.999999999999999e-08, 0.0, 0.0, 0.0, 8.999999999999999e-08, 0.0, 0.0, 0.0, 8.999999999999999e-08]"
1574068131484650676,,656,,1574068131,484491940,"""base_link""",,-0.806392800298,0.59123658004,-0.00525911260091,-0.0119289473676,"[1.0, 0.0, 0.0, 0.0, 1.0, 0.0, 0.0, 0.0, 1.0]",,-1.15670871735,0.118992671371,-1.11727070808,"[1.2184696791468346e-07, 0.0, 0.0, 0.0, 1.2184696791468346e-07, 0.0, 0.0, 0.0, 1.2184696791468346e-07]",,-11.4737805,2.16726965,-9.62032365,"[8.999999999999999e-08, 0.0, 0.0, 0.0, 8.999999999999999e-08, 0.0, 0.0, 0.0, 8.999999999999999e-08]"
1574068131796224928,,657,,1574068131,795861471,"""base_link""",,0.881269664918,-0.472474763237,0.0112951854449,-0.00194796945694,"[1.0, 0.0, 0.0, 0.0, 1.0, 0.0, 0.0, 0.0, 1.0]",,0.443652451038,-1.0014231205,-0.228830978274,"[1.2184696791468346e-07, 0.0, 0.0, 0.0, 1.2184696791468346e-07, 0.0, 0.0, 0.0, 1.2184696791468346e-07]",,-1.53964405,-2.73605535,-3.9814999,"[8.999999999999999e-08, 0.0, 0.0, 0.0, 8.999999999999999e-08, 0.0, 0.0, 0.0, 8.999999999999999e-08]"
1574068132041743571,,658,,1574068132,41613020,"""base_link""",,-0.857383629184,0.514515450622,-0.0126137988124,-0.0028382315153,"[1.0, 0.0, 0.0, 0.0, 1.0, 0.0, 0.0, 0.0, 1.0]",,-0.316156029701,0.519171178341,0.490792393684,"[1.2184696791468346e-07, 0.0, 0.0, 0.0, 1.2184696791468346e-07, 0.0, 0.0, 0.0, 1.2184696791468346e-07]",,-2.04958985,6.3154826,-7.89435325,"[8.999999999999999e-08, 0.0, 0.0, 0.0, 8.999999999999999e-08, 0.0, 0.0, 0.0, 8.999999999999999e-08]"
1574068132321230298,,659,,1574068132,320886623,"""base_link""",,0.786106816623,-0.617976980622,0.0118533365019,-0.000150643467256,"[1.0, 0.0, 0.0, 0.0, 1.0, 0.0, 0.0, 0.0, 1.0]",,0.628273904324,0.0088653601706,1.54291665554,"[1.2184696791468346e-07, 0.0, 0.0, 0.0, 1.2184696791468346e-07, 0.0, 0.0, 0.0, 1.2184696791468346e-07]",,4.14821295,4.18743955,-2.8439285,"[8.999999999999999e-08, 0.0, 0.0, 0.0, 8.999999999999999e-08, 0.0, 0.0, 0.0, 8.999999999999999e-08]"
1574068132566519541,,660,,1574068132,566319231,"""base_link""",,0.666998855659,-0.744996772125,0.00866731938742,0.00414893334203,"[1.0, 0.0, 0.0, 0.0, 1.0, 0.0, 0.0, 0.0, 1.0]",,-0.594794392586,0.829747140408,1.12704980373,"[1.2184696791468346e-07, 0.0, 0.0, 0.0, 1.2184696791468346e-07, 0.0, 0.0, 0.0, 1.2184696791468346e-07]",,-5.8251501,-3.8049802,-7.44324735,"[8.999999999999999e-08, 0.0, 0.0, 0.0, 8.999999999999999e-08, 0.0, 0.0, 0.0, 8.999999999999999e-08]"
1574068132828274376,,661,,1574068132,827909528,"""base_link""",,-0.517384858861,0.855676446705,-0.0114335189492,3.19388920825e-05,"[1.0, 0.0, 0.0, 0.0, 1.0, 0.0, 0.0, 0.0, 1.0]",,1.91935503483,0.239736005664,2.03243637085,"[1.2184696791468346e-07, 0.0, 0.0, 0.0, 1.2184696791468346e-07, 0.0, 0.0, 0.0, 1.2184696791468346e-07]",,-2.32417605,-1.4906108,-7.8649333,"[8.999999999999999e-08, 0.0, 0.0, 0.0, 8.999999999999999e-08, 0.0, 0.0, 0.0, 8.999999999999999e-08]"
1574068133120580505,,662,,1574068133,120430767,"""base_link""",,0.297414452414,-0.954669056964,0.00540522754805,0.0110642978005,"[1.0, 0.0, 0.0, 0.0, 1.0, 0.0, 0.0, 0.0, 1.0]",,-0.548313260078,0.214829549193,2.57098269463,"[1.2184696791468346e-07, 0.0, 0.0, 0.0, 1.2184696791468346e-07, 0.0, 0.0, 0.0, 1.2184696791468346e-07]",,3.99130655,5.0406181,-5.099458,"[8.999999999999999e-08, 0.0, 0.0, 0.0, 8.999999999999999e-08, 0.0, 0.0, 0.0, 8.999999999999999e-08]"
1574068133390512545,,663,,1574068133,390229288,"""base_link""",,0.0532477282528,-0.998395472575,0.00410950702036,0.0188221074699,"[1.0, 0.0, 0.0, 0.0, 1.0, 0.0, 0.0, 0.0, 1.0]",,-0.549907267094,1.52966213226,1.54257535934,"[1.2184696791468346e-07, 0.0, 0.0, 0.0, 1.2184696791468346e-07, 0.0, 0.0, 0.0, 1.2184696791468346e-07]",,-6.080123,-11.54242705,-5.24655775,"[8.999999999999999e-08, 0.0, 0.0, 0.0, 8.999999999999999e-08, 0.0, 0.0, 0.0, 8.999999999999999e-08]"
1574068133640574469,,664,,1574068133,640399217,"""base_link""",,0.0375535606236,0.999161666985,-0.0122024005865,-0.0108071611605,"[1.0, 0.0, 0.0, 0.0, 1.0, 0.0, 0.0, 0.0, 1.0]",,0.112788245082,-0.0534196197987,-0.211176514626,"[1.2184696791468346e-07, 0.0, 0.0, 0.0, 1.2184696791468346e-07, 0.0, 0.0, 0.0, 1.2184696791468346e-07]",,-4.03053315,-0.3138128,-13.46453045,"[8.999999999999999e-08, 0.0, 0.0, 0.0, 8.999999999999999e-08, 0.0, 0.0, 0.0, 8.999999999999999e-08]"
1574068133919911698,,665,,1574068133,919578335,"""base_link""",,0.0426570313208,0.998923762909,-0.0122945107733,-0.0134364645705,"[1.0, 0.0, 0.0, 0.0, 1.0, 0.0, 0.0, 0.0, 1.0]",,0.302816003561,-0.0649187788367,0.16821821034,"[1.2184696791468346e-07, 0.0, 0.0, 0.0, 1.2184696791468346e-07, 0.0, 0.0, 0.0, 1.2184696791468346e-07]",,-17.54409685,-0.8237586,-18.68166825,"[8.999999999999999e-08, 0.0, 0.0, 0.0, 8.999999999999999e-08, 0.0, 0.0, 0.0, 8.999999999999999e-08]"
1574068134206056969,,666,,1574068134,205869195,"""base_link""",,0.0175529912617,0.999819544198,-0.00645038278358,-0.00334127216625,"[1.0, 0.0, 0.0, 0.0, 1.0, 0.0, 0.0, 0.0, 1.0]",,-0.135946646333,-0.202612504363,-0.648922562599,"[1.2184696791468346e-07, 0.0, 0.0, 0.0, 1.2184696791468346e-07, 0.0, 0.0, 0.0, 1.2184696791468346e-07]",,0.16671305,-0.2157463,-4.8837117,"[8.999999999999999e-08, 0.0, 0.0, 0.0, 8.999999999999999e-08, 0.0, 0.0, 0.0, 8.999999999999999e-08]"
1574068134462064171,,667,,1574068134,461650635,"""base_link""",,-0.0996408681659,0.994877191796,-0.0151038550092,0.00793373798772,"[1.0, 0.0, 0.0, 0.0, 1.0, 0.0, 0.0, 0.0, 1.0]",,-0.0651482269168,-0.309288084507,-1.50572872162,"[1.2184696791468346e-07, 0.0, 0.0, 0.0, 1.2184696791468346e-07, 0.0, 0.0, 0.0, 1.2184696791468346e-07]",,-0.20593965,0.06864655,-7.0804013,"[8.999999999999999e-08, 0.0, 0.0, 0.0, 8.999999999999999e-08, 0.0, 0.0, 0.0, 8.999999999999999e-08]"
1574068134720200162,,668,,1574068134,719987601,"""base_link""",,-0.262047151904,0.964939665412,-0.0137798262986,0.00573137679732,"[1.0, 0.0, 0.0, 0.0, 1.0, 0.0, 0.0, 0.0, 1.0]",,0.143723323941,-0.249386563897,-1.43950760365,"[1.2184696791468346e-07, 0.0, 0.0, 0.0, 1.2184696791468346e-07, 0.0, 0.0, 0.0, 1.2184696791468346e-07]",,1.0395049,2.16726965,-7.7472535,"[8.999999999999999e-08, 0.0, 0.0, 0.0, 8.999999999999999e-08, 0.0, 0.0, 0.0, 8.999999999999999e-08]"
1574068134989779824,,669,,1574068134,989590382,"""base_link""",,-0.396194066866,0.917997318365,-0.0168456484033,0.00523535910335,"[1.0, 0.0, 0.0, 0.0, 1.0, 0.0, 0.0, 0.0, 1.0]",,0.25052690506,-0.248585373163,-0.619566917419,"[1.2184696791468346e-07, 0.0, 0.0, 0.0, 1.2184696791468346e-07, 0.0, 0.0, 0.0, 1.2184696791468346e-07]",,-1.73577705,-2.157463,-12.2779258,"[8.999999999999999e-08, 0.0, 0.0, 0.0, 8.999999999999999e-08, 0.0, 0.0, 0.0, 8.999999999999999e-08]"
