rosbagTimestamp,header,seq,stamp,secs,nsecs,frame_id,orientation,x,y,z,w,orientation_covariance,angular_velocity,x,y,z,angular_velocity_covariance,linear_acceleration,x,y,z,linear_acceleration_covariance
1579257363779293559,,1399,,1579257363,776078445,"""base_link""",,0.0196781297449,-0.0023881738574,0.460429967237,-0.887474683079,"[1.0, 0.0, 0.0, 0.0, 1.0, 0.0, 0.0, 0.0, 1.0]",,-0.00869835540652,-0.00199569342658,0.0056838770397,"[1.2184696791468346e-07, 0.0, 0.0, 0.0, 1.2184696791468346e-07, 0.0, 0.0, 0.0, 1.2184696791468346e-07]",,-0.30400615,-0.08825985,9.75761675,"[8.999999999999999e-08, 0.0, 0.0, 0.0, 8.999999999999999e-08, 0.0, 0.0, 0.0, 8.999999999999999e-08]"
1579257364019656202,,1400,,1579257364,19463506,"""base_link""",,0.0195155365574,-0.0023379712484,0.460448375865,-0.887468856291,"[1.0, 0.0, 0.0, 0.0, 1.0, 0.0, 0.0, 0.0, 1.0]",,0.0156131777912,-0.00332586560398,0.00421583000571,"[1.2184696791468346e-07, 0.0, 0.0, 0.0, 1.2184696791468346e-07, 0.0, 0.0, 0.0, 1.2184696791468346e-07]",,-0.2745862,-0.0784532,9.75761675,"[8.999999999999999e-08, 0.0, 0.0, 0.0, 8.999999999999999e-08, 0.0, 0.0, 0.0, 8.999999999999999e-08]"
1579257364253768953,,1401,,1579257364,253430317,"""base_link""",,0.0194079391971,-0.00232128929393,0.46052985572,-0.88742898054,"[1.0, 0.0, 0.0, 0.0, 1.0, 0.0, 0.0, 0.0, 1.0]",,-0.000946905231103,4.6063476475e-05,0.00444872118533,"[1.2184696791468346e-07, 0.0, 0.0, 0.0, 1.2184696791468346e-07, 0.0, 0.0, 0.0, 1.2184696791468346e-07]",,-0.2941995,0.0392266,9.7674234,"[8.999999999999999e-08, 0.0, 0.0, 0.0, 8.999999999999999e-08, 0.0, 0.0, 0.0, 8.999999999999999e-08]"
1579257364493327255,,1402,,1579257364,493182629,"""base_link""",,0.0196680882951,-0.00249711217959,0.46051169367,-0.887432200637,"[1.0, 0.0, 0.0, 0.0, 1.0, 0.0, 0.0, 0.0, 1.0]",,-0.00501025095582,0.00177646556403,0.00536206457764,"[1.2184696791468346e-07, 0.0, 0.0, 0.0, 1.2184696791468346e-07, 0.0, 0.0, 0.0, 1.2184696791468346e-07]",,-0.26477955,-0.0980665,9.7674234,"[8.999999999999999e-08, 0.0, 0.0, 0.0, 8.999999999999999e-08, 0.0, 0.0, 0.0, 8.999999999999999e-08]"
1579257364730801920,,1403,,1579257364,730594265,"""base_link""",,0.0192606966284,-0.00253576759597,0.460630246764,-0.887379496729,"[1.0, 0.0, 0.0, 0.0, 1.0, 0.0, 0.0, 0.0, 1.0]",,0.023969007656,-0.0109794782475,-0.00991846807301,"[1.2184696791468346e-07, 0.0, 0.0, 0.0, 1.2184696791468346e-07, 0.0, 0.0, 0.0, 1.2184696791468346e-07]",,-0.10787315,-0.1372931,9.83606995,"[8.999999999999999e-08, 0.0, 0.0, 0.0, 8.999999999999999e-08, 0.0, 0.0, 0.0, 8.999999999999999e-08]"
1579257364979625889,,1404,,1579257364,979317421,"""base_link""",,0.0196637254295,-0.00357552669553,0.461144691699,-0.887099840395,"[1.0, 0.0, 0.0, 0.0, 1.0, 0.0, 0.0, 0.0, 1.0]",,0.0303410850465,0.0222772993147,-0.0420896410942,"[1.2184696791468346e-07, 0.0, 0.0, 0.0, 1.2184696791468346e-07, 0.0, 0.0, 0.0, 1.2184696791468346e-07]",,-0.4903325,0.14709975,12.24850585,"[8.999999999999999e-08, 0.0, 0.0, 0.0, 8.999999999999999e-08, 0.0, 0.0, 0.0, 8.999999999999999e-08]"
1579257365222297472,,1405,,1579257365,222103089,"""base_link""",,0.0498815470622,-0.00438006361802,0.492526589638,-0.868855686985,"[1.0, 0.0, 0.0, 0.0, 1.0, 0.0, 0.0, 0.0, 1.0]",,-0.063607044518,-0.385900855064,-0.400348573923,"[1.2184696791468346e-07, 0.0, 0.0, 0.0, 1.2184696791468346e-07, 0.0, 0.0, 0.0, 1.2184696791468346e-07]",,-0.28439285,-1.02969825,11.8072066,"[8.999999999999999e-08, 0.0, 0.0, 0.0, 8.999999999999999e-08, 0.0, 0.0, 0.0, 8.999999999999999e-08]"
1579257365455715959,,1406,,1579257365,455427966,"""base_link""",,0.135197110268,0.134671863469,0.502116906088,-0.843483161175,"[1.0, 0.0, 0.0, 0.0, 1.0, 0.0, 0.0, 0.0, 1.0]",,-0.26102155447,-1.94960308075,0.0666797757149,"[1.2184696791468346e-07, 0.0, 0.0, 0.0, 1.2184696791468346e-07, 0.0, 0.0, 0.0, 1.2184696791468346e-07]",,2.42224255,-0.5295591,7.7864801,"[8.999999999999999e-08, 0.0, 0.0, 0.0, 8.999999999999999e-08, 0.0, 0.0, 0.0, 8.999999999999999e-08]"
1579257365701443192,,1407,,1579257365,701236643,"""base_link""",,0.241217388454,0.139207964546,0.468392837388,-0.838476871474,"[1.0, 0.0, 0.0, 0.0, 1.0, 0.0, 0.0, 0.0, 1.0]",,-0.454389125109,0.719916343689,0.583961308002,"[1.2184696791468346e-07, 0.0, 0.0, 0.0, 1.2184696791468346e-07, 0.0, 0.0, 0.0, 1.2184696791468346e-07]",,3.8442068,-3.30484105,7.6688003,"[8.999999999999999e-08, 0.0, 0.0, 0.0, 8.999999999999999e-08, 0.0, 0.0, 0.0, 8.999999999999999e-08]"
1579257365951991228,,1408,,1579257365,951794570,"""base_link""",,0.188941313526,0.0694507360104,0.492487181571,-0.846719641498,"[1.0, 0.0, 0.0, 0.0, 1.0, 0.0, 0.0, 0.0, 1.0]",,0.32818800211,0.595644533634,-0.630244374275,"[1.2184696791468346e-07, 0.0, 0.0, 0.0, 1.2184696791468346e-07, 0.0, 0.0, 0.0, 1.2184696791468346e-07]",,3.0204482,-0.73549875,7.7276402,"[8.999999999999999e-08, 0.0, 0.0, 0.0, 8.999999999999999e-08, 0.0, 0.0, 0.0, 8.999999999999999e-08]"
1579257366173036796,,1409,,1579257366,172789904,"""base_link""",,0.146040078024,0.0237483534091,0.529597076938,-0.835245621012,"[1.0, 0.0, 0.0, 0.0, 1.0, 0.0, 0.0, 0.0, 1.0]",,-0.219128578901,-0.871281862259,-0.198777094483,"[1.2184696791468346e-07, 0.0, 0.0, 0.0, 1.2184696791468346e-07, 0.0, 0.0, 0.0, 1.2184696791468346e-07]",,0.95124505,-1.2748645,9.62032365,"[8.999999999999999e-08, 0.0, 0.0, 0.0, 8.999999999999999e-08, 0.0, 0.0, 0.0, 8.999999999999999e-08]"
1579257366418501139,,1410,,1579257366,418361481,"""base_link""",,0.300032782987,0.153830243729,0.518278920222,-0.785941184887,"[1.0, 0.0, 0.0, 0.0, 1.0, 0.0, 0.0, 0.0, 1.0]",,-0.628776729107,-1.79755985737,0.0917584821582,"[1.2184696791468346e-07, 0.0, 0.0, 0.0, 1.2184696791468346e-07, 0.0, 0.0, 0.0, 1.2184696791468346e-07]",,5.4328841,-3.16754795,7.9433865,"[8.999999999999999e-08, 0.0, 0.0, 0.0, 8.999999999999999e-08, 0.0, 0.0, 0.0, 8.999999999999999e-08]"
1579257366658186721,,1411,,1579257366,657917368,"""base_link""",,0.345295338005,0.134323322127,0.462553872743,-0.80546402123,"[1.0, 0.0, 0.0, 0.0, 1.0, 0.0, 0.0, 0.0, 1.0]",,-0.116057448089,1.44326519966,0.914079904556,"[1.2184696791468346e-07, 0.0, 0.0, 0.0, 1.2184696791468346e-07, 0.0, 0.0, 0.0, 1.2184696791468346e-07]",,5.63882375,-4.8444851,8.93385815,"[8.999999999999999e-08, 0.0, 0.0, 0.0, 8.999999999999999e-08, 0.0, 0.0, 0.0, 8.999999999999999e-08]"
1579257366896285082,,1412,,1579257366,896072987,"""base_link""",,0.270525301788,-0.111152853226,0.464676362963,-0.835785248742,"[1.0, 0.0, 0.0, 0.0, 1.0, 0.0, 0.0, 0.0, 1.0]",,-0.307802319527,2.2097890377,0.34073895216,"[1.2184696791468346e-07, 0.0, 0.0, 0.0, 1.2184696791468346e-07, 0.0, 0.0, 0.0, 1.2184696791468346e-07]",,2.2163029,-6.1389629,8.237586,"[8.999999999999999e-08, 0.0, 0.0, 0.0, 8.999999999999999e-08, 0.0, 0.0, 0.0, 8.999999999999999e-08]"
1579257367136645660,,1413,,1579257367,136469038,"""base_link""",,0.193715506137,-0.303027032308,0.479027104776,-0.800738380036,"[1.0, 0.0, 0.0, 0.0, 1.0, 0.0, 0.0, 0.0, 1.0]",,-0.0712242424488,1.19268763065,0.211567804217,"[1.2184696791468346e-07, 0.0, 0.0, 0.0, 1.2184696791468346e-07, 0.0, 0.0, 0.0, 1.2184696791468346e-07]",,-3.14793465,-6.0605097,7.9433865,"[8.999999999999999e-08, 0.0, 0.0, 0.0, 8.999999999999999e-08, 0.0, 0.0, 0.0, 8.999999999999999e-08]"
1579257367387115373,,1414,,1579257367,386763589,"""base_link""",,0.0883510252929,-0.352162385774,0.488054681687,-0.79371177266,"[1.0, 0.0, 0.0, 0.0, 1.0, 0.0, 0.0, 0.0, 1.0]",,0.95772510767,0.257631510496,0.406870543957,"[1.2184696791468346e-07, 0.0, 0.0, 0.0, 1.2184696791468346e-07, 0.0, 0.0, 0.0, 1.2184696791468346e-07]",,-4.99158485,-4.1972462,7.3157609,"[8.999999999999999e-08, 0.0, 0.0, 0.0, 8.999999999999999e-08, 0.0, 0.0, 0.0, 8.999999999999999e-08]"
1579257367608261734,,1415,,1579257367,608189167,"""base_link""",,-0.0270809552952,-0.299778681637,0.484320195053,-0.821482387249,"[1.0, 0.0, 0.0, 0.0, 1.0, 0.0, 0.0, 0.0, 1.0]",,0.961948573589,-0.0341540649533,0.173996821046,"[1.2184696791468346e-07, 0.0, 0.0, 0.0, 1.2184696791468346e-07, 0.0, 0.0, 0.0, 1.2184696791468346e-07]",,-5.79573015,-2.63798885,7.91396655,"[8.999999999999999e-08, 0.0, 0.0, 0.0, 8.999999999999999e-08, 0.0, 0.0, 0.0, 8.999999999999999e-08]"
1579257367874896914,,1416,,1579257367,874756239,"""base_link""",,-0.0586662181477,-0.136000909644,0.530100039381,-0.834898781693,"[1.0, 0.0, 0.0, 0.0, 1.0, 0.0, 0.0, 0.0, 1.0]",,0.827442228794,-1.8149266243,0.0757860019803,"[1.2184696791468346e-07, 0.0, 0.0, 0.0, 1.2184696791468346e-07, 0.0, 0.0, 0.0, 1.2184696791468346e-07]",,-2.63798885,-1.65732385,9.5516771,"[8.999999999999999e-08, 0.0, 0.0, 0.0, 8.999999999999999e-08, 0.0, 0.0, 0.0, 8.999999999999999e-08]"
1579257368108635638,,1417,,1579257368,108273349,"""base_link""",,-0.0335885370516,0.0676513211356,0.512297344856,-0.855480297482,"[1.0, 0.0, 0.0, 0.0, 1.0, 0.0, 0.0, 0.0, 1.0]",,0.461289823055,-1.24969947338,0.611606955528,"[1.2184696791468346e-07, 0.0, 0.0, 0.0, 1.2184696791468346e-07, 0.0, 0.0, 0.0, 1.2184696791468346e-07]",,-0.02941995,1.0591182,8.6886919,"[8.999999999999999e-08, 0.0, 0.0, 0.0, 8.999999999999999e-08, 0.0, 0.0, 0.0, 8.999999999999999e-08]"
1579257368334771462,,1418,,1579257368,334625838,"""base_link""",,0.0269400925777,0.195389257097,0.49018741573,-0.849007401077,"[1.0, 0.0, 0.0, 0.0, 1.0, 0.0, 0.0, 0.0, 1.0]",,-0.071613997221,-0.385224282742,0.0572405867279,"[1.2184696791468346e-07, 0.0, 0.0, 0.0, 1.2184696791468346e-07, 0.0, 0.0, 0.0, 1.2184696791468346e-07]",,2.42224255,2.6870221,8.81617835,"[8.999999999999999e-08, 0.0, 0.0, 0.0, 8.999999999999999e-08, 0.0, 0.0, 0.0, 8.999999999999999e-08]"
1579257368587044607,,1419,,1579257368,586906146,"""base_link""",,-0.0521603826402,0.114403753001,0.496318570474,-0.858987166601,"[1.0, 0.0, 0.0, 0.0, 1.0, 0.0, 0.0, 0.0, 1.0]",,0.395389646292,1.74217653275,-0.328269630671,"[1.2184696791468346e-07, 0.0, 0.0, 0.0, 1.2184696791468346e-07, 0.0, 0.0, 0.0, 1.2184696791468346e-07]",,1.5886773,2.3928226,8.3944924,"[8.999999999999999e-08, 0.0, 0.0, 0.0, 8.999999999999999e-08, 0.0, 0.0, 0.0, 8.999999999999999e-08]"
1579257368818945947,,1420,,1579257368,818619300,"""base_link""",,-0.17122484661,-0.122230767432,0.514000423528,-0.831592000929,"[1.0, 0.0, 0.0, 0.0, 1.0, 0.0, 0.0, 0.0, 1.0]",,-0.486782699823,2.52635383606,-0.716969132423,"[1.2184696791468346e-07, 0.0, 0.0, 0.0, 1.2184696791468346e-07, 0.0, 0.0, 0.0, 1.2184696791468346e-07]",,-3.2361945,1.87307015,9.07115125,"[8.999999999999999e-08, 0.0, 0.0, 0.0, 8.999999999999999e-08, 0.0, 0.0, 0.0, 8.999999999999999e-08]"
1579257369054510436,,1421,,1579257369,54318151,"""base_link""",,-0.260718602768,-0.401259798304,0.48083554679,-0.73472005647,"[1.0, 0.0, 0.0, 0.0, 1.0, 0.0, 0.0, 0.0, 1.0]",,-0.475870877504,2.45159840584,-0.454638540745,"[1.2184696791468346e-07, 0.0, 0.0, 0.0, 1.2184696791468346e-07, 0.0, 0.0, 0.0, 1.2184696791468346e-07]",,-7.7864801,0.28439285,5.22694445,"[8.999999999999999e-08, 0.0, 0.0, 0.0, 8.999999999999999e-08, 0.0, 0.0, 0.0, 8.999999999999999e-08]"
1579257369292572862,,1422,,1579257369,292455127,"""base_link""",,0.312385410421,0.65011535472,-0.42220575881,0.549097148181,"[1.0, 0.0, 0.0, 0.0, 1.0, 0.0, 0.0, 0.0, 1.0]",,-0.333502948284,2.17556142807,-0.805834472179,"[1.2184696791468346e-07, 0.0, 0.0, 0.0, 1.2184696791468346e-07, 0.0, 0.0, 0.0, 1.2184696791468346e-07]",,-9.79684335,-1.4317709,-0.30400615,"[8.999999999999999e-08, 0.0, 0.0, 0.0, 8.999999999999999e-08, 0.0, 0.0, 0.0, 8.999999999999999e-08]"
1579257369536609719,,1423,,1579257369,536319663,"""base_link""",,0.363447499115,0.804375941826,-0.307722810385,0.355235037078,"[1.0, 0.0, 0.0, 0.0, 1.0, 0.0, 0.0, 0.0, 1.0]",,-0.482510000467,1.83086240292,-0.0781913399696,"[1.2184696791468346e-07, 0.0, 0.0, 0.0, 1.2184696791468346e-07, 0.0, 0.0, 0.0, 1.2184696791468346e-07]",,-7.9041599,-2.40262925,-5.1779112,"[8.999999999999999e-08, 0.0, 0.0, 0.0, 8.999999999999999e-08, 0.0, 0.0, 0.0, 8.999999999999999e-08]"
1579257369778237508,,1424,,1579257369,778068562,"""base_link""",,0.399036289248,0.858767029717,-0.226476264964,0.228030107534,"[1.0, 0.0, 0.0, 0.0, 1.0, 0.0, 0.0, 0.0, 1.0]",,0.146792113781,1.05814576149,-0.110281378031,"[1.2184696791468346e-07, 0.0, 0.0, 0.0, 1.2184696791468346e-07, 0.0, 0.0, 0.0, 1.2184696791468346e-07]",,-5.05042475,-3.38329425,-6.93330155,"[8.999999999999999e-08, 0.0, 0.0, 0.0, 8.999999999999999e-08, 0.0, 0.0, 0.0, 8.999999999999999e-08]"
1579257370009927713,,1425,,1579257370,9760413,"""base_link""",,0.400105570604,0.884839255529,-0.194714166241,0.138063093228,"[1.0, 0.0, 0.0, 0.0, 1.0, 0.0, 0.0, 0.0, 1.0]",,0.173171117902,0.220328390598,-0.197733327746,"[1.2184696791468346e-07, 0.0, 0.0, 0.0, 1.2184696791468346e-07, 0.0, 0.0, 0.0, 1.2184696791468346e-07]",,-5.9232166,-2.63798885,-9.414384,"[8.999999999999999e-08, 0.0, 0.0, 0.0, 8.999999999999999e-08, 0.0, 0.0, 0.0, 8.999999999999999e-08]"
1579257370257358335,,1426,,1579257370,256982127,"""base_link""",,0.388754160199,0.89675635123,-0.179862772542,0.111119901507,"[1.0, 0.0, 0.0, 0.0, 1.0, 0.0, 0.0, 0.0, 1.0]",,-0.283112883568,0.472303062677,0.103170230985,"[1.2184696791468346e-07, 0.0, 0.0, 0.0, 1.2184696791468346e-07, 0.0, 0.0, 0.0, 1.2184696791468346e-07]",,-3.42252085,-1.08853815,-8.62004535,"[8.999999999999999e-08, 0.0, 0.0, 0.0, 8.999999999999999e-08, 0.0, 0.0, 0.0, 8.999999999999999e-08]"
1579257370508872755,,1427,,1579257370,508739057,"""base_link""",,0.42028733873,0.888193215488,-0.164771169403,0.0855676726155,"[1.0, 0.0, 0.0, 0.0, 1.0, 0.0, 0.0, 0.0, 1.0]",,0.0968511030078,0.259406149387,0.210942089558,"[1.2184696791468346e-07, 0.0, 0.0, 0.0, 1.2184696791468346e-07, 0.0, 0.0, 0.0, 1.2184696791468346e-07]",,-2.353596,-2.06920315,-9.50264385,"[8.999999999999999e-08, 0.0, 0.0, 0.0, 8.999999999999999e-08, 0.0, 0.0, 0.0, 8.999999999999999e-08]"
1579257370739559650,,1428,,1579257370,739427715,"""base_link""",,0.433939339989,0.888578249708,-0.136454045248,0.0592084190874,"[1.0, 0.0, 0.0, 0.0, 1.0, 0.0, 0.0, 0.0, 1.0]",,-0.226303786039,0.205355554819,-0.0542762055993,"[1.2184696791468346e-07, 0.0, 0.0, 0.0, 1.2184696791468346e-07, 0.0, 0.0, 0.0, 1.2184696791468346e-07]",,-2.2359162,-1.81423025,-9.18883105,"[8.999999999999999e-08, 0.0, 0.0, 0.0, 8.999999999999999e-08, 0.0, 0.0, 0.0, 8.999999999999999e-08]"
1579257370981850042,,1429,,1579257370,981430034,"""base_link""",,0.435417136113,0.88795307596,-0.139816594385,0.0490160423528,"[1.0, 0.0, 0.0, 0.0, 1.0, 0.0, 0.0, 0.0, 1.0]",,0.18110473454,0.0524703972042,0.0732249170542,"[1.2184696791468346e-07, 0.0, 0.0, 0.0, 1.2184696791468346e-07, 0.0, 0.0, 0.0, 1.2184696791468346e-07]",,-2.3339827,-2.549729,-9.22805765,"[8.999999999999999e-08, 0.0, 0.0, 0.0, 8.999999999999999e-08, 0.0, 0.0, 0.0, 8.999999999999999e-08]"
1579257371228014601,,1430,,1579257371,227842541,"""base_link""",,0.425109032481,0.894742890562,-0.136302285503,0.0117964934831,"[1.0, 0.0, 0.0, 0.0, 1.0, 0.0, 0.0, 0.0, 1.0]",,0.054287713021,0.122652940452,-0.235151693225,"[1.2184696791468346e-07, 0.0, 0.0, 0.0, 1.2184696791468346e-07, 0.0, 0.0, 0.0, 1.2184696791468346e-07]",,-2.2555295,-2.65760215,-9.5124505,"[8.999999999999999e-08, 0.0, 0.0, 0.0, 8.999999999999999e-08, 0.0, 0.0, 0.0, 8.999999999999999e-08]"
1579257371453561440,,1431,,1579257371,453466724,"""base_link""",,0.392347554107,0.911725789252,-0.121101449745,-0.0124064849312,"[1.0, 0.0, 0.0, 0.0, 1.0, 0.0, 0.0, 0.0, 1.0]",,-0.0802133828402,0.529333114624,-0.284400880337,"[1.2184696791468346e-07, 0.0, 0.0, 0.0, 1.2184696791468346e-07, 0.0, 0.0, 0.0, 1.2184696791468346e-07]",,-0.46091255,-2.30456275,-8.97308475,"[8.999999999999999e-08, 0.0, 0.0, 0.0, 8.999999999999999e-08, 0.0, 0.0, 0.0, 8.999999999999999e-08]"
1579257371703689136,,1432,,1579257371,703342608,"""base_link""",,0.388229735438,0.913366347965,-0.0962715302272,-0.0759695952019,"[1.0, 0.0, 0.0, 0.0, 1.0, 0.0, 0.0, 0.0, 1.0]",,0.200621649623,0.655456662178,-0.0516633354127,"[1.2184696791468346e-07, 0.0, 0.0, 0.0, 1.2184696791468346e-07, 0.0, 0.0, 0.0, 1.2184696791468346e-07]",,0.392266,-2.69682875,-8.9632781,"[8.999999999999999e-08, 0.0, 0.0, 0.0, 8.999999999999999e-08, 0.0, 0.0, 0.0, 8.999999999999999e-08]"
1579257371943890387,,1433,,1579257371,943737571,"""base_link""",,0.400586835107,0.903073883252,-0.125649407528,-0.0905537150817,"[1.0, 0.0, 0.0, 0.0, 1.0, 0.0, 0.0, 0.0, 1.0]",,0.385700821877,-0.910717189312,0.428745627403,"[1.2184696791468346e-07, 0.0, 0.0, 0.0, 1.2184696791468346e-07, 0.0, 0.0, 0.0, 1.2184696791468346e-07]",,-0.32361945,-3.3146477,-11.0619012,"[8.999999999999999e-08, 0.0, 0.0, 0.0, 8.999999999999999e-08, 0.0, 0.0, 0.0, 8.999999999999999e-08]"
1579257372189016939,,1434,,1579257372,188852417,"""base_link""",,0.423200108055,0.843624525019,-0.294063198638,0.150751996789,"[1.0, 0.0, 0.0, 0.0, 1.0, 0.0, 0.0, 0.0, 1.0]",,0.886651992798,-3.31204533577,1.07329750061,"[1.2184696791468346e-07, 0.0, 0.0, 0.0, 1.2184696791468346e-07, 0.0, 0.0, 0.0, 1.2184696791468346e-07]",,-3.97169325,-4.22666615,-9.09076455,"[8.999999999999999e-08, 0.0, 0.0, 0.0, 8.999999999999999e-08, 0.0, 0.0, 0.0, 8.999999999999999e-08]"
1579257372411966482,,1435,,1579257372,411658142,"""base_link""",,0.399566578416,0.657624502511,-0.453436270447,0.449746719558,"[1.0, 0.0, 0.0, 0.0, 1.0, 0.0, 0.0, 0.0, 1.0]",,0.2210111022,-2.72284865379,1.65632975101,"[1.2184696791468346e-07, 0.0, 0.0, 0.0, 1.2184696791468346e-07, 0.0, 0.0, 0.0, 1.2184696791468346e-07]",,-8.8063717,-3.1185147,-2.48108245,"[8.999999999999999e-08, 0.0, 0.0, 0.0, 8.999999999999999e-08, 0.0, 0.0, 0.0, 8.999999999999999e-08]"
1579257372656156339,,1436,,1579257372,655979206,"""base_link""",,-0.37643642356,-0.369732530107,0.475723487736,-0.70376177675,"[1.0, 0.0, 0.0, 0.0, 1.0, 0.0, 0.0, 0.0, 1.0]",,0.185042873025,-1.68582427502,1.49486374855,"[1.2184696791468346e-07, 0.0, 0.0, 0.0, 1.2184696791468346e-07, 0.0, 0.0, 0.0, 1.2184696791468346e-07]",,-6.8842683,1.28467115,3.8442068,"[8.999999999999999e-08, 0.0, 0.0, 0.0, 8.999999999999999e-08, 0.0, 0.0, 0.0, 8.999999999999999e-08]"
1579257372909526415,,1437,,1579257372,909338669,"""base_link""",,-0.270633970364,-0.169303296404,0.466067843355,-0.825151145731,"[1.0, 0.0, 0.0, 0.0, 1.0, 0.0, 0.0, 0.0, 1.0]",,-0.635957539082,-2.12201309204,0.508750379086,"[1.2184696791468346e-07, 0.0, 0.0, 0.0, 1.2184696791468346e-07, 0.0, 0.0, 0.0, 1.2184696791468346e-07]",,-6.10954295,2.85373515,6.6489087,"[8.999999999999999e-08, 0.0, 0.0, 0.0, 8.999999999999999e-08, 0.0, 0.0, 0.0, 8.999999999999999e-08]"
1579257373145044165,,1438,,1579257373,144740801,"""base_link""",,-0.0862515357601,-0.0190008924604,0.457920626408,-0.884595013876,"[1.0, 0.0, 0.0, 0.0, 1.0, 0.0, 0.0, 0.0, 1.0]",,-0.927255511284,-1.31118166447,0.460895329714,"[1.2184696791468346e-07, 0.0, 0.0, 0.0, 1.2184696791468346e-07, 0.0, 0.0, 0.0, 1.2184696791468346e-07]",,-1.42196425,2.0397832,9.18883105,"[8.999999999999999e-08, 0.0, 0.0, 0.0, 8.999999999999999e-08, 0.0, 0.0, 0.0, 8.999999999999999e-08]"
1579257373375284728,,1439,,1579257373,375080044,"""base_link""",,0.0579711407489,0.0478448673231,0.426540221971,-0.901339921757,"[1.0, 0.0, 0.0, 0.0, 1.0, 0.0, 0.0, 0.0, 1.0]",,-0.781956493855,-1.08357799053,0.167518407106,"[1.2184696791468346e-07, 0.0, 0.0, 0.0, 1.2184696791468346e-07, 0.0, 0.0, 0.0, 1.2184696791468346e-07]",,0.87279185,-0.22555295,10.26756255,"[8.999999999999999e-08, 0.0, 0.0, 0.0, 8.999999999999999e-08, 0.0, 0.0, 0.0, 8.999999999999999e-08]"
1579257373620028482,,1440,,1579257373,619865121,"""base_link""",,0.181078551452,0.127274488491,0.427170286385,-0.876662597134,"[1.0, 0.0, 0.0, 0.0, 1.0, 0.0, 0.0, 0.0, 1.0]",,-0.527414739132,-1.13552451134,0.0223049819469,"[1.2184696791468346e-07, 0.0, 0.0, 0.0, 1.2184696791468346e-07, 0.0, 0.0, 0.0, 1.2184696791468346e-07]",,3.32445435,-1.77500365,8.8848249,"[8.999999999999999e-08, 0.0, 0.0, 0.0, 8.999999999999999e-08, 0.0, 0.0, 0.0, 8.999999999999999e-08]"
1579257373867488457,,1441,,1579257373,867231061,"""base_link""",,0.268077744374,0.257544320939,0.413956108531,-0.830930554218,"[1.0, 0.0, 0.0, 0.0, 1.0, 0.0, 0.0, 0.0, 1.0]",,-0.0951701626182,-1.5101941824,-0.302798897028,"[1.2184696791468346e-07, 0.0, 0.0, 0.0, 1.2184696791468346e-07, 0.0, 0.0, 0.0, 1.2184696791468346e-07]",,5.50153065,-1.34351105,7.4922806,"[8.999999999999999e-08, 0.0, 0.0, 0.0, 8.999999999999999e-08, 0.0, 0.0, 0.0, 8.999999999999999e-08]"
1579257374090072889,,1442,,1579257374,89933182,"""base_link""",,0.319266806991,0.426783603858,0.399872609737,-0.745671749106,"[1.0, 0.0, 0.0, 0.0, 1.0, 0.0, 0.0, 0.0, 1.0]",,0.34536999464,-1.62066876888,-0.553855001926,"[1.2184696791468346e-07, 0.0, 0.0, 0.0, 1.2184696791468346e-07, 0.0, 0.0, 0.0, 1.2184696791468346e-07]",,8.1395195,-0.75511205,4.314926,"[8.999999999999999e-08, 0.0, 0.0, 0.0, 8.999999999999999e-08, 0.0, 0.0, 0.0, 8.999999999999999e-08]"
1579257374335349102,,1443,,1579257374,335173805,"""base_link""",,0.254709441537,0.543956105259,0.407786105715,-0.687710220899,"[1.0, 0.0, 0.0, 0.0, 1.0, 0.0, 0.0, 0.0, 1.0]",,1.09863603115,0.559705555439,-1.24696218967,"[1.2184696791468346e-07, 0.0, 0.0, 0.0, 1.2184696791468346e-07, 0.0, 0.0, 0.0, 1.2184696791468346e-07]",,10.395049,-0.00980665,3.95207995,"[8.999999999999999e-08, 0.0, 0.0, 0.0, 8.999999999999999e-08, 0.0, 0.0, 0.0, 8.999999999999999e-08]"
1579257374580188337,,1444,,1579257374,579815823,"""base_link""",,-0.0193215886789,0.418877351671,0.453277396561,-0.786579965569,"[1.0, 0.0, 0.0, 0.0, 1.0, 0.0, 0.0, 0.0, 1.0]",,1.16489541531,2.91924071312,-1.02482426167,"[1.2184696791468346e-07, 0.0, 0.0, 0.0, 1.2184696791468346e-07, 0.0, 0.0, 0.0, 1.2184696791468346e-07]",,6.40374245,3.04986815,6.81562175,"[8.999999999999999e-08, 0.0, 0.0, 0.0, 8.999999999999999e-08, 0.0, 0.0, 0.0, 8.999999999999999e-08]"
1579257374819082955,,1445,,1579257374,818933726,"""base_link""",,-0.323134477568,0.211074151415,0.462247263215,-0.798347843776,"[1.0, 0.0, 0.0, 0.0, 1.0, 0.0, 0.0, 0.0, 1.0]",,0.616547644138,1.68699085712,-1.24441432953,"[1.2184696791468346e-07, 0.0, 0.0, 0.0, 1.2184696791468346e-07, 0.0, 0.0, 0.0, 1.2184696791468346e-07]",,0.30400615,7.1000146,5.85457005,"[8.999999999999999e-08, 0.0, 0.0, 0.0, 8.999999999999999e-08, 0.0, 0.0, 0.0, 8.999999999999999e-08]"
1579257375055800471,,1446,,1579257375,55627483,"""base_link""",,-0.435780676116,0.0932016736693,0.466169509843,-0.764260844504,"[1.0, 0.0, 0.0, 0.0, 1.0, 0.0, 0.0, 0.0, 1.0]",,0.236476361752,1.29370212555,-0.384751945734,"[1.2184696791468346e-07, 0.0, 0.0, 0.0, 1.2184696791468346e-07, 0.0, 0.0, 0.0, 1.2184696791468346e-07]",,-2.4712758,7.256921,5.6682437,"[8.999999999999999e-08, 0.0, 0.0, 0.0, 8.999999999999999e-08, 0.0, 0.0, 0.0, 8.999999999999999e-08]"
1579257375311610862,,1447,,1579257375,311233622,"""base_link""",,-0.494667115436,0.026294295764,0.437536456568,-0.750449801179,"[1.0, 0.0, 0.0, 0.0, 1.0, 0.0, 0.0, 0.0, 1.0]",,0.0495523884892,0.257893353701,-0.0569785386324,"[1.2184696791468346e-07, 0.0, 0.0, 0.0, 1.2184696791468346e-07, 0.0, 0.0, 0.0, 1.2184696791468346e-07]",,-4.06975975,7.50208725,4.4914457,"[8.999999999999999e-08, 0.0, 0.0, 0.0, 8.999999999999999e-08, 0.0, 0.0, 0.0, 8.999999999999999e-08]"
1579257375543491340,,1448,,1579257375,543326818,"""base_link""",,-0.525873971249,-0.0249687967941,0.434700624574,-0.730663049937,"[1.0, 0.0, 0.0, 0.0, 1.0, 0.0, 0.0, 0.0, 1.0]",,0.0467217490077,0.353418320417,-0.49636054039,"[1.2184696791468346e-07, 0.0, 0.0, 0.0, 1.2184696791468346e-07, 0.0, 0.0, 0.0, 1.2184696791468346e-07]",,-4.83467845,7.453054,4.03053315,"[8.999999999999999e-08, 0.0, 0.0, 0.0, 8.999999999999999e-08, 0.0, 0.0, 0.0, 8.999999999999999e-08]"
1579257375802431338,,1449,,1579257375,802196581,"""base_link""",,-0.510926509622,-0.0230217147251,0.464852736795,-0.722728189232,"[1.0, 0.0, 0.0, 0.0, 1.0, 0.0, 0.0, 0.0, 1.0]",,0.162159472704,-0.72752737999,0.258531063795,"[1.2184696791468346e-07, 0.0, 0.0, 0.0, 1.2184696791468346e-07, 0.0, 0.0, 0.0, 1.2184696791468346e-07]",,-6.61948875,7.2765343,3.79517355,"[8.999999999999999e-08, 0.0, 0.0, 0.0, 8.999999999999999e-08, 0.0, 0.0, 0.0, 8.999999999999999e-08]"
1579257376018639379,,1450,,1579257376,18344218,"""base_link""",,-0.515470551497,0.0853636338906,0.451415180345,-0.723344658861,"[1.0, 0.0, 0.0, 0.0, 1.0, 0.0, 0.0, 0.0, 1.0]",,0.726707160473,-0.523353636265,0.88228815794,"[1.2184696791468346e-07, 0.0, 0.0, 0.0, 1.2184696791468346e-07, 0.0, 0.0, 0.0, 1.2184696791468346e-07]",,-4.81506515,7.1392412,3.22638785,"[8.999999999999999e-08, 0.0, 0.0, 0.0, 8.999999999999999e-08, 0.0, 0.0, 0.0, 8.999999999999999e-08]"
1579257376260135153,,1451,,1579257376,259972297,"""base_link""",,-0.481107734334,0.288580827211,0.382722200299,-0.734016465435,"[1.0, 0.0, 0.0, 0.0, 1.0, 0.0, 0.0, 0.0, 1.0]",,-0.0765635594726,-1.31091213226,1.79830372334,"[1.2184696791468346e-07, 0.0, 0.0, 0.0, 1.2184696791468346e-07, 0.0, 0.0, 0.0, 1.2184696791468346e-07]",,0.1569064,9.24767095,2.99102825,"[8.999999999999999e-08, 0.0, 0.0, 0.0, 8.999999999999999e-08, 0.0, 0.0, 0.0, 8.999999999999999e-08]"
1579257376502084389,,1452,,1579257376,501647239,"""base_link""",,-0.275189020862,0.417277026344,0.37347763476,-0.781450793343,"[1.0, 0.0, 0.0, 0.0, 1.0, 0.0, 0.0, 0.0, 1.0]",,-1.5894960165,-0.849059998989,0.785471498966,"[1.2184696791468346e-07, 0.0, 0.0, 0.0, 1.2184696791468346e-07, 0.0, 0.0, 0.0, 1.2184696791468346e-07]",,4.7856452,7.50208725,4.50125235,"[8.999999999999999e-08, 0.0, 0.0, 0.0, 8.999999999999999e-08, 0.0, 0.0, 0.0, 8.999999999999999e-08]"
1579257376741256969,,1453,,1579257376,741081675,"""base_link""",,-0.0841191410984,0.413368611997,0.385647749788,-0.820564545785,"[1.0, 0.0, 0.0, 0.0, 1.0, 0.0, 0.0, 0.0, 1.0]",,-1.20305585861,-0.127035528421,0.840148210526,"[1.2184696791468346e-07, 0.0, 0.0, 0.0, 1.2184696791468346e-07, 0.0, 0.0, 0.0, 1.2184696791468346e-07]",,6.2370294,4.6875787,5.7859235,"[8.999999999999999e-08, 0.0, 0.0, 0.0, 8.999999999999999e-08, 0.0, 0.0, 0.0, 8.999999999999999e-08]"
1579257376984257272,,1454,,1579257376,984050353,"""base_link""",,0.0571601039553,0.357667782393,0.389005675402,-0.847042539935,"[1.0, 0.0, 0.0, 0.0, 1.0, 0.0, 0.0, 0.0, 1.0]",,-1.13671517372,0.201572313905,0.194226384163,"[1.2184696791468346e-07, 0.0, 0.0, 0.0, 1.2184696791468346e-07, 0.0, 0.0, 0.0, 1.2184696791468346e-07]",,6.2958693,1.569064,7.22750105,"[8.999999999999999e-08, 0.0, 0.0, 0.0, 8.999999999999999e-08, 0.0, 0.0, 0.0, 8.999999999999999e-08]"
1579257377234558453,,1455,,1579257377,234174478,"""base_link""",,0.150919482123,0.301351132635,0.402469053055,-0.851134223321,"[1.0, 0.0, 0.0, 0.0, 1.0, 0.0, 0.0, 0.0, 1.0]",,-0.656090855598,0.210527911782,0.226929396391,"[1.2184696791468346e-07, 0.0, 0.0, 0.0, 1.2184696791468346e-07, 0.0, 0.0, 0.0, 1.2184696791468346e-07]",,6.24683605,-0.57859235,8.12971285,"[8.999999999999999e-08, 0.0, 0.0, 0.0, 8.999999999999999e-08, 0.0, 0.0, 0.0, 8.999999999999999e-08]"
1579257377467387095,,1456,,1579257377,467247284,"""base_link""",,0.207090545646,0.26353231513,0.411495263904,-0.847546973666,"[1.0, 0.0, 0.0, 0.0, 1.0, 0.0, 0.0, 0.0, 1.0]",,-0.535523831844,-0.174342691898,0.00315195228904,"[1.2184696791468346e-07, 0.0, 0.0, 0.0, 1.2184696791468346e-07, 0.0, 0.0, 0.0, 1.2184696791468346e-07]",,5.44269075,-0.79433865,7.46286065,"[8.999999999999999e-08, 0.0, 0.0, 0.0, 8.999999999999999e-08, 0.0, 0.0, 0.0, 8.999999999999999e-08]"
1579257377707329764,,1457,,1579257377,707177015,"""base_link""",,0.304778535241,0.353704785769,0.406364303757,-0.785411370947,"[1.0, 0.0, 0.0, 0.0, 1.0, 0.0, 0.0, 0.0, 1.0]",,-0.257156580687,-1.77965557575,-0.203644320369,"[1.2184696791468346e-07, 0.0, 0.0, 0.0, 1.2184696791468346e-07, 0.0, 0.0, 0.0, 1.2184696791468346e-07]",,7.58054045,-0.55897905,6.7273619,"[8.999999999999999e-08, 0.0, 0.0, 0.0, 8.999999999999999e-08, 0.0, 0.0, 0.0, 8.999999999999999e-08]"
1579257377947186095,,1458,,1579257377,946804658,"""base_link""",,0.387725600905,0.501502172109,0.352536163868,-0.688391373376,"[1.0, 0.0, 0.0, 0.0, 1.0, 0.0, 0.0, 0.0, 1.0]",,-0.0580135583878,-1.12858605385,0.121619790792,"[1.2184696791468346e-07, 0.0, 0.0, 0.0, 1.2184696791468346e-07, 0.0, 0.0, 0.0, 1.2184696791468346e-07]",,9.18883105,-1.3925443,3.16754795,"[8.999999999999999e-08, 0.0, 0.0, 0.0, 8.999999999999999e-08, 0.0, 0.0, 0.0, 8.999999999999999e-08]"
1579257378195018436,,1459,,1579257378,194853125,"""base_link""",,0.337052536541,0.518637759714,0.306456112441,-0.723529621341,"[1.0, 0.0, 0.0, 0.0, 1.0, 0.0, 0.0, 0.0, 1.0]",,1.28957855701,0.963241815567,0.00215400522575,"[1.2184696791468346e-07, 0.0, 0.0, 0.0, 1.2184696791468346e-07, 0.0, 0.0, 0.0, 1.2184696791468346e-07]",,10.14988275,-2.1770763,0.73549875,"[8.999999999999999e-08, 0.0, 0.0, 0.0, 8.999999999999999e-08, 0.0, 0.0, 0.0, 8.999999999999999e-08]"
1579257378429396846,,1460,,1579257378,429264692,"""base_link""",,0.175248029153,0.439817398133,0.26924097666,-0.838664462741,"[1.0, 0.0, 0.0, 0.0, 1.0, 0.0, 0.0, 0.0, 1.0]",,1.19265544415,1.82047784328,-0.334236502647,"[1.2184696791468346e-07, 0.0, 0.0, 0.0, 1.2184696791468346e-07, 0.0, 0.0, 0.0, 1.2184696791468346e-07]",,7.81590005,-0.980665,5.4721107,"[8.999999999999999e-08, 0.0, 0.0, 0.0, 8.999999999999999e-08, 0.0, 0.0, 0.0, 8.999999999999999e-08]"
1579257378665394412,,1461,,1579257378,665076885,"""base_link""",,-0.0211961365899,0.248859251771,0.329810881012,-0.910409017622,"[1.0, 0.0, 0.0, 0.0, 1.0, 0.0, 0.0, 0.0, 1.0]",,0.48990175128,2.15358376503,-1.18150138855,"[1.2184696791468346e-07, 0.0, 0.0, 0.0, 1.2184696791468346e-07, 0.0, 0.0, 0.0, 1.2184696791468346e-07]",,3.2165812,3.03025485,9.0417313,"[8.999999999999999e-08, 0.0, 0.0, 0.0, 8.999999999999999e-08, 0.0, 0.0, 0.0, 8.999999999999999e-08]"
1579257378897092650,,1462,,1579257378,896927382,"""base_link""",,-0.110153710394,0.00561404763451,0.432751173343,-0.894740780632,"[1.0, 0.0, 0.0, 0.0, 1.0, 0.0, 0.0, 0.0, 1.0]",,-0.726513922215,1.61681008339,-0.984373748302,"[1.2184696791468346e-07, 0.0, 0.0, 0.0, 1.2184696791468346e-07, 0.0, 0.0, 0.0, 1.2184696791468346e-07]",,-1.8436502,2.55953565,8.7475318,"[8.999999999999999e-08, 0.0, 0.0, 0.0, 8.999999999999999e-08, 0.0, 0.0, 0.0, 8.999999999999999e-08]"
1579257379149619545,,1463,,1579257379,149453044,"""base_link""",,-0.0325260927783,-0.0797244813441,0.460181226564,-0.883639801662,"[1.0, 0.0, 0.0, 0.0, 1.0, 0.0, 0.0, 0.0, 1.0]",,-0.519889175892,-0.269135445356,-0.0447772853076,"[1.2184696791468346e-07, 0.0, 0.0, 0.0, 1.2184696791468346e-07, 0.0, 0.0, 0.0, 1.2184696791468346e-07]",,-1.24544455,-0.7256921,10.07142955,"[8.999999999999999e-08, 0.0, 0.0, 0.0, 8.999999999999999e-08, 0.0, 0.0, 0.0, 8.999999999999999e-08]"
1579257379400522770,,1464,,1579257379,400188265,"""base_link""",,7.99649843751e-05,-0.0477033500367,0.469222104186,-0.88179079205,"[1.0, 0.0, 0.0, 0.0, 1.0, 0.0, 0.0, 0.0, 1.0]",,-0.164957091212,-0.392304033041,-0.0435035936534,"[1.2184696791468346e-07, 0.0, 0.0, 0.0, 1.2184696791468346e-07, 0.0, 0.0, 0.0, 1.2184696791468346e-07]",,-1.0787315,0.20593965,10.1008495,"[8.999999999999999e-08, 0.0, 0.0, 0.0, 8.999999999999999e-08, 0.0, 0.0, 0.0, 8.999999999999999e-08]"
1579257379621110164,,1465,,1579257379,620963330,"""base_link""",,0.0643039157722,-0.00168799423641,0.466385185317,-0.882239772402,"[1.0, 0.0, 0.0, 0.0, 1.0, 0.0, 0.0, 0.0, 1.0]",,-0.283773392439,-0.994965016842,-0.0370587743819,"[1.2184696791468346e-07, 0.0, 0.0, 0.0, 1.2184696791468346e-07, 0.0, 0.0, 0.0, 1.2184696791468346e-07]",,0.0,-1.7848103,9.2770909,"[8.999999999999999e-08, 0.0, 0.0, 0.0, 8.999999999999999e-08, 0.0, 0.0, 0.0, 8.999999999999999e-08]"
1579257379874023004,,1466,,1579257379,873835574,"""base_link""",,0.139144038753,0.11019782553,0.448625428583,-0.875917005518,"[1.0, 0.0, 0.0, 0.0, 1.0, 0.0, 0.0, 0.0, 1.0]",,-0.0101283853874,-1.33867561817,-0.0820487961173,"[1.2184696791468346e-07, 0.0, 0.0, 0.0, 1.2184696791468346e-07, 0.0, 0.0, 0.0, 1.2184696791468346e-07]",,2.3339827,-1.08853815,9.14960445,"[8.999999999999999e-08, 0.0, 0.0, 0.0, 8.999999999999999e-08, 0.0, 0.0, 0.0, 8.999999999999999e-08]"
1579257380100213115,,1467,,1579257380,99890839,"""base_link""",,0.210707351008,0.23245043158,0.443930710202,-0.839341845513,"[1.0, 0.0, 0.0, 0.0, 1.0, 0.0, 0.0, 0.0, 1.0]",,-0.12441572547,-1.09654402733,-0.121124170721,"[1.2184696791468346e-07, 0.0, 0.0, 0.0, 1.2184696791468346e-07, 0.0, 0.0, 0.0, 1.2184696791468346e-07]",,4.2364728,-1.42196425,8.73772515,"[8.999999999999999e-08, 0.0, 0.0, 0.0, 8.999999999999999e-08, 0.0, 0.0, 0.0, 8.999999999999999e-08]"
1579257380338957429,,1468,,1579257380,338829411,"""base_link""",,0.279055599201,0.342467299021,0.413672774602,-0.796064668987,"[1.0, 0.0, 0.0, 0.0, 1.0, 0.0, 0.0, 0.0, 1.0]",,-0.0539876185358,-1.35980093479,0.233384549618,"[1.2184696791468346e-07, 0.0, 0.0, 0.0, 1.2184696791468346e-07, 0.0, 0.0, 0.0, 1.2184696791468346e-07]",,6.9234949,-1.55925735,6.668522,"[8.999999999999999e-08, 0.0, 0.0, 0.0, 8.999999999999999e-08, 0.0, 0.0, 0.0, 8.999999999999999e-08]"
1579257380591964051,,1469,,1579257380,591795877,"""base_link""",,0.323667369078,0.44593063105,0.338744650485,-0.762651537895,"[1.0, 0.0, 0.0, 0.0, 1.0, 0.0, 0.0, 0.0, 1.0]",,0.455051869154,-0.648381233215,0.300671726465,"[1.2184696791468346e-07, 0.0, 0.0, 0.0, 1.2184696791468346e-07, 0.0, 0.0, 0.0, 1.2184696791468346e-07]",,8.9436648,-1.372931,4.0795664,"[8.999999999999999e-08, 0.0, 0.0, 0.0, 8.999999999999999e-08, 0.0, 0.0, 0.0, 8.999999999999999e-08]"
1579257380821470444,,1470,,1579257380,821133852,"""base_link""",,0.288151295021,0.480567547744,0.290818821881,-0.775530835024,"[1.0, 0.0, 0.0, 0.0, 1.0, 0.0, 0.0, 0.0, 1.0]",,0.377316057682,-0.0319661349058,0.224219128489,"[1.2184696791468346e-07, 0.0, 0.0, 0.0, 1.2184696791468346e-07, 0.0, 0.0, 0.0, 1.2184696791468346e-07]",,9.46341725,-2.50069575,4.6679654,"[8.999999999999999e-08, 0.0, 0.0, 0.0, 8.999999999999999e-08, 0.0, 0.0, 0.0, 8.999999999999999e-08]"
1579257381073650756,,1471,,1579257381,73449008,"""base_link""",,0.258241806865,0.461772667497,0.30219420133,-0.792941257233,"[1.0, 0.0, 0.0, 0.0, 1.0, 0.0, 0.0, 0.0, 1.0]",,-0.147181048989,0.296521961689,-0.496791660786,"[1.2184696791468346e-07, 0.0, 0.0, 0.0, 1.2184696791468346e-07, 0.0, 0.0, 0.0, 1.2184696791468346e-07]",,8.56120545,-1.55925735,4.48163905,"[8.999999999999999e-08, 0.0, 0.0, 0.0, 8.999999999999999e-08, 0.0, 0.0, 0.0, 8.999999999999999e-08]"
1579257381312503937,,1472,,1579257381,312301062,"""base_link""",,0.229097032069,0.381908124913,0.388459432607,-0.806696971137,"[1.0, 0.0, 0.0, 0.0, 1.0, 0.0, 0.0, 0.0, 1.0]",,-0.258147984743,1.64758384228,-0.471728503704,"[1.2184696791468346e-07, 0.0, 0.0, 0.0, 1.2184696791468346e-07, 0.0, 0.0, 0.0, 1.2184696791468346e-07]",,9.3163175,-1.06892485,5.71727695,"[8.999999999999999e-08, 0.0, 0.0, 0.0, 8.999999999999999e-08, 0.0, 0.0, 0.0, 8.999999999999999e-08]"
1579257381540232461,,1473,,1579257381,540034815,"""base_link""",,0.14711232808,0.198286489255,0.457210059525,-0.854400019063,"[1.0, 0.0, 0.0, 0.0, 1.0, 0.0, 0.0, 0.0, 1.0]",,-0.0382238924503,1.86518955231,-0.0789153426886,"[1.2184696791468346e-07, 0.0, 0.0, 0.0, 1.2184696791468346e-07, 0.0, 0.0, 0.0, 1.2184696791468346e-07]",,5.7859235,-0.1176798,7.7864801,"[8.999999999999999e-08, 0.0, 0.0, 0.0, 8.999999999999999e-08, 0.0, 0.0, 0.0, 8.999999999999999e-08]"
1579257381800258488,,1474,,1579257381,800037849,"""base_link""",,0.010723774646,0.0373395076505,0.462868373592,-0.885575310492,"[1.0, 0.0, 0.0, 0.0, 1.0, 0.0, 0.0, 0.0, 1.0]",,0.625264585018,1.43183350563,0.0927770212293,"[1.2184696791468346e-07, 0.0, 0.0, 0.0, 1.2184696791468346e-07, 0.0, 0.0, 0.0, 1.2184696791468346e-07]",,1.81423025,0.4314926,8.71811185,"[8.999999999999999e-08, 0.0, 0.0, 0.0, 8.999999999999999e-08, 0.0, 0.0, 0.0, 8.999999999999999e-08]"
1579257382020916955,,1475,,1579257382,20744256,"""base_link""",,-0.0461491806018,-0.0440895199752,0.459008100931,-0.886136519188,"[1.0, 0.0, 0.0, 0.0, 1.0, 0.0, 0.0, 0.0, 1.0]",,-0.466170698404,0.51634567976,0.0538984984159,"[1.2184696791468346e-07, 0.0, 0.0, 0.0, 1.2184696791468346e-07, 0.0, 0.0, 0.0, 1.2184696791468346e-07]",,-1.6475172,1.0198916,9.1790244,"[8.999999999999999e-08, 0.0, 0.0, 0.0, 8.999999999999999e-08, 0.0, 0.0, 0.0, 8.999999999999999e-08]"
1579257382265189196,,1476,,1579257382,265014822,"""base_link""",,0.0285521080282,-0.0663959856106,0.455591969471,-0.88724985634,"[1.0, 0.0, 0.0, 0.0, 1.0, 0.0, 0.0, 0.0, 1.0]",,-0.449697643518,-0.451016664505,-0.20473484695,"[1.2184696791468346e-07, 0.0, 0.0, 0.0, 1.2184696791468346e-07, 0.0, 0.0, 0.0, 1.2184696791468346e-07]",,-2.1378497,-0.0392266,9.2770909,"[8.999999999999999e-08, 0.0, 0.0, 0.0, 8.999999999999999e-08, 0.0, 0.0, 0.0, 8.999999999999999e-08]"
1579257382512024040,,1477,,1579257382,511740975,"""base_link""",,0.0730294588757,-0.0173333160927,0.500842817852,-0.862277638638,"[1.0, 0.0, 0.0, 0.0, 1.0, 0.0, 0.0, 0.0, 1.0]",,-0.0645715668797,-1.21708798409,-0.469623863697,"[1.2184696791468346e-07, 0.0, 0.0, 0.0, 1.2184696791468346e-07, 0.0, 0.0, 0.0, 1.2184696791468346e-07]",,-1.1964113,-0.48052585,9.4928372,"[8.999999999999999e-08, 0.0, 0.0, 0.0, 8.999999999999999e-08, 0.0, 0.0, 0.0, 8.999999999999999e-08]"
1579257382741237198,,1478,,1579257382,741105088,"""base_link""",,0.228271946236,0.169489377929,0.520587872436,-0.805079832317,"[1.0, 0.0, 0.0, 0.0, 1.0, 0.0, 0.0, 0.0, 1.0]",,-0.553275287151,-2.00744223595,-0.200638800859,"[1.2184696791468346e-07, 0.0, 0.0, 0.0, 1.2184696791468346e-07, 0.0, 0.0, 0.0, 1.2184696791468346e-07]",,4.91313165,-1.38273765,7.6688003,"[8.999999999999999e-08, 0.0, 0.0, 0.0, 8.999999999999999e-08, 0.0, 0.0, 0.0, 8.999999999999999e-08]"
1579257382991712074,,1479,,1579257382,991368536,"""base_link""",,0.340807626346,0.205115462705,0.416155892905,-0.817674801852,"[1.0, 0.0, 0.0, 0.0, 1.0, 0.0, 0.0, 0.0, 1.0]",,0.111413404346,0.296592950821,1.52629959583,"[1.2184696791468346e-07, 0.0, 0.0, 0.0, 1.2184696791468346e-07, 0.0, 0.0, 0.0, 1.2184696791468346e-07]",,5.5113373,-3.1969679,7.7080269,"[8.999999999999999e-08, 0.0, 0.0, 0.0, 8.999999999999999e-08, 0.0, 0.0, 0.0, 8.999999999999999e-08]"
1579257383239994380,,1480,,1579257383,239843288,"""base_link""",,0.240802531329,0.0927239765441,0.37611863432,-0.889916388205,"[1.0, 0.0, 0.0, 0.0, 1.0, 0.0, 0.0, 0.0, 1.0]",,0.804040551186,1.37657284737,-0.0885022208095,"[1.2184696791468346e-07, 0.0, 0.0, 0.0, 1.2184696791468346e-07, 0.0, 0.0, 0.0, 1.2184696791468346e-07]",,2.6281822,-3.9618866,8.75733845,"[8.999999999999999e-08, 0.0, 0.0, 0.0, 8.999999999999999e-08, 0.0, 0.0, 0.0, 8.999999999999999e-08]"
1579257383467830351,,1481,,1579257383,467673171,"""base_link""",,0.109186565599,0.00942674100641,0.473517684839,-0.873939604659,"[1.0, 0.0, 0.0, 0.0, 1.0, 0.0, 0.0, 0.0, 1.0]",,0.776490449905,0.819091975689,-1.395788908,"[1.2184696791468346e-07, 0.0, 0.0, 0.0, 1.2184696791468346e-07, 0.0, 0.0, 0.0, 1.2184696791468346e-07]",,1.3140911,-2.4516625,9.36535075,"[8.999999999999999e-08, 0.0, 0.0, 0.0, 8.999999999999999e-08, 0.0, 0.0, 0.0, 8.999999999999999e-08]"
1579257383721692506,,1482,,1579257383,721297098,"""base_link""",,0.0349632740643,0.0756513981519,0.605776063148,-0.791258362826,"[1.0, 0.0, 0.0, 0.0, 1.0, 0.0, 0.0, 0.0, 1.0]",,1.12565398216,-0.711591303349,-0.915185987949,"[1.2184696791468346e-07, 0.0, 0.0, 0.0, 1.2184696791468346e-07, 0.0, 0.0, 0.0, 1.2184696791468346e-07]",,2.8243152,-1.3140911,8.8652116,"[8.999999999999999e-08, 0.0, 0.0, 0.0, 8.999999999999999e-08, 0.0, 0.0, 0.0, 8.999999999999999e-08]"
1579257383941921338,,1483,,1579257383,941759746,"""base_link""",,-0.164454076314,0.166052433486,0.633682787983,-0.737446655922,"[1.0, 0.0, 0.0, 0.0, 1.0, 0.0, 0.0, 0.0, 1.0]",,1.65731108189,0.8951420784,-0.803811967373,"[1.2184696791468346e-07, 0.0, 0.0, 0.0, 1.2184696791468346e-07, 0.0, 0.0, 0.0, 1.2184696791468346e-07]",,-0.65704555,4.59931885,8.7671451,"[8.999999999999999e-08, 0.0, 0.0, 0.0, 8.999999999999999e-08, 0.0, 0.0, 0.0, 8.999999999999999e-08]"
1579257384192644573,,1484,,1579257384,192427403,"""base_link""",,-0.274898403071,0.12973995645,0.667048294752,-0.680180111557,"[1.0, 0.0, 0.0, 0.0, 1.0, 0.0, 0.0, 0.0, 1.0]",,-0.200334519148,0.609063446522,-0.629727363586,"[1.2184696791468346e-07, 0.0, 0.0, 0.0, 1.2184696791468346e-07, 0.0, 0.0, 0.0, 1.2184696791468346e-07]",,-2.549729,5.8251501,6.85484835,"[8.999999999999999e-08, 0.0, 0.0, 0.0, 8.999999999999999e-08, 0.0, 0.0, 0.0, 8.999999999999999e-08]"
1579257384431552204,,1485,,1579257384,431361160,"""base_link""",,-0.293260936829,0.0841988179779,0.684048454032,-0.662560408202,"[1.0, 0.0, 0.0, 0.0, 1.0, 0.0, 0.0, 0.0, 1.0]",,0.192866265774,-0.0755346417427,-0.141083195806,"[1.2184696791468346e-07, 0.0, 0.0, 0.0, 1.2184696791468346e-07, 0.0, 0.0, 0.0, 1.2184696791468346e-07]",,-4.3933792,5.59959715,7.2373077,"[8.999999999999999e-08, 0.0, 0.0, 0.0, 8.999999999999999e-08, 0.0, 0.0, 0.0, 8.999999999999999e-08]"
1579257384669264719,,1486,,1579257384,669152178,"""base_link""",,-0.308202884716,0.124813977551,0.689170237909,-0.643798754302,"[1.0, 0.0, 0.0, 0.0, 1.0, 0.0, 0.0, 0.0, 1.0]",,0.464717954397,-0.0283481068909,-0.0159006547183,"[1.2184696791468346e-07, 0.0, 0.0, 0.0, 1.2184696791468346e-07, 0.0, 0.0, 0.0, 1.2184696791468346e-07]",,-3.18716125,5.61921045,6.7077486,"[8.999999999999999e-08, 0.0, 0.0, 0.0, 8.999999999999999e-08, 0.0, 0.0, 0.0, 8.999999999999999e-08]"
1579257384913437285,,1487,,1579257384,913110135,"""base_link""",,-0.331656185304,0.14576667143,0.689407646222,-0.627274540836,"[1.0, 0.0, 0.0, 0.0, 1.0, 0.0, 0.0, 0.0, 1.0]",,0.0756186544895,0.0531133636832,-0.297796815634,"[1.2184696791468346e-07, 0.0, 0.0, 0.0, 1.2184696791468346e-07, 0.0, 0.0, 0.0, 1.2184696791468346e-07]",,-2.52030905,6.38412915,6.6292954,"[8.999999999999999e-08, 0.0, 0.0, 0.0, 8.999999999999999e-08, 0.0, 0.0, 0.0, 8.999999999999999e-08]"
1579257385156918069,,1488,,1579257385,156752907,"""base_link""",,0.372044923219,-0.128895445739,-0.699575204326,0.596291097256,"[1.0, 0.0, 0.0, 0.0, 1.0, 0.0, 0.0, 0.0, 1.0]",,0.2500230968,0.332734972239,-0.252632796764,"[1.2184696791468346e-07, 0.0, 0.0, 0.0, 1.2184696791468346e-07, 0.0, 0.0, 0.0, 1.2184696791468346e-07]",,-3.8245935,6.14876955,6.5312289,"[8.999999999999999e-08, 0.0, 0.0, 0.0, 8.999999999999999e-08, 0.0, 0.0, 0.0, 8.999999999999999e-08]"
1579257385392808218,,1489,,1579257385,392667685,"""base_link""",,0.392470120848,-0.113301804626,-0.698905344033,0.587078551296,"[1.0, 0.0, 0.0, 0.0, 1.0, 0.0, 0.0, 0.0, 1.0]",,-0.0276625826955,0.0764299929142,0.00296880025417,"[1.2184696791468346e-07, 0.0, 0.0, 0.0, 1.2184696791468346e-07, 0.0, 0.0, 0.0, 1.2184696791468346e-07]",,-4.4718324,6.20760945,6.22722275,"[8.999999999999999e-08, 0.0, 0.0, 0.0, 8.999999999999999e-08, 0.0, 0.0, 0.0, 8.999999999999999e-08]"
1579257385631644362,,1490,,1579257385,631289638,"""base_link""",,-0.397722081917,0.091865527957,0.69300216209,-0.594243951309,"[1.0, 0.0, 0.0, 0.0, 1.0, 0.0, 0.0, 0.0, 1.0]",,-0.302591949701,0.342446953058,-0.095623858273,"[1.2184696791468346e-07, 0.0, 0.0, 0.0, 1.2184696791468346e-07, 0.0, 0.0, 0.0, 1.2184696791468346e-07]",,-4.2168595,6.2370294,6.0408964,"[8.999999999999999e-08, 0.0, 0.0, 0.0, 8.999999999999999e-08, 0.0, 0.0, 0.0, 8.999999999999999e-08]"
1579257385870188209,,1491,,1579257385,870013831,"""base_link""",,-0.415119845969,0.00843955443404,0.680617874571,-0.603625377381,"[1.0, 0.0, 0.0, 0.0, 1.0, 0.0, 0.0, 0.0, 1.0]",,-0.439074426889,0.672762274742,-0.207081511617,"[1.2184696791468346e-07, 0.0, 0.0, 0.0, 1.2184696791468346e-07, 0.0, 0.0, 0.0, 1.2184696791468346e-07]",,-5.57998385,5.30539765,5.9820565,"[8.999999999999999e-08, 0.0, 0.0, 0.0, 8.999999999999999e-08, 0.0, 0.0, 0.0, 8.999999999999999e-08]"
1579257386112774110,,1492,,1579257386,112615891,"""base_link""",,-0.421983827484,-0.079976777128,0.663839021811,-0.612250861643,"[1.0, 0.0, 0.0, 0.0, 1.0, 0.0, 0.0, 0.0, 1.0]",,-0.691177070141,0.395467281342,-0.277954608202,"[1.2184696791468346e-07, 0.0, 0.0, 0.0, 1.2184696791468346e-07, 0.0, 0.0, 0.0, 1.2184696791468346e-07]",,-6.5116156,4.6091255,5.61921045,"[8.999999999999999e-08, 0.0, 0.0, 0.0, 8.999999999999999e-08, 0.0, 0.0, 0.0, 8.999999999999999e-08]"
1579257386358762338,,1493,,1579257386,358624840,"""base_link""",,-0.369039858277,-0.223367638703,0.668723205379,-0.605578859911,"[1.0, 0.0, 0.0, 0.0, 1.0, 0.0, 0.0, 0.0, 1.0]",,-1.26744937897,0.341153234243,-1.04169094563,"[1.2184696791468346e-07, 0.0, 0.0, 0.0, 1.2184696791468346e-07, 0.0, 0.0, 0.0, 1.2184696791468346e-07]",,-7.5118939,2.65760215,5.1190713,"[8.999999999999999e-08, 0.0, 0.0, 0.0, 8.999999999999999e-08, 0.0, 0.0, 0.0, 8.999999999999999e-08]"
1579257386593518700,,1494,,1579257386,593378785,"""base_link""",,0.19244635995,0.424654806448,-0.70101028291,0.539645510643,"[1.0, 0.0, 0.0, 0.0, 1.0, 0.0, 0.0, 0.0, 1.0]",,-1.99442505836,-0.428123682737,-1.63924157619,"[1.2184696791468346e-07, 0.0, 0.0, 0.0, 1.2184696791468346e-07, 0.0, 0.0, 0.0, 1.2184696791468346e-07]",,-7.256921,-2.06920315,4.48163905,"[8.999999999999999e-08, 0.0, 0.0, 0.0, 8.999999999999999e-08, 0.0, 0.0, 0.0, 8.999999999999999e-08]"
1579257386842539616,,1495,,1579257386,842174969,"""base_link""",,-0.0467346584955,0.480505405625,-0.707659915547,0.515895212991,"[1.0, 0.0, 0.0, 0.0, 1.0, 0.0, 0.0, 0.0, 1.0]",,-0.765085339546,-1.53128516674,-0.734333753586,"[1.2184696791468346e-07, 0.0, 0.0, 0.0, 1.2184696791468346e-07, 0.0, 0.0, 0.0, 1.2184696791468346e-07]",,-5.22694445,-6.59987545,4.89351835,"[8.999999999999999e-08, 0.0, 0.0, 0.0, 8.999999999999999e-08, 0.0, 0.0, 0.0, 8.999999999999999e-08]"
1579257387072554425,,1496,,1579257387,72354275,"""base_link""",,-0.252250813546,0.367738629735,-0.698182522865,0.560070524159,"[1.0, 0.0, 0.0, 0.0, 1.0, 0.0, 0.0, 0.0, 1.0]",,0.123231977224,-2.23660731316,-0.510555505753,"[1.2184696791468346e-07, 0.0, 0.0, 0.0, 1.2184696791468346e-07, 0.0, 0.0, 0.0, 1.2184696791468346e-07]",,0.2941995,-9.42419065,6.3154826,"[8.999999999999999e-08, 0.0, 0.0, 0.0, 8.999999999999999e-08, 0.0, 0.0, 0.0, 8.999999999999999e-08]"
1579257387315523029,,1497,,1579257387,315386431,"""base_link""",,0.384687427824,-0.143067391414,0.683441721341,-0.603700851349,"[1.0, 0.0, 0.0, 0.0, 1.0, 0.0, 0.0, 0.0, 1.0]",,1.37115597725,-1.5959430933,-0.188349083066,"[1.2184696791468346e-07, 0.0, 0.0, 0.0, 1.2184696791468346e-07, 0.0, 0.0, 0.0, 1.2184696791468346e-07]",,4.14821295,-7.48247395,6.36451585,"[8.999999999999999e-08, 0.0, 0.0, 0.0, 8.999999999999999e-08, 0.0, 0.0, 0.0, 8.999999999999999e-08]"
1579257387559861580,,1498,,1579257387,559503923,"""base_link""",,0.317866671527,0.0108935429966,0.619921793194,-0.717313794777,"[1.0, 0.0, 0.0, 0.0, 1.0, 0.0, 0.0, 0.0, 1.0]",,1.3117146492,0.0875227823853,0.684297263622,"[1.2184696791468346e-07, 0.0, 0.0, 0.0, 1.2184696791468346e-07, 0.0, 0.0, 0.0, 1.2184696791468346e-07]",,2.9223817,-4.3541526,8.4533323,"[8.999999999999999e-08, 0.0, 0.0, 0.0, 8.999999999999999e-08, 0.0, 0.0, 0.0, 8.999999999999999e-08]"
1579257387806496615,,1499,,1579257387,806312609,"""base_link""",,0.220854299687,0.0126878736589,0.577309632872,-0.78598726705,"[1.0, 0.0, 0.0, 0.0, 1.0, 0.0, 0.0, 0.0, 1.0]",,0.316515415907,0.435244143009,0.646312892437,"[1.2184696791468346e-07, 0.0, 0.0, 0.0, 1.2184696791468346e-07, 0.0, 0.0, 0.0, 1.2184696791468346e-07]",,1.26505785,-1.99074995,8.79656505,"[8.999999999999999e-08, 0.0, 0.0, 0.0, 8.999999999999999e-08, 0.0, 0.0, 0.0, 8.999999999999999e-08]"
1579257388047581126,,1500,,1579257388,47427654,"""base_link""",,0.164183440802,0.0167849746417,0.533955232353,-0.829248980847,"[1.0, 0.0, 0.0, 0.0, 1.0, 0.0, 0.0, 0.0, 1.0]",,0.667097389698,0.0808012932539,0.386150151491,"[1.2184696791468346e-07, 0.0, 0.0, 0.0, 1.2184696791468346e-07, 0.0, 0.0, 0.0, 1.2184696791468346e-07]",,1.7063571,-2.3339827,9.65955025,"[8.999999999999999e-08, 0.0, 0.0, 0.0, 8.999999999999999e-08, 0.0, 0.0, 0.0, 8.999999999999999e-08]"
1579257388288761392,,1501,,1579257388,288323691,"""base_link""",,0.0992194829214,0.017817841184,0.490876217806,-0.865377696464,"[1.0, 0.0, 0.0, 0.0, 1.0, 0.0, 0.0, 0.0, 1.0]",,0.285369277,0.366552472115,0.290925443172,"[1.2184696791468346e-07, 0.0, 0.0, 0.0, 1.2184696791468346e-07, 0.0, 0.0, 0.0, 1.2184696791468346e-07]",,0.980665,-1.52003075,9.75761675,"[8.999999999999999e-08, 0.0, 0.0, 0.0, 8.999999999999999e-08, 0.0, 0.0, 0.0, 8.999999999999999e-08]"
1579257388519449604,,1502,,1579257388,519311983,"""base_link""",,0.0360949830979,-0.0110657916588,0.45819575694,-0.888049181505,"[1.0, 0.0, 0.0, 0.0, 1.0, 0.0, 0.0, 0.0, 1.0]",,0.421057403088,0.71785223484,0.466537624598,"[1.2184696791468346e-07, 0.0, 0.0, 0.0, 1.2184696791468346e-07, 0.0, 0.0, 0.0, 1.2184696791468346e-07]",,0.51975245,-0.8433719,9.80665,"[8.999999999999999e-08, 0.0, 0.0, 0.0, 8.999999999999999e-08, 0.0, 0.0, 0.0, 8.999999999999999e-08]"
1579257388758196906,,1503,,1579257388,758017223,"""base_link""",,-0.0738164020119,-0.12113404567,0.428547595286,-0.892314204946,"[1.0, 0.0, 0.0, 0.0, 1.0, 0.0, 0.0, 0.0, 1.0]",,0.407871156931,1.73991811275,-0.398795843124,"[1.2184696791468346e-07, 0.0, 0.0, 0.0, 1.2184696791468346e-07, 0.0, 0.0, 0.0, 1.2184696791468346e-07]",,-2.5301157,1.372931,8.14932615,"[8.999999999999999e-08, 0.0, 0.0, 0.0, 8.999999999999999e-08, 0.0, 0.0, 0.0, 8.999999999999999e-08]"
1579257389008479163,,1504,,1579257389,8164498,"""base_link""",,-0.145889812172,-0.294688318483,0.510643375442,-0.794429544246,"[1.0, 0.0, 0.0, 0.0, 1.0, 0.0, 0.0, 0.0, 1.0]",,-0.0694113969803,0.213223040104,-1.61367797852,"[1.2184696791468346e-07, 0.0, 0.0, 0.0, 1.2184696791468346e-07, 0.0, 0.0, 0.0, 1.2184696791468346e-07]",,-5.7859235,0.69627215,6.67832865,"[8.999999999999999e-08, 0.0, 0.0, 0.0, 8.999999999999999e-08, 0.0, 0.0, 0.0, 8.999999999999999e-08]"
1579257389238539027,,1505,,1579257389,238335981,"""base_link""",,0.0196530431075,-0.25038777481,0.654026403355,-0.713560918098,"[1.0, 0.0, 0.0, 0.0, 1.0, 0.0, 0.0, 0.0, 1.0]",,-0.634208440781,-1.70851433277,-1.07219290733,"[1.2184696791468346e-07, 0.0, 0.0, 0.0, 1.2184696791468346e-07, 0.0, 0.0, 0.0, 1.2184696791468346e-07]",,-3.6676871,-1.7455837,9.8262633,"[8.999999999999999e-08, 0.0, 0.0, 0.0, 8.999999999999999e-08, 0.0, 0.0, 0.0, 8.999999999999999e-08]"
1579257389475074735,,1506,,1579257389,474916288,"""base_link""",,0.221660882226,-0.106138011785,0.639925089722,-0.728077643723,"[1.0, 0.0, 0.0, 0.0, 1.0, 0.0, 0.0, 0.0, 1.0]",,-0.132612928748,-2.15618658066,0.188377469778,"[1.2184696791468346e-07, 0.0, 0.0, 0.0, 1.2184696791468346e-07, 0.0, 0.0, 0.0, 1.2184696791468346e-07]",,-1.5886773,-5.97224985,8.1002929,"[8.999999999999999e-08, 0.0, 0.0, 0.0, 8.999999999999999e-08, 0.0, 0.0, 0.0, 8.999999999999999e-08]"
1579257389719900754,,1507,,1579257389,719576178,"""base_link""",,0.36726496908,0.118128835731,0.556252919386,-0.736033090513,"[1.0, 0.0, 0.0, 0.0, 1.0, 0.0, 0.0, 0.0, 1.0]",,0.441488236189,-2.54946088791,0.0862992554903,"[1.2184696791468346e-07, 0.0, 0.0, 0.0, 1.2184696791468346e-07, 0.0, 0.0, 0.0, 1.2184696791468346e-07]",,3.08909475,-4.7464186,7.2961476,"[8.999999999999999e-08, 0.0, 0.0, 0.0, 8.999999999999999e-08, 0.0, 0.0, 0.0, 8.999999999999999e-08]"
1579257389953160121,,1508,,1579257389,952978805,"""base_link""",,0.413115011392,0.254241655721,0.408449940729,-0.773217830742,"[1.0, 0.0, 0.0, 0.0, 1.0, 0.0, 0.0, 0.0, 1.0]",,1.04398310184,0.221452131867,0.970318078995,"[1.2184696791468346e-07, 0.0, 0.0, 0.0, 1.2184696791468346e-07, 0.0, 0.0, 0.0, 1.2184696791468346e-07]",,8.71811185,-4.3541526,5.88399,"[8.999999999999999e-08, 0.0, 0.0, 0.0, 8.999999999999999e-08, 0.0, 0.0, 0.0, 8.999999999999999e-08]"
1579257390194370987,,1509,,1579257390,194193775,"""base_link""",,0.230789426904,0.0669949530865,0.349337389193,-0.905655180078,"[1.0, 0.0, 0.0, 0.0, 1.0, 0.0, 0.0, 0.0, 1.0]",,1.09104990959,3.26513695717,0.850660741329,"[1.2184696791468346e-07, 0.0, 0.0, 0.0, 1.2184696791468346e-07, 0.0, 0.0, 0.0, 1.2184696791468346e-07]",,4.4914457,-4.2756994,7.60015375,"[8.999999999999999e-08, 0.0, 0.0, 0.0, 8.999999999999999e-08, 0.0, 0.0, 0.0, 8.999999999999999e-08]"
1579257390440589579,,1510,,1579257390,440247627,"""base_link""",,-0.068875905191,-0.310539157479,0.431401781975,-0.844223929929,"[1.0, 0.0, 0.0, 0.0, 1.0, 0.0, 0.0, 0.0, 1.0]",,1.32861495018,2.93486857414,-1.48696053028,"[1.2184696791468346e-07, 0.0, 0.0, 0.0, 1.2184696791468346e-07, 0.0, 0.0, 0.0, 1.2184696791468346e-07]",,-4.3933792,-2.01036325,7.52170055,"[8.999999999999999e-08, 0.0, 0.0, 0.0, 8.999999999999999e-08, 0.0, 0.0, 0.0, 8.999999999999999e-08]"
1579257390674216907,,1511,,1579257390,674038919,"""base_link""",,0.0969029858539,0.378630481845,-0.616831414269,0.683204051453,"[1.0, 0.0, 0.0, 0.0, 1.0, 0.0, 0.0, 0.0, 1.0]",,-0.170691505075,-0.581564724445,-1.70149075985,"[1.2184696791468346e-07, 0.0, 0.0, 0.0, 1.2184696791468346e-07, 0.0, 0.0, 0.0, 1.2184696791468346e-07]",,-7.3746008,-2.941995,6.4920023,"[8.999999999999999e-08, 0.0, 0.0, 0.0, 8.999999999999999e-08, 0.0, 0.0, 0.0, 8.999999999999999e-08]"
1579257390919070211,,1512,,1579257390,918897858,"""base_link""",,-0.0271229218153,0.370770558336,-0.704162193281,0.604937307278,"[1.0, 0.0, 0.0, 0.0, 1.0, 0.0, 0.0, 0.0, 1.0]",,0.0113335074857,-0.725580692291,-0.927131474018,"[1.2184696791468346e-07, 0.0, 0.0, 0.0, 1.2184696791468346e-07, 0.0, 0.0, 0.0, 1.2184696791468346e-07]",,-6.0997363,-5.32501095,6.16838285,"[8.999999999999999e-08, 0.0, 0.0, 0.0, 8.999999999999999e-08, 0.0, 0.0, 0.0, 8.999999999999999e-08]"
1579257391165065364,,1513,,1579257391,164683155,"""base_link""",,-0.109807179547,0.273700099735,-0.76356663367,0.574453335503,"[1.0, 0.0, 0.0, 0.0, 1.0, 0.0, 0.0, 0.0, 1.0]",,0.486035138369,-0.800797283649,-0.394524604082,"[1.2184696791468346e-07, 0.0, 0.0, 0.0, 1.2184696791468346e-07, 0.0, 0.0, 0.0, 1.2184696791468346e-07]",,-2.2555295,-5.7859235,7.9433865,"[8.999999999999999e-08, 0.0, 0.0, 0.0, 8.999999999999999e-08, 0.0, 0.0, 0.0, 8.999999999999999e-08]"
1579257391409223292,,1514,,1579257391,409062918,"""base_link""",,-0.146311052858,0.152104790275,-0.75263038563,0.623702422004,"[1.0, 0.0, 0.0, 0.0, 1.0, 0.0, 0.0, 0.0, 1.0]",,0.804212272167,-0.869537055492,0.694160461426,"[1.2184696791468346e-07, 0.0, 0.0, 0.0, 1.2184696791468346e-07, 0.0, 0.0, 0.0, 1.2184696791468346e-07]",,0.10787315,-4.44241245,8.67888525,"[8.999999999999999e-08, 0.0, 0.0, 0.0, 8.999999999999999e-08, 0.0, 0.0, 0.0, 8.999999999999999e-08]"
1579257391648245563,,1515,,1579257391,648106533,"""base_link""",,0.130244076615,-0.0382724042833,0.682966723678,-0.717724291023,"[1.0, 0.0, 0.0, 0.0, 1.0, 0.0, 0.0, 0.0, 1.0]",,0.694774031639,-0.677048385143,0.890869855881,"[1.2184696791468346e-07, 0.0, 0.0, 0.0, 1.2184696791468346e-07, 0.0, 0.0, 0.0, 1.2184696791468346e-07]",,0.59820565,-2.34378935,10.2381426,"[8.999999999999999e-08, 0.0, 0.0, 0.0, 8.999999999999999e-08, 0.0, 0.0, 0.0, 8.999999999999999e-08]"
1579257391875751908,,1516,,1579257391,875328904,"""base_link""",,0.133851251257,0.0986219823584,0.567414032402,-0.806473101204,"[1.0, 0.0, 0.0, 0.0, 1.0, 0.0, 0.0, 0.0, 1.0]",,0.961956858635,-1.12387704849,1.54453742504,"[1.2184696791468346e-07, 0.0, 0.0, 0.0, 1.2184696791468346e-07, 0.0, 0.0, 0.0, 1.2184696791468346e-07]",,1.1375714,-1.28467115,9.63993695,"[8.999999999999999e-08, 0.0, 0.0, 0.0, 8.999999999999999e-08, 0.0, 0.0, 0.0, 8.999999999999999e-08]"
1579257392129697909,,1517,,1579257392,129538103,"""base_link""",,0.119141943535,0.234532730985,0.384729474474,-0.884750149397,"[1.0, 0.0, 0.0, 0.0, 1.0, 0.0, 0.0, 0.0, 1.0]",,0.729196965694,-0.668458104134,1.17303538322,"[1.2184696791468346e-07, 0.0, 0.0, 0.0, 1.2184696791468346e-07, 0.0, 0.0, 0.0, 1.2184696791468346e-07]",,3.1969679,0.42168595,9.11037785,"[8.999999999999999e-08, 0.0, 0.0, 0.0, 8.999999999999999e-08, 0.0, 0.0, 0.0, 8.999999999999999e-08]"
1579257392350908171,,1518,,1579257392,350728378,"""base_link""",,0.139826412953,0.352918594231,0.280149138383,-0.881710553612,"[1.0, 0.0, 0.0, 0.0, 1.0, 0.0, 0.0, 0.0, 1.0]",,-0.174958258867,-1.31041419506,0.804650783539,"[1.2184696791468346e-07, 0.0, 0.0, 0.0, 1.2184696791468346e-07, 0.0, 0.0, 0.0, 1.2184696791468346e-07]",,6.03108975,0.85317855,7.85512665,"[8.999999999999999e-08, 0.0, 0.0, 0.0, 8.999999999999999e-08, 0.0, 0.0, 0.0, 8.999999999999999e-08]"
1579257392613865709,,1519,,1579257392,613420433,"""base_link""",,0.304143139523,0.423123946686,0.167961167782,-0.836810685005,"[1.0, 0.0, 0.0, 0.0, 1.0, 0.0, 0.0, 0.0, 1.0]",,-1.17130208015,-0.900649428368,1.32743406296,"[1.2184696791468346e-07, 0.0, 0.0, 0.0, 1.2184696791468346e-07, 0.0, 0.0, 0.0, 1.2184696791468346e-07]",,6.7273619,-2.5693423,3.5892339,"[8.999999999999999e-08, 0.0, 0.0, 0.0, 8.999999999999999e-08, 0.0, 0.0, 0.0, 8.999999999999999e-08]"
1579257392840879620,,1520,,1579257392,840721327,"""base_link""",,0.424724494964,0.436739110231,0.102566713759,-0.786351144338,"[1.0, 0.0, 0.0, 0.0, 1.0, 0.0, 0.0, 0.0, 1.0]",,-0.130723297596,-0.486862391233,0.553522586823,"[1.2184696791468346e-07, 0.0, 0.0, 0.0, 1.2184696791468346e-07, 0.0, 0.0, 0.0, 1.2184696791468346e-07]",,7.2176944,-7.5315072,2.30456275,"[8.999999999999999e-08, 0.0, 0.0, 0.0, 8.999999999999999e-08, 0.0, 0.0, 0.0, 8.999999999999999e-08]"
1579257393088578175,,1521,,1579257393,88393324,"""base_link""",,0.383156645756,0.455545507362,0.0401521208095,-0.802531670858,"[1.0, 0.0, 0.0, 0.0, 1.0, 0.0, 0.0, 0.0, 1.0]",,1.0007891655,-0.19073459506,-0.196874722838,"[1.2184696791468346e-07, 0.0, 0.0, 0.0, 1.2184696791468346e-07, 0.0, 0.0, 0.0, 1.2184696791468346e-07]",,8.05125965,-6.9431082,3.5107807,"[8.999999999999999e-08, 0.0, 0.0, 0.0, 8.999999999999999e-08, 0.0, 0.0, 0.0, 8.999999999999999e-08]"
1579257393329876437,,1522,,1579257393,329480778,"""base_link""",,0.228700585528,0.447430060766,0.0231774199093,-0.864271479402,"[1.0, 0.0, 0.0, 0.0, 1.0, 0.0, 0.0, 0.0, 1.0]",,1.54116010666,0.638643562794,-0.342388182878,"[1.2184696791468346e-07, 0.0, 0.0, 0.0, 1.2184696791468346e-07, 0.0, 0.0, 0.0, 1.2184696791468346e-07]",,8.03164635,-3.93246665,5.52114395,"[8.999999999999999e-08, 0.0, 0.0, 0.0, 8.999999999999999e-08, 0.0, 0.0, 0.0, 8.999999999999999e-08]"
1579257393561875569,,1523,,1579257393,561720057,"""base_link""",,0.0413395398903,0.320104218834,0.0284616178719,-0.946051937176,"[1.0, 0.0, 0.0, 0.0, 1.0, 0.0, 0.0, 0.0, 1.0]",,1.41572856903,1.72816050053,-0.81266617775,"[1.2184696791468346e-07, 0.0, 0.0, 0.0, 1.2184696791468346e-07, 0.0, 0.0, 0.0, 1.2184696791468346e-07]",,5.61921045,-0.32361945,7.79628675,"[8.999999999999999e-08, 0.0, 0.0, 0.0, 8.999999999999999e-08, 0.0, 0.0, 0.0, 8.999999999999999e-08]"
1579257393805145468,,1524,,1579257393,805011017,"""base_link""",,-0.14310458709,0.0755050859125,0.112503750135,-0.980389190761,"[1.0, 0.0, 0.0, 0.0, 1.0, 0.0, 0.0, 0.0, 1.0]",,0.994892418385,2.29489660263,-1.52233493328,"[1.2184696791468346e-07, 0.0, 0.0, 0.0, 1.2184696791468346e-07, 0.0, 0.0, 0.0, 1.2184696791468346e-07]",,1.2552512,2.67721545,8.18855275,"[8.999999999999999e-08, 0.0, 0.0, 0.0, 8.999999999999999e-08, 0.0, 0.0, 0.0, 8.999999999999999e-08]"
1579257394047025479,,1525,,1579257394,46627519,"""base_link""",,-0.23248788998,-0.185829814092,0.24909209985,-0.921612601368,"[1.0, 0.0, 0.0, 0.0, 1.0, 0.0, 0.0, 0.0, 1.0]",,-0.19613917172,1.4463891983,-1.69769704342,"[1.2184696791468346e-07, 0.0, 0.0, 0.0, 1.2184696791468346e-07, 0.0, 0.0, 0.0, 1.2184696791468346e-07]",,-3.75594695,3.9618866,7.1588545,"[8.999999999999999e-08, 0.0, 0.0, 0.0, 8.999999999999999e-08, 0.0, 0.0, 0.0, 8.999999999999999e-08]"
1579257394292068005,,1526,,1579257394,291896585,"""base_link""",,-0.110684811164,-0.347265539163,0.338785686215,-0.867398280321,"[1.0, 0.0, 0.0, 0.0, 1.0, 0.0, 0.0, 0.0, 1.0]",,-1.21465921402,0.215253844857,-1.0956633091,"[1.2184696791468346e-07, 0.0, 0.0, 0.0, 1.2184696791468346e-07, 0.0, 0.0, 0.0, 1.2184696791468346e-07]",,-6.2566427,0.16671305,6.6881353,"[8.999999999999999e-08, 0.0, 0.0, 0.0, 8.999999999999999e-08, 0.0, 0.0, 0.0, 8.999999999999999e-08]"
