rosbagTimestamp,header,seq,stamp,secs,nsecs,frame_id,orientation,x,y,z,w,orientation_covariance,angular_velocity,x,y,z,angular_velocity_covariance,linear_acceleration,x,y,z,linear_acceleration_covariance
1579257487449131977,,1913,,1579257487,448991428,"""base_link""",,0.0260747480991,-0.0101115346305,0.45598794779,-0.889546432655,"[1.0, 0.0, 0.0, 0.0, 1.0, 0.0, 0.0, 0.0, 1.0]",,0.00480857677758,0.000455165776657,0.00603403663263,"[1.2184696791468346e-07, 0.0, 0.0, 0.0, 1.2184696791468346e-07, 0.0, 0.0, 0.0, 1.2184696791468346e-07]",,-0.40207265,-0.24516625,9.7478101,"[8.999999999999999e-08, 0.0, 0.0, 0.0, 8.999999999999999e-08, 0.0, 0.0, 0.0, 8.999999999999999e-08]"
1579257487692435746,,1914,,1579257487,692292004,"""base_link""",,0.0256388454173,-0.0103569119279,0.455806846975,-0.889649089378,"[1.0, 0.0, 0.0, 0.0, 1.0, 0.0, 0.0, 0.0, 1.0]",,-0.00826721079648,0.00213831569999,-0.00313467625529,"[1.2184696791468346e-07, 0.0, 0.0, 0.0, 1.2184696791468346e-07, 0.0, 0.0, 0.0, 1.2184696791468346e-07]",,-0.4118793,-0.2157463,9.75761675,"[8.999999999999999e-08, 0.0, 0.0, 0.0, 8.999999999999999e-08, 0.0, 0.0, 0.0, 8.999999999999999e-08]"
1579257487944498075,,1915,,1579257487,944087864,"""base_link""",,0.0250742025198,-0.0105196457885,0.455533939612,-0.889803040724,"[1.0, 0.0, 0.0, 0.0, 1.0, 0.0, 0.0, 0.0, 1.0]",,-0.0107515733689,0.000238415348576,-0.00360620254651,"[1.2184696791468346e-07, 0.0, 0.0, 0.0, 1.2184696791468346e-07, 0.0, 0.0, 0.0, 1.2184696791468346e-07]",,-0.392266,-0.14709975,9.7870367,"[8.999999999999999e-08, 0.0, 0.0, 0.0, 8.999999999999999e-08, 0.0, 0.0, 0.0, 8.999999999999999e-08]"
1579257488175584217,,1916,,1579257488,170213922,"""base_link""",,0.0246194796554,-0.0107112716144,0.455369969758,-0.889897376401,"[1.0, 0.0, 0.0, 0.0, 1.0, 0.0, 0.0, 0.0, 1.0]",,0.00257470086217,-0.0014826230472,0.0027809496969,"[1.2184696791468346e-07, 0.0, 0.0, 0.0, 1.2184696791468346e-07, 0.0, 0.0, 0.0, 1.2184696791468346e-07]",,-0.392266,-0.12748645,9.79684335,"[8.999999999999999e-08, 0.0, 0.0, 0.0, 8.999999999999999e-08, 0.0, 0.0, 0.0, 8.999999999999999e-08]"
1579257488416535781,,1917,,1579257488,416370001,"""base_link""",,0.0243828921086,-0.0109392791459,0.455525615473,-0.889821454221,"[1.0, 0.0, 0.0, 0.0, 1.0, 0.0, 0.0, 0.0, 1.0]",,0.0188634246588,-0.00291156792082,-0.0155804324895,"[1.2184696791468346e-07, 0.0, 0.0, 0.0, 1.2184696791468346e-07, 0.0, 0.0, 0.0, 1.2184696791468346e-07]",,-0.50013915,-0.02941995,9.6693569,"[8.999999999999999e-08, 0.0, 0.0, 0.0, 8.999999999999999e-08, 0.0, 0.0, 0.0, 8.999999999999999e-08]"
1579257488658761190,,1918,,1579257488,658359433,"""base_link""",,0.0243001814953,-0.00987977967821,0.455729311656,-0.889731805451,"[1.0, 0.0, 0.0, 0.0, 1.0, 0.0, 0.0, 0.0, 1.0]",,0.143338650465,0.0213236138225,0.117850273848,"[1.2184696791468346e-07, 0.0, 0.0, 0.0, 1.2184696791468346e-07, 0.0, 0.0, 0.0, 1.2184696791468346e-07]",,-0.7256921,-0.57859235,9.71839015,"[8.999999999999999e-08, 0.0, 0.0, 0.0, 8.999999999999999e-08, 0.0, 0.0, 0.0, 8.999999999999999e-08]"
1579257488902534903,,1919,,1579257488,902368873,"""base_link""",,-0.00629340240866,0.0380825108261,0.427628970869,-0.903129879214,"[1.0, 0.0, 0.0, 0.0, 1.0, 0.0, 0.0, 0.0, 1.0]",,1.06614875793,-0.761862754822,0.809160113335,"[1.2184696791468346e-07, 0.0, 0.0, 0.0, 1.2184696791468346e-07, 0.0, 0.0, 0.0, 1.2184696791468346e-07]",,-0.51975245,2.57914895,12.32695905,"[8.999999999999999e-08, 0.0, 0.0, 0.0, 8.999999999999999e-08, 0.0, 0.0, 0.0, 8.999999999999999e-08]"
1579257489137896422,,1920,,1579257489,137570667,"""base_link""",,-0.0724928977417,0.232649318397,0.251381573922,-0.936710402803,"[1.0, 0.0, 0.0, 0.0, 1.0, 0.0, 0.0, 0.0, 1.0]",,0.476791918278,-0.958055138588,1.85360479355,"[1.2184696791468346e-07, 0.0, 0.0, 0.0, 1.2184696791468346e-07, 0.0, 0.0, 0.0, 1.2184696791468346e-07]",,1.87307015,2.42224255,9.95374975,"[8.999999999999999e-08, 0.0, 0.0, 0.0, 8.999999999999999e-08, 0.0, 0.0, 0.0, 8.999999999999999e-08]"
1579257489378357932,,1921,,1579257489,378232367,"""base_link""",,-0.072524454215,0.298714820728,0.13094634258,-0.942529954316,"[1.0, 0.0, 0.0, 0.0, 1.0, 0.0, 0.0, 0.0, 1.0]",,0.92533570528,0.165452361107,-0.0500051602721,"[1.2184696791468346e-07, 0.0, 0.0, 0.0, 1.2184696791468346e-07, 0.0, 0.0, 0.0, 1.2184696791468346e-07]",,4.95235825,1.9221034,7.54131385,"[8.999999999999999e-08, 0.0, 0.0, 0.0, 8.999999999999999e-08, 0.0, 0.0, 0.0, 8.999999999999999e-08]"
1579257489622573022,,1922,,1579257489,622436911,"""base_link""",,-0.219617641955,0.198203496786,0.215079767251,-0.930711641124,"[1.0, 0.0, 0.0, 0.0, 1.0, 0.0, 0.0, 0.0, 1.0]",,0.193455740809,0.995853960514,-1.65838479996,"[1.2184696791468346e-07, 0.0, 0.0, 0.0, 1.2184696791468346e-07, 0.0, 0.0, 0.0, 1.2184696791468346e-07]",,4.0403398,4.1776329,6.8058151,"[8.999999999999999e-08, 0.0, 0.0, 0.0, 8.999999999999999e-08, 0.0, 0.0, 0.0, 8.999999999999999e-08]"
1579257489857149089,,1923,,1579257489,856830206,"""base_link""",,-0.285665639327,0.00986639005991,0.394668470605,-0.873232268738,"[1.0, 0.0, 0.0, 0.0, 1.0, 0.0, 0.0, 0.0, 1.0]",,-0.0197929311544,0.747315406799,-2.10959267616,"[1.2184696791468346e-07, 0.0, 0.0, 0.0, 1.2184696791468346e-07, 0.0, 0.0, 0.0, 1.2184696791468346e-07]",,0.10787315,4.56009225,6.864655,"[8.999999999999999e-08, 0.0, 0.0, 0.0, 8.999999999999999e-08, 0.0, 0.0, 0.0, 8.999999999999999e-08]"
1579257490092760180,,1924,,1579257490,92519466,"""base_link""",,-0.204193362622,-0.100074344297,0.558333179446,-0.797843504081,"[1.0, 0.0, 0.0, 0.0, 1.0, 0.0, 0.0, 0.0, 1.0]",,-1.27540969849,-0.720217466354,-1.06634831429,"[1.2184696791468346e-07, 0.0, 0.0, 0.0, 1.2184696791468346e-07, 0.0, 0.0, 0.0, 1.2184696791468346e-07]",,-4.03053315,2.85373515,8.26700595,"[8.999999999999999e-08, 0.0, 0.0, 0.0, 8.999999999999999e-08, 0.0, 0.0, 0.0, 8.999999999999999e-08]"
1579257490335816438,,1925,,1579257490,335664167,"""base_link""",,-0.0122565055838,-0.0662610367169,0.593614010262,-0.801923724493,"[1.0, 0.0, 0.0, 0.0, 1.0, 0.0, 0.0, 0.0, 1.0]",,-0.544336676598,-1.56503522396,0.180765375495,"[1.2184696791468346e-07, 0.0, 0.0, 0.0, 1.2184696791468346e-07, 0.0, 0.0, 0.0, 1.2184696791468346e-07]",,-2.40262925,-0.46091255,9.6497436,"[8.999999999999999e-08, 0.0, 0.0, 0.0, 8.999999999999999e-08, 0.0, 0.0, 0.0, 8.999999999999999e-08]"
1579257490581630460,,1926,,1579257490,581291199,"""base_link""",,0.0969812315508,0.103966381323,0.556234976656,-0.818772424442,"[1.0, 0.0, 0.0, 0.0, 1.0, 0.0, 0.0, 0.0, 1.0]",,0.629405319691,-1.67099428177,0.357330083847,"[1.2184696791468346e-07, 0.0, 0.0, 0.0, 1.2184696791468346e-07, 0.0, 0.0, 0.0, 1.2184696791468346e-07]",,1.8436502,-0.48052585,10.18910935,"[8.999999999999999e-08, 0.0, 0.0, 0.0, 8.999999999999999e-08, 0.0, 0.0, 0.0, 8.999999999999999e-08]"
1579257490817664767,,1927,,1579257490,817578475,"""base_link""",,0.022168554796,0.2855943213,0.486195226602,-0.825565648782,"[1.0, 0.0, 0.0, 0.0, 1.0, 0.0, 0.0, 0.0, 1.0]",,2.17451357841,0.0128493169323,-0.0496186539531,"[1.2184696791468346e-07, 0.0, 0.0, 0.0, 1.2184696791468346e-07, 0.0, 0.0, 0.0, 1.2184696791468346e-07]",,4.85429175,3.4715541,9.79684335,"[8.999999999999999e-08, 0.0, 0.0, 0.0, 8.999999999999999e-08, 0.0, 0.0, 0.0, 8.999999999999999e-08]"
1579257491062986038,,1928,,1579257491,62851018,"""base_link""",,-0.32810231102,0.304382357481,0.448664588072,-0.773563404879,"[1.0, 0.0, 0.0, 0.0, 1.0, 0.0, 0.0, 0.0, 1.0]",,2.72265815735,1.52162253857,-1.65401244164,"[1.2184696791468346e-07, 0.0, 0.0, 0.0, 1.2184696791468346e-07, 0.0, 0.0, 0.0, 1.2184696791468346e-07]",,-0.1765197,6.79600845,5.88399,"[8.999999999999999e-08, 0.0, 0.0, 0.0, 8.999999999999999e-08, 0.0, 0.0, 0.0, 8.999999999999999e-08]"
1579257491309118479,,1929,,1579257491,308717151,"""base_link""",,-0.534845793936,0.223953495174,0.48226397054,-0.656662981617,"[1.0, 0.0, 0.0, 0.0, 1.0, 0.0, 0.0, 0.0, 1.0]",,-0.012204663828,0.746449649334,-1.22428023815,"[1.2184696791468346e-07, 0.0, 0.0, 0.0, 1.2184696791468346e-07, 0.0, 0.0, 0.0, 1.2184696791468346e-07]",,-0.1765197,8.42391235,3.0989014,"[8.999999999999999e-08, 0.0, 0.0, 0.0, 8.999999999999999e-08, 0.0, 0.0, 0.0, 8.999999999999999e-08]"
1579257491548458706,,1930,,1579257491,548314823,"""base_link""",,-0.594679945877,0.0637711562551,0.522176395133,-0.607964484133,"[1.0, 0.0, 0.0, 0.0, 1.0, 0.0, 0.0, 0.0, 1.0]",,-0.0603028088808,0.812841892242,-1.23020792007,"[1.2184696791468346e-07, 0.0, 0.0, 0.0, 1.2184696791468346e-07, 0.0, 0.0, 0.0, 1.2184696791468346e-07]",,-4.26589275,7.9826131,2.99102825,"[8.999999999999999e-08, 0.0, 0.0, 0.0, 8.999999999999999e-08, 0.0, 0.0, 0.0, 8.999999999999999e-08]"
1579257491793008139,,1931,,1579257491,792838878,"""base_link""",,-0.618018197629,-0.0587366384346,0.557258892416,-0.551421836282,"[1.0, 0.0, 0.0, 0.0, 1.0, 0.0, 0.0, 0.0, 1.0]",,-0.437537431717,0.220372036099,-0.867694735527,"[1.2184696791468346e-07, 0.0, 0.0, 0.0, 1.2184696791468346e-07, 0.0, 0.0, 0.0, 1.2184696791468346e-07]",,-8.1395195,5.81534345,1.22583125,"[8.999999999999999e-08, 0.0, 0.0, 0.0, 8.999999999999999e-08, 0.0, 0.0, 0.0, 8.999999999999999e-08]"
1579257492026964328,,1932,,1579257492,26512306,"""base_link""",,-0.599255373346,-0.15207075408,0.573273052217,-0.53770390632,"[1.0, 0.0, 0.0, 0.0, 1.0, 0.0, 0.0, 0.0, 1.0]",,-0.308703124523,0.299242734909,-0.417679280043,"[1.2184696791468346e-07, 0.0, 0.0, 0.0, 1.2184696791468346e-07, 0.0, 0.0, 0.0, 1.2184696791468346e-07]",,-8.7671451,3.65788045,1.3925443,"[8.999999999999999e-08, 0.0, 0.0, 0.0, 8.999999999999999e-08, 0.0, 0.0, 0.0, 8.999999999999999e-08]"
1579257492278854363,,1933,,1579257492,278700072,"""base_link""",,-0.599530081961,-0.199215631668,0.576062942732,-0.518679379707,"[1.0, 0.0, 0.0, 0.0, 1.0, 0.0, 0.0, 0.0, 1.0]",,-0.0431139953434,0.174630269408,-0.348401129246,"[1.2184696791468346e-07, 0.0, 0.0, 0.0, 1.2184696791468346e-07, 0.0, 0.0, 0.0, 1.2184696791468346e-07]",,-9.28689755,3.06948145,1.38273765,"[8.999999999999999e-08, 0.0, 0.0, 0.0, 8.999999999999999e-08, 0.0, 0.0, 0.0, 8.999999999999999e-08]"
1579257492512133560,,1934,,1579257492,511984276,"""base_link""",,-0.614043891839,-0.240089616436,0.572839223662,-0.48699311988,"[1.0, 0.0, 0.0, 0.0, 1.0, 0.0, 0.0, 0.0, 1.0]",,0.0379720702767,0.313378423452,-0.27456009388,"[1.2184696791468346e-07, 0.0, 0.0, 0.0, 1.2184696791468346e-07, 0.0, 0.0, 0.0, 1.2184696791468346e-07]",,-9.11037785,2.5693423,0.7060788,"[8.999999999999999e-08, 0.0, 0.0, 0.0, 8.999999999999999e-08, 0.0, 0.0, 0.0, 8.999999999999999e-08]"
1579257492747749501,,1935,,1579257492,747362485,"""base_link""",,-0.63480798215,-0.285203952897,0.540887909966,-0.47235346924,"[1.0, 0.0, 0.0, 0.0, 1.0, 0.0, 0.0, 0.0, 1.0]",,-0.333409070969,0.599661946297,-0.138645455241,"[1.2184696791468346e-07, 0.0, 0.0, 0.0, 1.2184696791468346e-07, 0.0, 0.0, 0.0, 1.2184696791468346e-07]",,-9.30651085,2.34378935,0.0784532,"[8.999999999999999e-08, 0.0, 0.0, 0.0, 8.999999999999999e-08, 0.0, 0.0, 0.0, 8.999999999999999e-08]"
1579257492993399181,,1936,,1579257492,993246873,"""base_link""",,-0.641001485899,-0.358830570485,0.506147885077,-0.451853997651,"[1.0, 0.0, 0.0, 0.0, 1.0, 0.0, 0.0, 0.0, 1.0]",,-0.190664872527,0.322038710117,-0.482653796673,"[1.2184696791468346e-07, 0.0, 0.0, 0.0, 1.2184696791468346e-07, 0.0, 0.0, 0.0, 1.2184696791468346e-07]",,-9.65955025,1.40235095,-0.67665885,"[8.999999999999999e-08, 0.0, 0.0, 0.0, 8.999999999999999e-08, 0.0, 0.0, 0.0, 8.999999999999999e-08]"
1579257493234810984,,1937,,1579257493,234669752,"""base_link""",,-0.617802449372,-0.458305170641,0.497141252306,-0.401406376842,"[1.0, 0.0, 0.0, 0.0, 1.0, 0.0, 0.0, 0.0, 1.0]",,-0.479992508888,0.0979181006551,-0.945090711117,"[1.2184696791468346e-07, 0.0, 0.0, 0.0, 1.2184696791468346e-07, 0.0, 0.0, 0.0, 1.2184696791468346e-07]",,-9.3163175,0.5687857,-1.4121576,"[8.999999999999999e-08, 0.0, 0.0, 0.0, 8.999999999999999e-08, 0.0, 0.0, 0.0, 8.999999999999999e-08]"
1579257493468456414,,1938,,1579257493,468125035,"""base_link""",,0.485336875884,0.599888276076,-0.523737752296,0.360944510908,"[1.0, 0.0, 0.0, 0.0, 1.0, 0.0, 0.0, 0.0, 1.0]",,-1.15342700481,-0.389899671078,-1.73498642445,"[1.2184696791468346e-07, 0.0, 0.0, 0.0, 1.2184696791468346e-07, 0.0, 0.0, 0.0, 1.2184696791468346e-07]",,-9.2770909,-2.44185585,-0.9610517,"[8.999999999999999e-08, 0.0, 0.0, 0.0, 8.999999999999999e-08, 0.0, 0.0, 0.0, 8.999999999999999e-08]"
1579257493706998882,,1939,,1579257493,706810455,"""base_link""",,0.255133175381,0.700629008526,-0.545066322157,0.383312874401,"[1.0, 0.0, 0.0, 0.0, 1.0, 0.0, 0.0, 0.0, 1.0]",,-0.708320081234,-1.3197157383,-0.962771236897,"[1.2184696791468346e-07, 0.0, 0.0, 0.0, 1.2184696791468346e-07, 0.0, 0.0, 0.0, 1.2184696791468346e-07]",,-8.4141057,-5.0602314,-0.5491724,"[8.999999999999999e-08, 0.0, 0.0, 0.0, 8.999999999999999e-08, 0.0, 0.0, 0.0, 8.999999999999999e-08]"
1579257493960890601,,1940,,1579257493,960744475,"""base_link""",,0.0669946510613,0.566752841344,-0.641707149496,0.512362047622,"[1.0, 0.0, 0.0, 0.0, 1.0, 0.0, 0.0, 0.0, 1.0]",,0.902731716633,-2.92521929741,-0.145963609219,"[1.2184696791468346e-07, 0.0, 0.0, 0.0, 1.2184696791468346e-07, 0.0, 0.0, 0.0, 1.2184696791468346e-07]",,-8.32584585,-6.71755525,4.54047895,"[8.999999999999999e-08, 0.0, 0.0, 0.0, 8.999999999999999e-08, 0.0, 0.0, 0.0, 8.999999999999999e-08]"
1579257494188627947,,1941,,1579257494,188241135,"""base_link""",,0.087101222358,-0.259566153811,0.644715466078,-0.713709154109,"[1.0, 0.0, 0.0, 0.0, 1.0, 0.0, 0.0, 0.0, 1.0]",,1.12642598152,-2.66118264198,1.15836548805,"[1.2184696791468346e-07, 0.0, 0.0, 0.0, 1.2184696791468346e-07, 0.0, 0.0, 0.0, 1.2184696791468346e-07]",,-5.3152043,-4.4718324,7.5118939,"[8.999999999999999e-08, 0.0, 0.0, 0.0, 8.999999999999999e-08, 0.0, 0.0, 0.0, 8.999999999999999e-08]"
1579257494443149696,,1942,,1579257494,442972409,"""base_link""",,0.115863695291,0.117833116605,0.505543064061,-0.846827710414,"[1.0, 0.0, 0.0, 0.0, 1.0, 0.0, 0.0, 0.0, 1.0]",,1.79434645176,-2.19867801666,1.61023879051,"[1.2184696791468346e-07, 0.0, 0.0, 0.0, 1.2184696791468346e-07, 0.0, 0.0, 0.0, 1.2184696791468346e-07]",,3.530394,-0.784532,8.91424485,"[8.999999999999999e-08, 0.0, 0.0, 0.0, 8.999999999999999e-08, 0.0, 0.0, 0.0, 8.999999999999999e-08]"
1579257494674989688,,1943,,1579257494,674834286,"""base_link""",,-0.0481704893245,0.125870370412,0.350185549148,-0.926933835276,"[1.0, 0.0, 0.0, 0.0, 1.0, 0.0, 0.0, 0.0, 1.0]",,0.0776789262891,1.7975859642,-0.82926094532,"[1.2184696791468346e-07, 0.0, 0.0, 0.0, 1.2184696791468346e-07, 0.0, 0.0, 0.0, 1.2184696791468346e-07]",,0.28439285,2.353596,8.97308475,"[8.999999999999999e-08, 0.0, 0.0, 0.0, 8.999999999999999e-08, 0.0, 0.0, 0.0, 8.999999999999999e-08]"
1579257494923038233,,1944,,1579257494,922634996,"""base_link""",,-0.20105742687,-0.166905057575,0.436691198675,-0.860824842727,"[1.0, 0.0, 0.0, 0.0, 1.0, 0.0, 0.0, 0.0, 1.0]",,0.390972882509,2.56249713898,-1.29597151279,"[1.2184696791468346e-07, 0.0, 0.0, 0.0, 1.2184696791468346e-07, 0.0, 0.0, 0.0, 1.2184696791468346e-07]",,-3.99130655,1.95152335,7.54131385,"[8.999999999999999e-08, 0.0, 0.0, 0.0, 8.999999999999999e-08, 0.0, 0.0, 0.0, 8.999999999999999e-08]"
1579257495153424184,,1945,,1579257495,153246759,"""base_link""",,-0.212451701986,-0.403112636585,0.533192320408,-0.712790590571,"[1.0, 0.0, 0.0, 0.0, 1.0, 0.0, 0.0, 0.0, 1.0]",,-1.07957243919,1.06459641457,-2.12200474739,"[1.2184696791468346e-07, 0.0, 0.0, 0.0, 1.2184696791468346e-07, 0.0, 0.0, 0.0, 1.2184696791468346e-07]",,-7.7080269,-0.75511205,6.2174161,"[8.999999999999999e-08, 0.0, 0.0, 0.0, 8.999999999999999e-08, 0.0, 0.0, 0.0, 8.999999999999999e-08]"
1579257495388799984,,1946,,1579257495,388648216,"""base_link""",,-0.0581777425233,0.508794377088,-0.578299528592,0.635069513793,"[1.0, 0.0, 0.0, 0.0, 1.0, 0.0, 0.0, 0.0, 1.0]",,-1.34277439117,-1.80051910877,-1.01497220993,"[1.2184696791468346e-07, 0.0, 0.0, 0.0, 1.2184696791468346e-07, 0.0, 0.0, 0.0, 1.2184696791468346e-07]",,-7.8257067,-4.95235825,3.7069137,"[8.999999999999999e-08, 0.0, 0.0, 0.0, 8.999999999999999e-08, 0.0, 0.0, 0.0, 8.999999999999999e-08]"
1579257495629341966,,1947,,1579257495,628984858,"""base_link""",,0.23111638193,-0.306133572176,0.599521050175,-0.702454243625,"[1.0, 0.0, 0.0, 0.0, 1.0, 0.0, 0.0, 0.0, 1.0]",,1.53275680542,-2.67406415939,-0.347665548325,"[1.2184696791468346e-07, 0.0, 0.0, 0.0, 1.2184696791468346e-07, 0.0, 0.0, 0.0, 1.2184696791468346e-07]",,-2.4516625,-8.83579165,7.060788,"[8.999999999999999e-08, 0.0, 0.0, 0.0, 8.999999999999999e-08, 0.0, 0.0, 0.0, 8.999999999999999e-08]"
1579257495880891682,,1948,,1579257495,880700189,"""base_link""",,0.256390959626,0.0844104890844,0.528197344589,-0.805075220289,"[1.0, 0.0, 0.0, 0.0, 1.0, 0.0, 0.0, 0.0, 1.0]",,1.7647548914,-2.34187579155,0.60055488348,"[1.2184696791468346e-07, 0.0, 0.0, 0.0, 1.2184696791468346e-07, 0.0, 0.0, 0.0, 1.2184696791468346e-07]",,4.3541526,-4.5895122,9.6889702,"[8.999999999999999e-08, 0.0, 0.0, 0.0, 8.999999999999999e-08, 0.0, 0.0, 0.0, 8.999999999999999e-08]"
1579257496116260704,,1949,,1579257496,116087188,"""base_link""",,0.188752074518,0.349560764212,0.372814165281,-0.83856396575,"[1.0, 0.0, 0.0, 0.0, 1.0, 0.0, 0.0, 0.0, 1.0]",,1.74036216736,-1.24091637135,0.826597571373,"[1.2184696791468346e-07, 0.0, 0.0, 0.0, 1.2184696791468346e-07, 0.0, 0.0, 0.0, 1.2184696791468346e-07]",,7.09020795,-0.784532,7.61976705,"[8.999999999999999e-08, 0.0, 0.0, 0.0, 8.999999999999999e-08, 0.0, 0.0, 0.0, 8.999999999999999e-08]"
1579257496359645044,,1950,,1579257496,359294481,"""base_link""",,0.106053061262,0.466639795984,0.212852718701,-0.85187661615,"[1.0, 0.0, 0.0, 0.0, 1.0, 0.0, 0.0, 0.0, 1.0]",,1.25433456898,-0.176551863551,0.721239507198,"[1.2184696791468346e-07, 0.0, 0.0, 0.0, 1.2184696791468346e-07, 0.0, 0.0, 0.0, 1.2184696791468346e-07]",,7.67860695,0.40207265,6.4920023,"[8.999999999999999e-08, 0.0, 0.0, 0.0, 8.999999999999999e-08, 0.0, 0.0, 0.0, 8.999999999999999e-08]"
1579257496606307401,,1951,,1579257496,606128821,"""base_link""",,0.0836603457326,0.398820048227,0.0795611439719,-0.90973267505,"[1.0, 0.0, 0.0, 0.0, 1.0, 0.0, 0.0, 0.0, 1.0]",,-0.0243220627308,1.19441151619,1.61129546165,"[1.2184696791468346e-07, 0.0, 0.0, 0.0, 1.2184696791468346e-07, 0.0, 0.0, 0.0, 1.2184696791468346e-07]",,6.59987545,0.3530394,5.9428299,"[8.999999999999999e-08, 0.0, 0.0, 0.0, 8.999999999999999e-08, 0.0, 0.0, 0.0, 8.999999999999999e-08]"
1579257496846550946,,1952,,1579257496,846406048,"""base_link""",,0.176248018207,0.214539140601,-0.109450463523,-0.954426628538,"[1.0, 0.0, 0.0, 0.0, 1.0, 0.0, 0.0, 0.0, 1.0]",,-0.0770816579461,1.60843348503,1.69619512558,"[1.2184696791468346e-07, 0.0, 0.0, 0.0, 1.2184696791468346e-07, 0.0, 0.0, 0.0, 1.2184696791468346e-07]",,4.06975975,-1.9221034,6.65871535,"[8.999999999999999e-08, 0.0, 0.0, 0.0, 8.999999999999999e-08, 0.0, 0.0, 0.0, 8.999999999999999e-08]"
1579257497084256421,,1953,,1579257497,83859302,"""base_link""",,0.155361906848,-0.0288761072605,-0.200301325839,-0.966906524539,"[1.0, 0.0, 0.0, 0.0, 1.0, 0.0, 0.0, 0.0, 1.0]",,1.06899476051,1.89606451988,0.543040692806,"[1.2184696791468346e-07, 0.0, 0.0, 0.0, 1.2184696791468346e-07, 0.0, 0.0, 0.0, 1.2184696791468346e-07]",,-1.55925735,-3.4127142,8.63965865,"[8.999999999999999e-08, 0.0, 0.0, 0.0, 8.999999999999999e-08, 0.0, 0.0, 0.0, 8.999999999999999e-08]"
1579257497327707585,,1954,,1579257497,327553179,"""base_link""",,0.0594110920249,-0.242653759615,-0.177272253873,-0.951926479879,"[1.0, 0.0, 0.0, 0.0, 1.0, 0.0, 0.0, 0.0, 1.0]",,1.331417799,1.38133716583,-0.372079581022,"[1.2184696791468346e-07, 0.0, 0.0, 0.0, 1.2184696791468346e-07, 0.0, 0.0, 0.0, 1.2184696791468346e-07]",,-5.52114395,-1.1179581,8.24739265,"[8.999999999999999e-08, 0.0, 0.0, 0.0, 8.999999999999999e-08, 0.0, 0.0, 0.0, 8.999999999999999e-08]"
1579257497574244404,,1955,,1579257497,574075727,"""base_link""",,-0.0596081171794,-0.386533404005,-0.0438207884268,-0.919303289702,"[1.0, 0.0, 0.0, 0.0, 1.0, 0.0, 0.0, 0.0, 1.0]",,1.5043913126,0.802543222904,-0.78580981493,"[1.2184696791468346e-07, 0.0, 0.0, 0.0, 1.2184696791468346e-07, 0.0, 0.0, 0.0, 1.2184696791468346e-07]",,-7.63938035,1.2552512,6.7862018,"[8.999999999999999e-08, 0.0, 0.0, 0.0, 8.999999999999999e-08, 0.0, 0.0, 0.0, 8.999999999999999e-08]"
1579257497810585998,,1956,,1579257497,810273430,"""base_link""",,-0.172359262333,-0.462584082306,0.0833667169024,-0.865654805334,"[1.0, 0.0, 0.0, 0.0, 1.0, 0.0, 0.0, 0.0, 1.0]",,0.790501594543,0.609353601933,-0.635490775108,"[1.2184696791468346e-07, 0.0, 0.0, 0.0, 1.2184696791468346e-07, 0.0, 0.0, 0.0, 1.2184696791468346e-07]",,-8.3748791,2.87334845,4.7268053,"[8.999999999999999e-08, 0.0, 0.0, 0.0, 8.999999999999999e-08, 0.0, 0.0, 0.0, 8.999999999999999e-08]"
1579257498041557744,,1957,,1579257498,41465160,"""base_link""",,-0.163001134701,-0.551668183082,0.128185801265,-0.807874523806,"[1.0, 0.0, 0.0, 0.0, 1.0, 0.0, 0.0, 0.0, 1.0]",,-0.0809610188007,0.886488676071,-0.384920179844,"[1.2184696791468346e-07, 0.0, 0.0, 0.0, 1.2184696791468346e-07, 0.0, 0.0, 0.0, 1.2184696791468346e-07]",,-8.9240515,0.97085835,2.36340265,"[8.999999999999999e-08, 0.0, 0.0, 0.0, 8.999999999999999e-08, 0.0, 0.0, 0.0, 8.999999999999999e-08]"
1579257498285035518,,1958,,1579257498,284873501,"""base_link""",,-0.140024911094,-0.645451682993,0.148860830202,-0.735952174007,"[1.0, 0.0, 0.0, 0.0, 1.0, 0.0, 0.0, 0.0, 1.0]",,0.280173152685,0.806841373444,-0.442588627338,"[1.2184696791468346e-07, 0.0, 0.0, 0.0, 1.2184696791468346e-07, 0.0, 0.0, 0.0, 1.2184696791468346e-07]",,-9.73800345,-0.1176798,0.50013915,"[8.999999999999999e-08, 0.0, 0.0, 0.0, 8.999999999999999e-08, 0.0, 0.0, 0.0, 8.999999999999999e-08]"
1579257498523953570,,1959,,1579257498,523597705,"""base_link""",,0.139167821346,0.737356133705,-0.181289250701,0.635666938868,"[1.0, 0.0, 0.0, 0.0, 1.0, 0.0, 0.0, 0.0, 1.0]",,0.00840008538216,0.481260538101,-0.0945679545403,"[1.2184696791468346e-07, 0.0, 0.0, 0.0, 1.2184696791468346e-07, 0.0, 0.0, 0.0, 1.2184696791468346e-07]",,-9.9635564,-0.69627215,-1.3337044,"[8.999999999999999e-08, 0.0, 0.0, 0.0, 8.999999999999999e-08, 0.0, 0.0, 0.0, 8.999999999999999e-08]"
1579257498778600425,,1960,,1579257498,778421483,"""base_link""",,0.12796258567,0.792216137336,-0.176897582474,0.569847710997,"[1.0, 0.0, 0.0, 0.0, 1.0, 0.0, 0.0, 0.0, 1.0]",,-0.272332012653,0.668846547604,-0.356498777866,"[1.2184696791468346e-07, 0.0, 0.0, 0.0, 1.2184696791468346e-07, 0.0, 0.0, 0.0, 1.2184696791468346e-07]",,-9.26728425,-1.1179581,-2.5105024,"[8.999999999999999e-08, 0.0, 0.0, 0.0, 8.999999999999999e-08, 0.0, 0.0, 0.0, 8.999999999999999e-08]"
1579257499002034827,,1961,,1579257499,1897688,"""base_link""",,0.103060834679,0.833565342462,-0.152435248275,0.520875013113,"[1.0, 0.0, 0.0, 0.0, 1.0, 0.0, 0.0, 0.0, 1.0]",,-0.130191504955,0.52835637331,-0.153383851051,"[1.2184696791468346e-07, 0.0, 0.0, 0.0, 1.2184696791468346e-07, 0.0, 0.0, 0.0, 1.2184696791468346e-07]",,-8.8063717,-1.6867438,-3.8049802,"[8.999999999999999e-08, 0.0, 0.0, 0.0, 8.999999999999999e-08, 0.0, 0.0, 0.0, 8.999999999999999e-08]"
1579257499246286268,,1962,,1579257499,245865149,"""base_link""",,0.0953364896318,0.869989710736,-0.134361676151,0.464731962469,"[1.0, 0.0, 0.0, 0.0, 1.0, 0.0, 0.0, 0.0, 1.0]",,-0.25459203124,0.507352769375,-0.0786825567484,"[1.2184696791468346e-07, 0.0, 0.0, 0.0, 1.2184696791468346e-07, 0.0, 0.0, 0.0, 1.2184696791468346e-07]",,-8.237586,-1.44157755,-4.73661195,"[8.999999999999999e-08, 0.0, 0.0, 0.0, 8.999999999999999e-08, 0.0, 0.0, 0.0, 8.999999999999999e-08]"
1579257499487603247,,1963,,1579257499,487431680,"""base_link""",,0.0668852383677,0.902440073606,-0.0955818956021,0.414719639843,"[1.0, 0.0, 0.0, 0.0, 1.0, 0.0, 0.0, 0.0, 1.0]",,-0.470108658075,0.443905115128,-0.176388055086,"[1.2184696791468346e-07, 0.0, 0.0, 0.0, 1.2184696791468346e-07, 0.0, 0.0, 0.0, 1.2184696791468346e-07]",,-7.54131385,-1.2552512,-5.83495675,"[8.999999999999999e-08, 0.0, 0.0, 0.0, 8.999999999999999e-08, 0.0, 0.0, 0.0, 8.999999999999999e-08]"
1579257499735847628,,1964,,1579257499,735681722,"""base_link""",,0.0402789378225,0.930701445504,-0.0418035801114,0.361143859416,"[1.0, 0.0, 0.0, 0.0, 1.0, 0.0, 0.0, 0.0, 1.0]",,-0.446834772825,0.540812313557,-0.00366865191609,"[1.2184696791468346e-07, 0.0, 0.0, 0.0, 1.2184696791468346e-07, 0.0, 0.0, 0.0, 1.2184696791468346e-07]",,-6.7273619,-0.6864655,-7.0215614,"[8.999999999999999e-08, 0.0, 0.0, 0.0, 8.999999999999999e-08, 0.0, 0.0, 0.0, 8.999999999999999e-08]"
1579257499977430184,,1965,,1579257499,977122502,"""base_link""",,-0.0373729123204,-0.951451979719,-0.0240375956676,-0.304572798699,"[1.0, 0.0, 0.0, 0.0, 1.0, 0.0, 0.0, 0.0, 1.0]",,-0.492771238089,0.39911159873,0.242843717337,"[1.2184696791468346e-07, 0.0, 0.0, 0.0, 1.2184696791468346e-07, 0.0, 0.0, 0.0, 1.2184696791468346e-07]",,-6.30567595,-0.02941995,-7.7864801,"[8.999999999999999e-08, 0.0, 0.0, 0.0, 8.999999999999999e-08, 0.0, 0.0, 0.0, 8.999999999999999e-08]"
1579257500238105738,,1966,,1579257500,237937038,"""base_link""",,-0.0599178970098,-0.956403745924,-0.0754311899104,-0.275702477299,"[1.0, 0.0, 0.0, 0.0, 1.0, 0.0, 0.0, 0.0, 1.0]",,-0.182278081775,0.167083889246,0.293275266886,"[1.2184696791468346e-07, 0.0, 0.0, 0.0, 1.2184696791468346e-07, 0.0, 0.0, 0.0, 1.2184696791468346e-07]",,-5.52114395,1.20621795,-8.22777935,"[8.999999999999999e-08, 0.0, 0.0, 0.0, 8.999999999999999e-08, 0.0, 0.0, 0.0, 8.999999999999999e-08]"
1579257500454245710,,1967,,1579257500,454069322,"""base_link""",,-0.0831590022714,-0.955963671221,-0.107086422611,-0.260289334662,"[1.0, 0.0, 0.0, 0.0, 1.0, 0.0, 0.0, 0.0, 1.0]",,-0.211932241917,0.0535116828978,0.186109036207,"[1.2184696791468346e-07, 0.0, 0.0, 0.0, 1.2184696791468346e-07, 0.0, 0.0, 0.0, 1.2184696791468346e-07]",,-5.099458,1.93191005,-8.3552658,"[8.999999999999999e-08, 0.0, 0.0, 0.0, 8.999999999999999e-08, 0.0, 0.0, 0.0, 8.999999999999999e-08]"
1579257500697401375,,1968,,1579257500,697262883,"""base_link""",,-0.0805408539218,-0.948650250227,-0.0912100510981,-0.291987328789,"[1.0, 0.0, 0.0, 0.0, 1.0, 0.0, 0.0, 0.0, 1.0]",,0.529048740864,-0.878163695335,-0.398953765631,"[1.2184696791468346e-07, 0.0, 0.0, 0.0, 1.2184696791468346e-07, 0.0, 0.0, 0.0, 1.2184696791468346e-07]",,-6.97252815,1.5494507,-8.18855275,"[8.999999999999999e-08, 0.0, 0.0, 0.0, 8.999999999999999e-08, 0.0, 0.0, 0.0, 8.999999999999999e-08]"
1579257500933984047,,1969,,1579257500,933563007,"""base_link""",,0.067134397498,0.879034175287,-0.0758436496355,0.465875125071,"[1.0, 0.0, 0.0, 0.0, 1.0, 0.0, 0.0, 0.0, 1.0]",,1.47098875046,-2.45809984207,-0.597898304462,"[1.2184696791468346e-07, 0.0, 0.0, 0.0, 1.2184696791468346e-07, 0.0, 0.0, 0.0, 1.2184696791468346e-07]",,-9.3751574,-0.9610517,-5.87418335,"[8.999999999999999e-08, 0.0, 0.0, 0.0, 8.999999999999999e-08, 0.0, 0.0, 0.0, 8.999999999999999e-08]"
1579257501172514135,,1970,,1579257501,172340747,"""base_link""",,-0.0216647474819,-0.596676661865,0.308340905911,-0.740562951844,"[1.0, 0.0, 0.0, 0.0, 1.0, 0.0, 0.0, 0.0, 1.0]",,1.5628067255,-3.32472920418,-0.79226654768,"[1.2184696791468346e-07, 0.0, 0.0, 0.0, 1.2184696791468346e-07, 0.0, 0.0, 0.0, 1.2184696791468346e-07]",,-9.14960445,-2.04958985,-0.93163175,"[8.999999999999999e-08, 0.0, 0.0, 0.0, 8.999999999999999e-08, 0.0, 0.0, 0.0, 8.999999999999999e-08]"
1579257501407609864,,1971,,1579257501,407448143,"""base_link""",,0.00542854246989,-0.198940457956,0.438030807984,-0.876654000374,"[1.0, 0.0, 0.0, 0.0, 1.0, 0.0, 0.0, 0.0, 1.0]",,1.402354002,-3.57233834267,0.0128798112273,"[1.2184696791468346e-07, 0.0, 0.0, 0.0, 1.2184696791468346e-07, 0.0, 0.0, 0.0, 1.2184696791468346e-07]",,-5.77611685,-2.48108245,6.4135491,"[8.999999999999999e-08, 0.0, 0.0, 0.0, 8.999999999999999e-08, 0.0, 0.0, 0.0, 8.999999999999999e-08]"
1579257501657602320,,1972,,1579257501,657291213,"""base_link""",,0.0906373314175,0.293220172983,0.37163721289,-0.876180681312,"[1.0, 0.0, 0.0, 0.0, 1.0, 0.0, 0.0, 0.0, 1.0]",,0.843092978001,-3.70084095001,0.956864953041,"[1.2184696791468346e-07, 0.0, 0.0, 0.0, 1.2184696791468346e-07, 0.0, 0.0, 0.0, 1.2184696791468346e-07]",,4.36395925,0.5099458,6.89407495,"[8.999999999999999e-08, 0.0, 0.0, 0.0, 8.999999999999999e-08, 0.0, 0.0, 0.0, 8.999999999999999e-08]"
1579257501902687516,,1973,,1579257501,902556010,"""base_link""",,0.254621908448,0.469005219012,0.221266144417,-0.816237147901,"[1.0, 0.0, 0.0, 0.0, 1.0, 0.0, 0.0, 0.0, 1.0]",,-0.349745362997,-1.02155101299,1.67831397057,"[1.2184696791468346e-07, 0.0, 0.0, 0.0, 1.2184696791468346e-07, 0.0, 0.0, 0.0, 1.2184696791468346e-07]",,9.0417313,-1.9221034,5.22694445,"[8.999999999999999e-08, 0.0, 0.0, 0.0, 8.999999999999999e-08, 0.0, 0.0, 0.0, 8.999999999999999e-08]"
1579257502145245349,,1974,,1579257502,145068242,"""base_link""",,0.320153561804,0.563181881699,0.151277330596,-0.746621078083,"[1.0, 0.0, 0.0, 0.0, 1.0, 0.0, 0.0, 0.0, 1.0]",,0.613259077072,-1.25287246704,-0.271454691887,"[1.2184696791468346e-07, 0.0, 0.0, 0.0, 1.2184696791468346e-07, 0.0, 0.0, 0.0, 1.2184696791468346e-07]",,10.8069283,-5.05042475,0.2745862,"[8.999999999999999e-08, 0.0, 0.0, 0.0, 8.999999999999999e-08, 0.0, 0.0, 0.0, 8.999999999999999e-08]"
1579257502380066037,,1975,,1579257502,379674603,"""base_link""",,0.258114598937,0.613367196536,0.12826181303,-0.735327439545,"[1.0, 0.0, 0.0, 0.0, 1.0, 0.0, 0.0, 0.0, 1.0]",,0.109634406865,0.327682971954,-0.164061844349,"[1.2184696791468346e-07, 0.0, 0.0, 0.0, 1.2184696791468346e-07, 0.0, 0.0, 0.0, 1.2184696791468346e-07]",,9.75761675,-3.10870805,1.79461695,"[8.999999999999999e-08, 0.0, 0.0, 0.0, 8.999999999999999e-08, 0.0, 0.0, 0.0, 8.999999999999999e-08]"
1579257502618402480,,1976,,1579257502,618208509,"""base_link""",,0.238906422103,0.598108968448,0.158356447949,-0.748406720129,"[1.0, 0.0, 0.0, 0.0, 1.0, 0.0, 0.0, 0.0, 1.0]",,-0.293988317251,0.173832759261,-0.711921811104,"[1.2184696791468346e-07, 0.0, 0.0, 0.0, 1.2184696791468346e-07, 0.0, 0.0, 0.0, 1.2184696791468346e-07]",,9.52225715,-1.8632635,3.26561445,"[8.999999999999999e-08, 0.0, 0.0, 0.0, 8.999999999999999e-08, 0.0, 0.0, 0.0, 8.999999999999999e-08]"
1579257502869781077,,1977,,1579257502,869618494,"""base_link""",,0.234583848864,0.637947334084,0.233284060573,-0.695393531656,"[1.0, 0.0, 0.0, 0.0, 1.0, 0.0, 0.0, 0.0, 1.0]",,-0.316624492407,-0.859236896038,-0.513323962688,"[1.2184696791468346e-07, 0.0, 0.0, 0.0, 1.2184696791468346e-07, 0.0, 0.0, 0.0, 1.2184696791468346e-07]",,10.0812362,-0.40207265,1.2160246,"[8.999999999999999e-08, 0.0, 0.0, 0.0, 8.999999999999999e-08, 0.0, 0.0, 0.0, 8.999999999999999e-08]"
1579257503104199895,,1978,,1579257503,103912754,"""base_link""",,0.216849805363,0.695677545578,0.194700449767,-0.656582553342,"[1.0, 0.0, 0.0, 0.0, 1.0, 0.0, 0.0, 0.0, 1.0]",,0.337465196848,-0.823761940002,-0.0450977496803,"[1.2184696791468346e-07, 0.0, 0.0, 0.0, 1.2184696791468346e-07, 0.0, 0.0, 0.0, 1.2184696791468346e-07]",,8.3944924,0.61781895,-1.5298374,"[8.999999999999999e-08, 0.0, 0.0, 0.0, 8.999999999999999e-08, 0.0, 0.0, 0.0, 8.999999999999999e-08]"
1579257503349531805,,1979,,1579257503,349390028,"""base_link""",,0.185468304324,0.712506392216,0.159779451106,-0.657576365259,"[1.0, 0.0, 0.0, 0.0, 1.0, 0.0, 0.0, 0.0, 1.0]",,0.340008735657,0.508909761906,-0.271201997995,"[1.2184696791468346e-07, 0.0, 0.0, 0.0, 1.2184696791468346e-07, 0.0, 0.0, 0.0, 1.2184696791468346e-07]",,10.5519554,-1.99074995,-1.75539035,"[8.999999999999999e-08, 0.0, 0.0, 0.0, 8.999999999999999e-08, 0.0, 0.0, 0.0, 8.999999999999999e-08]"
1579257503582497467,,1980,,1579257503,582332090,"""base_link""",,0.163640506019,0.68331344408,0.169726638058,-0.691011859712,"[1.0, 0.0, 0.0, 0.0, 1.0, 0.0, 0.0, 0.0, 1.0]",,-0.216339588165,0.474303632975,-0.1724960953,"[1.2184696791468346e-07, 0.0, 0.0, 0.0, 1.2184696791468346e-07, 0.0, 0.0, 0.0, 1.2184696791468346e-07]",,10.64021525,-0.42168595,-0.196133,"[8.999999999999999e-08, 0.0, 0.0, 0.0, 8.999999999999999e-08, 0.0, 0.0, 0.0, 8.999999999999999e-08]"
1579257503819810197,,1981,,1579257503,819486982,"""base_link""",,0.163089527189,0.601032837177,0.217685172172,-0.751514803961,"[1.0, 0.0, 0.0, 0.0, 1.0, 0.0, 0.0, 0.0, 1.0]",,-0.160636678338,1.68389856815,-0.490657895803,"[1.2184696791468346e-07, 0.0, 0.0, 0.0, 1.2184696791468346e-07, 0.0, 0.0, 0.0, 1.2184696791468346e-07]",,11.1599677,0.08825985,-0.6080123,"[8.999999999999999e-08, 0.0, 0.0, 0.0, 8.999999999999999e-08, 0.0, 0.0, 0.0, 8.999999999999999e-08]"
1579257504068287124,,1982,,1579257504,68066869,"""base_link""",,0.0804859732624,0.413781326568,0.295059657084,-0.85746534662,"[1.0, 0.0, 0.0, 0.0, 1.0, 0.0, 0.0, 0.0, 1.0]",,-0.16949018836,2.34920024872,-0.555156826973,"[1.2184696791468346e-07, 0.0, 0.0, 0.0, 1.2184696791468346e-07, 0.0, 0.0, 0.0, 1.2184696791468346e-07]",,7.54131385,1.0787315,4.4914457,"[8.999999999999999e-08, 0.0, 0.0, 0.0, 8.999999999999999e-08, 0.0, 0.0, 0.0, 8.999999999999999e-08]"
1579257504300102011,,1983,,1579257504,299927379,"""base_link""",,0.0261882228337,0.120591387915,0.374982601541,-0.918781770981,"[1.0, 0.0, 0.0, 0.0, 1.0, 0.0, 0.0, 0.0, 1.0]",,-0.973567426205,2.18155550957,-0.411036372185,"[1.2184696791468346e-07, 0.0, 0.0, 0.0, 1.2184696791468346e-07, 0.0, 0.0, 0.0, 1.2184696791468346e-07]",,2.93218835,-0.2353596,8.0022264,"[8.999999999999999e-08, 0.0, 0.0, 0.0, 8.999999999999999e-08, 0.0, 0.0, 0.0, 8.999999999999999e-08]"
1579257504555099931,,1984,,1579257504,554707097,"""base_link""",,0.0430966434914,-0.155171204855,0.380080360033,-0.910825722309,"[1.0, 0.0, 0.0, 0.0, 1.0, 0.0, 0.0, 0.0, 1.0]",,-0.794895112514,2.2329595089,-0.0207256823778,"[1.2184696791468346e-07, 0.0, 0.0, 0.0, 1.2184696791468346e-07, 0.0, 0.0, 0.0, 1.2184696791468346e-07]",,-2.0397832,-2.91257505,8.9632781,"[8.999999999999999e-08, 0.0, 0.0, 0.0, 8.999999999999999e-08, 0.0, 0.0, 0.0, 8.999999999999999e-08]"
1579257504780414366,,1985,,1579257504,780189689,"""base_link""",,-0.039720850244,-0.369492918438,0.406018758892,-0.83489281031,"[1.0, 0.0, 0.0, 0.0, 1.0, 0.0, 0.0, 0.0, 1.0]",,0.346022158861,1.52721345425,-0.305119305849,"[1.2184696791468346e-07, 0.0, 0.0, 0.0, 1.2184696791468346e-07, 0.0, 0.0, 0.0, 1.2184696791468346e-07]",,-6.0408964,-2.3143694,6.9823348,"[8.999999999999999e-08, 0.0, 0.0, 0.0, 8.999999999999999e-08, 0.0, 0.0, 0.0, 8.999999999999999e-08]"
1579257505024130471,,1986,,1579257505,23953701,"""base_link""",,-0.14222706409,-0.479385548634,0.391951338691,-0.772227366842,"[1.0, 0.0, 0.0, 0.0, 1.0, 0.0, 0.0, 0.0, 1.0]",,0.48739823699,0.890506982803,0.366939693689,"[1.2184696791468346e-07, 0.0, 0.0, 0.0, 1.2184696791468346e-07, 0.0, 0.0, 0.0, 1.2184696791468346e-07]",,-8.8652116,-0.83356525,5.54075725,"[8.999999999999999e-08, 0.0, 0.0, 0.0, 8.999999999999999e-08, 0.0, 0.0, 0.0, 8.999999999999999e-08]"
1579257505268374072,,1987,,1579257505,268027099,"""base_link""",,-0.183323406109,-0.516315078338,0.375336420022,-0.747618780167,"[1.0, 0.0, 0.0, 0.0, 1.0, 0.0, 0.0, 0.0, 1.0]",,0.0754734054208,0.0592374764383,-0.000440910458565,"[1.2184696791468346e-07, 0.0, 0.0, 0.0, 1.2184696791468346e-07, 0.0, 0.0, 0.0, 1.2184696791468346e-07]",,-8.8848249,-0.6472389,4.30511935,"[8.999999999999999e-08, 0.0, 0.0, 0.0, 8.999999999999999e-08, 0.0, 0.0, 0.0, 8.999999999999999e-08]"
1579257505529093052,,1988,,1579257505,528943119,"""base_link""",,-0.17880051781,-0.522410353886,0.376168616537,-0.744053068616,"[1.0, 0.0, 0.0, 0.0, 1.0, 0.0, 0.0, 0.0, 1.0]",,0.00358860148117,0.12182739377,-0.00960561446846,"[1.2184696791468346e-07, 0.0, 0.0, 0.0, 1.2184696791468346e-07, 0.0, 0.0, 0.0, 1.2184696791468346e-07]",,-8.3748791,-1.48080415,4.4522191,"[8.999999999999999e-08, 0.0, 0.0, 0.0, 8.999999999999999e-08, 0.0, 0.0, 0.0, 8.999999999999999e-08]"
1579257505752202177,,1989,,1579257505,752030301,"""base_link""",,-0.193988964024,-0.588270593733,0.361485569933,-0.696874574881,"[1.0, 0.0, 0.0, 0.0, 1.0, 0.0, 0.0, 0.0, 1.0]",,-0.0991560518742,1.11888337135,-0.251006424427,"[1.2184696791468346e-07, 0.0, 0.0, 0.0, 1.2184696791468346e-07, 0.0, 0.0, 0.0, 1.2184696791468346e-07]",,-8.3356525,-2.04958985,3.46174745,"[8.999999999999999e-08, 0.0, 0.0, 0.0, 8.999999999999999e-08, 0.0, 0.0, 0.0, 8.999999999999999e-08]"
1579257505991225779,,1990,,1579257505,990992771,"""base_link""",,0.150294061551,0.567029677089,-0.456721513199,0.668800792272,"[1.0, 0.0, 0.0, 0.0, 1.0, 0.0, 0.0, 0.0, 1.0]",,0.639409482479,-1.55790781975,-1.13298130035,"[1.2184696791468346e-07, 0.0, 0.0, 0.0, 1.2184696791468346e-07, 0.0, 0.0, 0.0, 1.2184696791468346e-07]",,-10.4538889,-2.353596,3.726527,"[8.999999999999999e-08, 0.0, 0.0, 0.0, 8.999999999999999e-08, 0.0, 0.0, 0.0, 8.999999999999999e-08]"
1579257506243155244,,1991,,1579257506,242761940,"""base_link""",,0.00334874130952,-0.301524751519,0.609732191809,-0.733006319498,"[1.0, 0.0, 0.0, 0.0, 1.0, 0.0, 0.0, 0.0, 1.0]",,1.13152039051,-3.31371188164,-0.27421939373,"[1.2184696791468346e-07, 0.0, 0.0, 0.0, 1.2184696791468346e-07, 0.0, 0.0, 0.0, 1.2184696791468346e-07]",,-7.71783355,-3.69710705,5.687857,"[8.999999999999999e-08, 0.0, 0.0, 0.0, 8.999999999999999e-08, 0.0, 0.0, 0.0, 8.999999999999999e-08]"
1579257506476396083,,1992,,1579257506,476220931,"""base_link""",,0.0886611583382,0.0623319916459,0.577987866501,-0.808816387072,"[1.0, 0.0, 0.0, 0.0, 1.0, 0.0, 0.0, 0.0, 1.0]",,0.820438921452,-1.99734508991,0.768997967243,"[1.2184696791468346e-07, 0.0, 0.0, 0.0, 1.2184696791468346e-07, 0.0, 0.0, 0.0, 1.2184696791468346e-07]",,0.53936575,-0.2941995,9.6693569,"[8.999999999999999e-08, 0.0, 0.0, 0.0, 8.999999999999999e-08, 0.0, 0.0, 0.0, 8.999999999999999e-08]"
1579257506726051071,,1993,,1579257506,725749202,"""base_link""",,0.139570949121,0.285223247099,0.455903856426,-0.831456146271,"[1.0, 0.0, 0.0, 0.0, 1.0, 0.0, 0.0, 0.0, 1.0]",,1.10467720032,-1.49231362343,0.997547507286,"[1.2184696791468346e-07, 0.0, 0.0, 0.0, 1.2184696791468346e-07, 0.0, 0.0, 0.0, 1.2184696791468346e-07]",,5.50153065,-0.3726527,7.9041599,"[8.999999999999999e-08, 0.0, 0.0, 0.0, 8.999999999999999e-08, 0.0, 0.0, 0.0, 8.999999999999999e-08]"
1579257506952367880,,1994,,1579257506,952029336,"""base_link""",,0.0405226521546,0.335132708671,0.326985472363,-0.882680283627,"[1.0, 0.0, 0.0, 0.0, 1.0, 0.0, 0.0, 0.0, 1.0]",,1.42229473591,1.57323205471,0.0931442007422,"[1.2184696791468346e-07, 0.0, 0.0, 0.0, 1.2184696791468346e-07, 0.0, 0.0, 0.0, 1.2184696791468346e-07]",,7.5315072,0.5099458,6.5312289,"[8.999999999999999e-08, 0.0, 0.0, 0.0, 8.999999999999999e-08, 0.0, 0.0, 0.0, 8.999999999999999e-08]"
1579257507190643631,,1995,,1579257507,190480589,"""base_link""",,-0.213761745772,0.117314441975,0.33189182807,-0.911257950423,"[1.0, 0.0, 0.0, 0.0, 1.0, 0.0, 0.0, 0.0, 1.0]",,0.757486641407,2.51865816116,-1.50093531609,"[1.2184696791468346e-07, 0.0, 0.0, 0.0, 1.2184696791468346e-07, 0.0, 0.0, 0.0, 1.2184696791468346e-07]",,2.97141495,4.32473265,7.99241975,"[8.999999999999999e-08, 0.0, 0.0, 0.0, 8.999999999999999e-08, 0.0, 0.0, 0.0, 8.999999999999999e-08]"
1579257507452053725,,1996,,1579257507,451921740,"""base_link""",,-0.27343489028,-0.211087384808,0.448168343929,-0.82451234815,"[1.0, 0.0, 0.0, 0.0, 1.0, 0.0, 0.0, 0.0, 1.0]",,-0.663188636303,2.28164434433,-2.34739685059,"[1.2184696791468346e-07, 0.0, 0.0, 0.0, 1.2184696791468346e-07, 0.0, 0.0, 0.0, 1.2184696791468346e-07]",,-6.5900688,2.59876225,5.54075725,"[8.999999999999999e-08, 0.0, 0.0, 0.0, 8.999999999999999e-08, 0.0, 0.0, 0.0, 8.999999999999999e-08]"
1579257507675851760,,1997,,1579257507,675464450,"""base_link""",,-0.183565744808,-0.377675159679,0.59013465028,-0.689497052665,"[1.0, 0.0, 0.0, 0.0, 1.0, 0.0, 0.0, 0.0, 1.0]",,0.200686052442,-1.01852798462,-1.50994050503,"[1.2184696791468346e-07, 0.0, 0.0, 0.0, 1.2184696791468346e-07, 0.0, 0.0, 0.0, 1.2184696791468346e-07]",,-9.09076455,-2.42224255,4.5698989,"[8.999999999999999e-08, 0.0, 0.0, 0.0, 8.999999999999999e-08, 0.0, 0.0, 0.0, 8.999999999999999e-08]"
1579257507915559678,,1998,,1579257507,915412810,"""base_link""",,0.0834480067395,0.11880050489,-0.741554303808,0.654996247861,"[1.0, 0.0, 0.0, 0.0, 1.0, 0.0, 0.0, 0.0, 1.0]",,2.25669455528,-2.5551674366,-0.313403815031,"[1.2184696791468346e-07, 0.0, 0.0, 0.0, 1.2184696791468346e-07, 0.0, 0.0, 0.0, 1.2184696791468346e-07]",,-5.4132708,-2.22610955,8.97308475,"[8.999999999999999e-08, 0.0, 0.0, 0.0, 8.999999999999999e-08, 0.0, 0.0, 0.0, 8.999999999999999e-08]"
1579257508176317844,,1999,,1579257508,176105108,"""base_link""",,0.0290858890864,-0.238501696953,-0.706095068478,0.666108629187,"[1.0, 0.0, 0.0, 0.0, 1.0, 0.0, 0.0, 0.0, 1.0]",,0.840439856052,-1.28908288479,0.803396344185,"[1.2184696791468346e-07, 0.0, 0.0, 0.0, 1.2184696791468346e-07, 0.0, 0.0, 0.0, 1.2184696791468346e-07]",,1.30428445,3.69710705,8.2571993,"[8.999999999999999e-08, 0.0, 0.0, 0.0, 8.999999999999999e-08, 0.0, 0.0, 0.0, 8.999999999999999e-08]"
1579257508392911995,,2000,,1579257508,392611062,"""base_link""",,0.0283576990109,-0.382862868851,-0.648458978238,0.657352887044,"[1.0, 0.0, 0.0, 0.0, 1.0, 0.0, 0.0, 0.0, 1.0]",,0.895936965942,-0.278664439917,0.0551555939019,"[1.2184696791468346e-07, 0.0, 0.0, 0.0, 1.2184696791468346e-07, 0.0, 0.0, 0.0, 1.2184696791468346e-07]",,4.0403398,5.73689025,6.8842683,"[8.999999999999999e-08, 0.0, 0.0, 0.0, 8.999999999999999e-08, 0.0, 0.0, 0.0, 8.999999999999999e-08]"
1579257508645851257,,2001,,1579257508,645627431,"""base_link""",,0.0577558319149,-0.445629152555,-0.592750104802,0.668375819079,"[1.0, 0.0, 0.0, 0.0, 1.0, 0.0, 0.0, 0.0, 1.0]",,0.590795338154,-0.0898091420531,0.491184026003,"[1.2184696791468346e-07, 0.0, 0.0, 0.0, 1.2184696791468346e-07, 0.0, 0.0, 0.0, 1.2184696791468346e-07]",,4.9621649,6.24683605,5.3348176,"[8.999999999999999e-08, 0.0, 0.0, 0.0, 8.999999999999999e-08, 0.0, 0.0, 0.0, 8.999999999999999e-08]"
1579257508868641553,,2002,,1579257508,868525130,"""base_link""",,0.08931115427,-0.460284120402,-0.541828517439,0.697555663671,"[1.0, 0.0, 0.0, 0.0, 1.0, 0.0, 0.0, 0.0, 1.0]",,0.218848213553,0.365712434053,0.11026391387,"[1.2184696791468346e-07, 0.0, 0.0, 0.0, 1.2184696791468346e-07, 0.0, 0.0, 0.0, 1.2184696791468346e-07]",,5.56037055,6.48219565,5.3348176,"[8.999999999999999e-08, 0.0, 0.0, 0.0, 8.999999999999999e-08, 0.0, 0.0, 0.0, 8.999999999999999e-08]"
1579257509107632676,,2003,,1579257509,107231985,"""base_link""",,-0.166842917467,0.409871853698,0.506557552255,-0.739978344745,"[1.0, 0.0, 0.0, 0.0, 1.0, 0.0, 0.0, 0.0, 1.0]",,0.491616547108,1.493491292,-0.0860664695501,"[1.2184696791468346e-07, 0.0, 0.0, 0.0, 1.2184696791468346e-07, 0.0, 0.0, 0.0, 1.2184696791468346e-07]",,4.2560861,6.77639515,5.59959715,"[8.999999999999999e-08, 0.0, 0.0, 0.0, 8.999999999999999e-08, 0.0, 0.0, 0.0, 8.999999999999999e-08]"
1579257509351894613,,2004,,1579257509,351726698,"""base_link""",,-0.298736413329,0.266503579667,0.462786084152,-0.790924419709,"[1.0, 0.0, 0.0, 0.0, 1.0, 0.0, 0.0, 0.0, 1.0]",,-0.201499551535,1.74734258652,-0.234726414084,"[1.2184696791468346e-07, 0.0, 0.0, 0.0, 1.2184696791468346e-07, 0.0, 0.0, 0.0, 1.2184696791468346e-07]",,1.95152335,7.56092715,6.1389629,"[8.999999999999999e-08, 0.0, 0.0, 0.0, 8.999999999999999e-08, 0.0, 0.0, 0.0, 8.999999999999999e-08]"
1579257509601510958,,2005,,1579257509,601348133,"""base_link""",,-0.349198614679,0.0206808564543,0.405868822782,-0.844335909681,"[1.0, 0.0, 0.0, 0.0, 1.0, 0.0, 0.0, 0.0, 1.0]",,-1.10291469097,2.24499845505,-0.443577975035,"[1.2184696791468346e-07, 0.0, 0.0, 0.0, 1.2184696791468346e-07, 0.0, 0.0, 0.0, 1.2184696791468346e-07]",,-2.1966896,7.0411747,5.79573015,"[8.999999999999999e-08, 0.0, 0.0, 0.0, 8.999999999999999e-08, 0.0, 0.0, 0.0, 8.999999999999999e-08]"
1579257509830270309,,2006,,1579257509,829864310,"""base_link""",,-0.289679884962,-0.299202113038,0.37913061486,-0.826331432706,"[1.0, 0.0, 0.0, 0.0, 1.0, 0.0, 0.0, 0.0, 1.0]",,-1.64973104,2.06874847412,-1.33427238464,"[1.2184696791468346e-07, 0.0, 0.0, 0.0, 1.2184696791468346e-07, 0.0, 0.0, 0.0, 1.2184696791468346e-07]",,-6.6292954,2.55953565,4.9817782,"[8.999999999999999e-08, 0.0, 0.0, 0.0, 8.999999999999999e-08, 0.0, 0.0, 0.0, 8.999999999999999e-08]"
1579257510075545942,,2007,,1579257510,75388321,"""base_link""",,-0.120729377593,-0.533957835969,0.439945207596,-0.711871941508,"[1.0, 0.0, 0.0, 0.0, 1.0, 0.0, 0.0, 0.0, 1.0]",,-0.984345018864,0.348484158516,-1.72861969471,"[1.2184696791468346e-07, 0.0, 0.0, 0.0, 1.2184696791468346e-07, 0.0, 0.0, 0.0, 1.2184696791468346e-07]",,-9.7085835,-2.26533615,2.89296175,"[8.999999999999999e-08, 0.0, 0.0, 0.0, 8.999999999999999e-08, 0.0, 0.0, 0.0, 8.999999999999999e-08]"
1579257510312768449,,2008,,1579257510,312419435,"""base_link""",,-0.0396466885677,0.618011217731,-0.477061758262,0.623620360194,"[1.0, 0.0, 0.0, 0.0, 1.0, 0.0, 0.0, 0.0, 1.0]",,-1.24678397179,0.186961576343,-1.02890205383,"[1.2184696791468346e-07, 0.0, 0.0, 0.0, 1.2184696791468346e-07, 0.0, 0.0, 0.0, 1.2184696791468346e-07]",,-7.7864801,-5.88399,1.6279039,"[8.999999999999999e-08, 0.0, 0.0, 0.0, 8.999999999999999e-08, 0.0, 0.0, 0.0, 8.999999999999999e-08]"
1579257510564577424,,2009,,1579257510,564438146,"""base_link""",,-0.199418402969,0.668229571189,-0.461306642213,0.548541450208,"[1.0, 0.0, 0.0, 0.0, 1.0, 0.0, 0.0, 0.0, 1.0]",,-0.51895648241,-0.41217237711,-1.21394979954,"[1.2184696791468346e-07, 0.0, 0.0, 0.0, 1.2184696791468346e-07, 0.0, 0.0, 0.0, 1.2184696791468346e-07]",,-5.38385085,-7.81590005,0.6864655,"[8.999999999999999e-08, 0.0, 0.0, 0.0, 8.999999999999999e-08, 0.0, 0.0, 0.0, 8.999999999999999e-08]"
1579257510811511227,,2010,,1579257510,811336394,"""base_link""",,-0.353815873355,0.536283371779,-0.555451855383,0.527908807718,"[1.0, 0.0, 0.0, 0.0, 1.0, 0.0, 0.0, 0.0, 1.0]",,0.42003017664,-1.31741631031,-1.763489604,"[1.2184696791468346e-07, 0.0, 0.0, 0.0, 1.2184696791468346e-07, 0.0, 0.0, 0.0, 1.2184696791468346e-07]",,-2.22610955,-8.85540495,1.9809433,"[8.999999999999999e-08, 0.0, 0.0, 0.0, 8.999999999999999e-08, 0.0, 0.0, 0.0, 8.999999999999999e-08]"
1579257511028370104,,2011,,1579257511,28001504,"""base_link""",,0.518587501882,-0.309968216979,0.617343551198,-0.503858757143,"[1.0, 0.0, 0.0, 0.0, 1.0, 0.0, 0.0, 0.0, 1.0]",,0.823992788792,-1.75614345074,-1.59943211079,"[1.2184696791468346e-07, 0.0, 0.0, 0.0, 1.2184696791468346e-07, 0.0, 0.0, 0.0, 1.2184696791468346e-07]",,2.941995,-9.14960445,2.6674088,"[8.999999999999999e-08, 0.0, 0.0, 0.0, 8.999999999999999e-08, 0.0, 0.0, 0.0, 8.999999999999999e-08]"
1579257511275626522,,2012,,1579257511,275467964,"""base_link""",,0.587649409095,-0.0172940525419,0.614088306131,-0.52655924644,"[1.0, 0.0, 0.0, 0.0, 1.0, 0.0, 0.0, 0.0, 1.0]",,1.5441968441,-1.76015615463,-0.98454618454,"[1.2184696791468346e-07, 0.0, 0.0, 0.0, 1.2184696791468346e-07, 0.0, 0.0, 0.0, 1.2184696791468346e-07]",,7.2765343,-6.44296905,3.5696206,"[8.999999999999999e-08, 0.0, 0.0, 0.0, 8.999999999999999e-08, 0.0, 0.0, 0.0, 8.999999999999999e-08]"
1579257511525532945,,2013,,1579257511,525368384,"""base_link""",,0.562636943065,0.251334126118,0.552329664728,-0.561429219767,"[1.0, 0.0, 0.0, 0.0, 1.0, 0.0, 0.0, 0.0, 1.0]",,1.55422866344,-1.12509262562,-0.535714745522,"[1.2184696791468346e-07, 0.0, 0.0, 0.0, 1.2184696791468346e-07, 0.0, 0.0, 0.0, 1.2184696791468346e-07]",,9.218251,-4.91313165,3.97169325,"[8.999999999999999e-08, 0.0, 0.0, 0.0, 8.999999999999999e-08, 0.0, 0.0, 0.0, 8.999999999999999e-08]"
1579257511764830323,,2014,,1579257511,764502980,"""base_link""",,0.44503390181,0.343121464572,0.480228897737,-0.673492904615,"[1.0, 0.0, 0.0, 0.0, 1.0, 0.0, 0.0, 0.0, 1.0]",,1.87764108181,1.12950563431,0.630880951881,"[1.2184696791468346e-07, 0.0, 0.0, 0.0, 1.2184696791468346e-07, 0.0, 0.0, 0.0, 1.2184696791468346e-07]",,8.5317855,-3.14793465,4.38357255,"[8.999999999999999e-08, 0.0, 0.0, 0.0, 8.999999999999999e-08, 0.0, 0.0, 0.0, 8.999999999999999e-08]"
1579257512003455196,,2015,,1579257512,3315267,"""base_link""",,0.219026042715,0.253917431568,0.477362926053,-0.812205742031,"[1.0, 0.0, 0.0, 0.0, 1.0, 0.0, 0.0, 0.0, 1.0]",,1.10366046429,2.09845161438,-0.386350899935,"[1.2184696791468346e-07, 0.0, 0.0, 0.0, 1.2184696791468346e-07, 0.0, 0.0, 0.0, 1.2184696791468346e-07]",,5.4524974,-0.4314926,7.7472535,"[8.999999999999999e-08, 0.0, 0.0, 0.0, 8.999999999999999e-08, 0.0, 0.0, 0.0, 8.999999999999999e-08]"
1579257512227955953,,2016,,1579257512,227765562,"""base_link""",,-0.0382098489244,0.0481551067057,0.505973029605,-0.860355964968,"[1.0, 0.0, 0.0, 0.0, 1.0, 0.0, 0.0, 0.0, 1.0]",,0.526520252228,2.69171190262,-0.528317272663,"[1.2184696791468346e-07, 0.0, 0.0, 0.0, 1.2184696791468346e-07, 0.0, 0.0, 0.0, 1.2184696791468346e-07]",,0.95124505,0.40207265,10.4931155,"[8.999999999999999e-08, 0.0, 0.0, 0.0, 8.999999999999999e-08, 0.0, 0.0, 0.0, 8.999999999999999e-08]"
1579257512471524082,,2017,,1579257512,471194201,"""base_link""",,-0.165100195822,-0.277347746694,0.509131922555,-0.797875202133,"[1.0, 0.0, 0.0, 0.0, 1.0, 0.0, 0.0, 0.0, 1.0]",,-1.33234083652,2.85209059715,-0.902437806129,"[1.2184696791468346e-07, 0.0, 0.0, 0.0, 1.2184696791468346e-07, 0.0, 0.0, 0.0, 1.2184696791468346e-07]",,-4.54047895,0.63743225,7.1392412,"[8.999999999999999e-08, 0.0, 0.0, 0.0, 8.999999999999999e-08, 0.0, 0.0, 0.0, 8.999999999999999e-08]"
1579257512718079985,,2018,,1579257512,717943959,"""base_link""",,0.058409922428,0.628852673136,-0.453020203161,0.62921005394,"[1.0, 0.0, 0.0, 0.0, 1.0, 0.0, 0.0, 0.0, 1.0]",,-2.14884448051,1.82370400429,-1.48852276802,"[1.2184696791468346e-07, 0.0, 0.0, 0.0, 1.2184696791468346e-07, 0.0, 0.0, 0.0, 1.2184696791468346e-07]",,-7.5315072,-3.95207995,1.77500365,"[8.999999999999999e-08, 0.0, 0.0, 0.0, 8.999999999999999e-08, 0.0, 0.0, 0.0, 8.999999999999999e-08]"
1579257512955367641,,2019,,1579257512,955235970,"""base_link""",,-0.100684051018,0.784426900574,-0.412976919251,0.451649447795,"[1.0, 0.0, 0.0, 0.0, 1.0, 0.0, 0.0, 0.0, 1.0]",,-0.805633604527,0.225189104676,-0.69766998291,"[1.2184696791468346e-07, 0.0, 0.0, 0.0, 1.2184696791468346e-07, 0.0, 0.0, 0.0, 1.2184696791468346e-07]",,-6.75678185,-6.7469752,-3.04986815,"[8.999999999999999e-08, 0.0, 0.0, 0.0, 8.999999999999999e-08, 0.0, 0.0, 0.0, 8.999999999999999e-08]"
1579257513200374022,,2020,,1579257513,199984064,"""base_link""",,-0.122597025812,0.777878033375,-0.422737799882,0.448518101091,"[1.0, 0.0, 0.0, 0.0, 1.0, 0.0, 0.0, 0.0, 1.0]",,0.181844741106,-0.0652366131544,0.127345338464,"[1.2184696791468346e-07, 0.0, 0.0, 0.0, 1.2184696791468346e-07, 0.0, 0.0, 0.0, 1.2184696791468346e-07]",,-6.3547092,-7.10982125,-2.22610955,"[8.999999999999999e-08, 0.0, 0.0, 0.0, 8.999999999999999e-08, 0.0, 0.0, 0.0, 8.999999999999999e-08]"
1579257513452590336,,2021,,1579257513,452425127,"""base_link""",,-0.0580523133741,0.79337393955,-0.353942654214,0.491845827961,"[1.0, 0.0, 0.0, 0.0, 1.0, 0.0, 0.0, 0.0, 1.0]",,-0.58394908905,0.14347627759,1.47582948208,"[1.2184696791468346e-07, 0.0, 0.0, 0.0, 1.2184696791468346e-07, 0.0, 0.0, 0.0, 1.2184696791468346e-07]",,-6.87446165,-6.2174161,-1.91229675,"[8.999999999999999e-08, 0.0, 0.0, 0.0, 8.999999999999999e-08, 0.0, 0.0, 0.0, 8.999999999999999e-08]"
1579257513676262960,,2022,,1579257513,676120117,"""base_link""",,0.0451442063677,0.864854115942,-0.167988245829,0.470923887728,"[1.0, 0.0, 0.0, 0.0, 1.0, 0.0, 0.0, 0.0, 1.0]",,-0.828129291534,0.879639327526,0.823708415031,"[1.2184696791468346e-07, 0.0, 0.0, 0.0, 1.2184696791468346e-07, 0.0, 0.0, 0.0, 1.2184696791468346e-07]",,-8.09048625,-2.77528195,-3.8049802,"[8.999999999999999e-08, 0.0, 0.0, 0.0, 8.999999999999999e-08, 0.0, 0.0, 0.0, 8.999999999999999e-08]"
1579257513919825529,,2023,,1579257513,919642568,"""base_link""",,0.0417290654816,0.92617076726,-0.13850681268,0.348256023363,"[1.0, 0.0, 0.0, 0.0, 1.0, 0.0, 0.0, 0.0, 1.0]",,0.266958624125,1.16979527473,-0.435338675976,"[1.2184696791468346e-07, 0.0, 0.0, 0.0, 1.2184696791468346e-07, 0.0, 0.0, 0.0, 1.2184696791468346e-07]",,-6.87446165,-1.4317709,-8.11009955,"[8.999999999999999e-08, 0.0, 0.0, 0.0, 8.999999999999999e-08, 0.0, 0.0, 0.0, 8.999999999999999e-08]"
1579257514166932152,,2024,,1579257514,166527366,"""base_link""",,0.089507376264,0.953070803033,-0.163243408668,0.238738483547,"[1.0, 0.0, 0.0, 0.0, 1.0, 0.0, 0.0, 0.0, 1.0]",,0.210846692324,0.831008970737,0.354611903429,"[1.2184696791468346e-07, 0.0, 0.0, 0.0, 1.2184696791468346e-07, 0.0, 0.0, 0.0, 1.2184696791468346e-07]",,-4.69738535,-1.4121576,-9.4339973,"[8.999999999999999e-08, 0.0, 0.0, 0.0, 8.999999999999999e-08, 0.0, 0.0, 0.0, 8.999999999999999e-08]"
1579257514395670158,,2025,,1579257514,395493202,"""base_link""",,0.103247790071,0.950863391474,-0.172852187262,0.235203796648,"[1.0, 0.0, 0.0, 0.0, 1.0, 0.0, 0.0, 0.0, 1.0]",,0.451746165752,-1.00580203533,-0.367629528046,"[1.2184696791468346e-07, 0.0, 0.0, 0.0, 1.2184696791468346e-07, 0.0, 0.0, 0.0, 1.2184696791468346e-07]",,-6.01147645,-2.6085689,-7.6295737,"[8.999999999999999e-08, 0.0, 0.0, 0.0, 8.999999999999999e-08, 0.0, 0.0, 0.0, 8.999999999999999e-08]"
1579257514634424515,,2026,,1579257514,634259788,"""base_link""",,0.0715229658757,0.873108440382,-0.316166555296,0.36414945558,"[1.0, 0.0, 0.0, 0.0, 1.0, 0.0, 0.0, 0.0, 1.0]",,1.32341897488,-1.66795921326,0.01383542642,"[1.2184696791468346e-07, 0.0, 0.0, 0.0, 1.2184696791468346e-07, 0.0, 0.0, 0.0, 1.2184696791468346e-07]",,-8.48275225,-5.88399,-5.71727695,"[8.999999999999999e-08, 0.0, 0.0, 0.0, 8.999999999999999e-08, 0.0, 0.0, 0.0, 8.999999999999999e-08]"
1579257514878875352,,2027,,1579257514,878463511,"""base_link""",,0.00691939099316,0.623760762462,-0.485352485762,0.612623536771,"[1.0, 0.0, 0.0, 0.0, 1.0, 0.0, 0.0, 0.0, 1.0]",,1.455296278,-3.39555335045,-0.263109952211,"[1.2184696791468346e-07, 0.0, 0.0, 0.0, 1.2184696791468346e-07, 0.0, 0.0, 0.0, 1.2184696791468346e-07]",,-8.40429905,-6.9431082,0.5687857,"[8.999999999999999e-08, 0.0, 0.0, 0.0, 8.999999999999999e-08, 0.0, 0.0, 0.0, 8.999999999999999e-08]"
1579257515118119503,,2028,,1579257515,117987478,"""base_link""",,0.0978678752781,-0.297205350881,0.545887987816,-0.77723687712,"[1.0, 0.0, 0.0, 0.0, 1.0, 0.0, 0.0, 0.0, 1.0]",,0.734894394875,-2.55953598022,0.284602254629,"[1.2184696791468346e-07, 0.0, 0.0, 0.0, 1.2184696791468346e-07, 0.0, 0.0, 0.0, 1.2184696791468346e-07]",,-3.97169325,-5.4524974,6.61948875,"[8.999999999999999e-08, 0.0, 0.0, 0.0, 8.999999999999999e-08, 0.0, 0.0, 0.0, 8.999999999999999e-08]"
1579257515358947222,,2029,,1579257515,358771685,"""base_link""",,0.165281904695,-0.000645993271011,0.505669017859,-0.846746903774,"[1.0, 0.0, 0.0, 0.0, 1.0, 0.0, 0.0, 0.0, 1.0]",,0.956729531288,-2.22183609009,0.395911604166,"[1.2184696791468346e-07, 0.0, 0.0, 0.0, 1.2184696791468346e-07, 0.0, 0.0, 0.0, 1.2184696791468346e-07]",,-0.14709975,-2.3732093,7.83551335,"[8.999999999999999e-08, 0.0, 0.0, 0.0, 8.999999999999999e-08, 0.0, 0.0, 0.0, 8.999999999999999e-08]"
1579257515600553716,,2030,,1579257515,600151129,"""base_link""",,0.137782889907,0.18893609326,0.432365438147,-0.870849674633,"[1.0, 0.0, 0.0, 0.0, 1.0, 0.0, 0.0, 0.0, 1.0]",,0.79979711771,-0.500033378601,0.275067567825,"[1.2184696791468346e-07, 0.0, 0.0, 0.0, 1.2184696791468346e-07, 0.0, 0.0, 0.0, 1.2184696791468346e-07]",,4.65815875,-0.4707192,9.36535075,"[8.999999999999999e-08, 0.0, 0.0, 0.0, 8.999999999999999e-08, 0.0, 0.0, 0.0, 8.999999999999999e-08]"
1579257515837246700,,2031,,1579257515,837103495,"""base_link""",,0.129348251683,0.299666462016,0.38728634651,-0.862251893089,"[1.0, 0.0, 0.0, 0.0, 1.0, 0.0, 0.0, 0.0, 1.0]",,0.423047751188,-1.71522033215,-0.0147756934166,"[1.2184696791468346e-07, 0.0, 0.0, 0.0, 1.2184696791468346e-07, 0.0, 0.0, 0.0, 1.2184696791468346e-07]",,5.24655775,0.2353596,7.5511205,"[8.999999999999999e-08, 0.0, 0.0, 0.0, 8.999999999999999e-08, 0.0, 0.0, 0.0, 8.999999999999999e-08]"
1579257516100215580,,2032,,1579257516,100010388,"""base_link""",,0.124065571352,0.528501413774,0.266110679425,-0.796541961193,"[1.0, 0.0, 0.0, 0.0, 1.0, 0.0, 0.0, 0.0, 1.0]",,1.55664658546,-0.595479726791,0.805990338326,"[1.2184696791468346e-07, 0.0, 0.0, 0.0, 1.2184696791468346e-07, 0.0, 0.0, 0.0, 1.2184696791468346e-07]",,8.91424485,1.0787315,4.89351835,"[8.999999999999999e-08, 0.0, 0.0, 0.0, 8.999999999999999e-08, 0.0, 0.0, 0.0, 8.999999999999999e-08]"
1579257516325379180,,2033,,1579257516,325034009,"""base_link""",,0.076943575156,0.531438393434,0.16999744041,-0.826289168803,"[1.0, 0.0, 0.0, 0.0, 1.0, 0.0, 0.0, 0.0, 1.0]",,0.722777426243,1.00738382339,0.311359882355,"[1.2184696791468346e-07, 0.0, 0.0, 0.0, 1.2184696791468346e-07, 0.0, 0.0, 0.0, 1.2184696791468346e-07]",,9.54187045,0.8433719,5.0602314,"[8.999999999999999e-08, 0.0, 0.0, 0.0, 8.999999999999999e-08, 0.0, 0.0, 0.0, 8.999999999999999e-08]"
1579257516558439463,,2034,,1579257516,558345556,"""base_link""",,-0.00904306886502,0.325083554531,0.159003539206,-0.932178512946,"[1.0, 0.0, 0.0, 0.0, 1.0, 0.0, 0.0, 0.0, 1.0]",,0.0328523740172,2.20740938187,-0.685098171234,"[1.2184696791468346e-07, 0.0, 0.0, 0.0, 1.2184696791468346e-07, 0.0, 0.0, 0.0, 1.2184696791468346e-07]",,6.080123,1.57887065,7.12943455,"[8.999999999999999e-08, 0.0, 0.0, 0.0, 8.999999999999999e-08, 0.0, 0.0, 0.0, 8.999999999999999e-08]"
1579257516811328989,,2035,,1579257516,811151022,"""base_link""",,-0.030692265799,0.0674521706055,0.245692032492,-0.966511052534,"[1.0, 0.0, 0.0, 0.0, 1.0, 0.0, 0.0, 0.0, 1.0]",,-0.618948340416,1.78626728058,-0.728394627571,"[1.2184696791468346e-07, 0.0, 0.0, 0.0, 1.2184696791468346e-07, 0.0, 0.0, 0.0, 1.2184696791468346e-07]",,0.392266,1.57887065,8.93385815,"[8.999999999999999e-08, 0.0, 0.0, 0.0, 8.999999999999999e-08, 0.0, 0.0, 0.0, 8.999999999999999e-08]"
1579257517045786878,,2036,,1579257517,45399337,"""base_link""",,-0.00515568771148,-0.0657045739974,0.317030186892,-0.946122713203,"[1.0, 0.0, 0.0, 0.0, 1.0, 0.0, 0.0, 0.0, 1.0]",,-0.290588140488,0.472553551197,-0.680135905743,"[1.2184696791468346e-07, 0.0, 0.0, 0.0, 1.2184696791468346e-07, 0.0, 0.0, 0.0, 1.2184696791468346e-07]",,-1.81423025,0.04903325,9.34573745,"[8.999999999999999e-08, 0.0, 0.0, 0.0, 8.999999999999999e-08, 0.0, 0.0, 0.0, 8.999999999999999e-08]"
1579257517278838749,,2037,,1579257517,278659502,"""base_link""",,0.00745685677814,-0.113350208734,0.377782930516,-0.918899441113,"[1.0, 0.0, 0.0, 0.0, 1.0, 0.0, 0.0, 0.0, 1.0]",,-0.178968697786,0.241803571582,-0.574174463749,"[1.2184696791468346e-07, 0.0, 0.0, 0.0, 1.2184696791468346e-07, 0.0, 0.0, 0.0, 1.2184696791468346e-07]",,-2.63798885,1.16253726918e-15,9.4928372,"[8.999999999999999e-08, 0.0, 0.0, 0.0, 8.999999999999999e-08, 0.0, 0.0, 0.0, 8.999999999999999e-08]"
1579257517518824661,,2038,,1579257517,518704180,"""base_link""",,0.0949277549543,-0.125345499371,0.513056859265,-0.843830484332,"[1.0, 0.0, 0.0, 0.0, 1.0, 0.0, 0.0, 0.0, 1.0]",,-0.646838903427,-1.16395461559,-1.5411529541,"[1.2184696791468346e-07, 0.0, 0.0, 0.0, 1.2184696791468346e-07, 0.0, 0.0, 0.0, 1.2184696791468346e-07]",,-2.9616083,-1.53964405,8.71811185,"[8.999999999999999e-08, 0.0, 0.0, 0.0, 8.999999999999999e-08, 0.0, 0.0, 0.0, 8.999999999999999e-08]"
1579257517769261248,,2039,,1579257517,768903436,"""base_link""",,0.267518400569,0.139163101009,0.553149314309,-0.776590865742,"[1.0, 0.0, 0.0, 0.0, 1.0, 0.0, 0.0, 0.0, 1.0]",,0.71924251318,-3.18065166473,-0.196815252304,"[1.2184696791468346e-07, 0.0, 0.0, 0.0, 1.2184696791468346e-07, 0.0, 0.0, 0.0, 1.2184696791468346e-07]",,3.26561445,-4.3541526,7.649187,"[8.999999999999999e-08, 0.0, 0.0, 0.0, 8.999999999999999e-08, 0.0, 0.0, 0.0, 8.999999999999999e-08]"
1579257518002308206,,2040,,1579257518,2173934,"""base_link""",,0.300389672555,0.356303878709,0.408675195059,-0.784728090221,"[1.0, 0.0, 0.0, 0.0, 1.0, 0.0, 0.0, 0.0, 1.0]",,0.989768743515,-0.623505473137,1.10096955299,"[1.2184696791468346e-07, 0.0, 0.0, 0.0, 1.2184696791468346e-07, 0.0, 0.0, 0.0, 1.2184696791468346e-07]",,8.18855275,-2.65760215,7.6295737,"[8.999999999999999e-08, 0.0, 0.0, 0.0, 8.999999999999999e-08, 0.0, 0.0, 0.0, 8.999999999999999e-08]"
