rosbagTimestamp,header,seq,stamp,secs,nsecs,frame_id,orientation,x,y,z,w,orientation_covariance,angular_velocity,x,y,z,angular_velocity_covariance,linear_acceleration,x,y,z,linear_acceleration_covariance
1579257445803261437,,1740,,1579257445,803102994,"""base_link""",,0.000470722281327,0.0063219428858,0.443185518779,-0.896407500751,"[1.0, 0.0, 0.0, 0.0, 1.0, 0.0, 0.0, 0.0, 1.0]",,0.00240830890834,-0.000361902842997,0.000112638343126,"[1.2184696791468346e-07, 0.0, 0.0, 0.0, 1.2184696791468346e-07, 0.0, 0.0, 0.0, 1.2184696791468346e-07]",,-0.28439285,0.36284605,9.7478101,"[8.999999999999999e-08, 0.0, 0.0, 0.0, 8.999999999999999e-08, 0.0, 0.0, 0.0, 8.999999999999999e-08]"
1579257446039487193,,1741,,1579257446,39248191,"""base_link""",,0.000418791647617,0.00635353774708,0.443014557839,-0.896491806273,"[1.0, 0.0, 0.0, 0.0, 1.0, 0.0, 0.0, 0.0, 1.0]",,0.00105439987965,0.00251862755977,0.00013601500541,"[1.2184696791468346e-07, 0.0, 0.0, 0.0, 1.2184696791468346e-07, 0.0, 0.0, 0.0, 1.2184696791468346e-07]",,-0.30400615,0.38245935,9.7674234,"[8.999999999999999e-08, 0.0, 0.0, 0.0, 8.999999999999999e-08, 0.0, 0.0, 0.0, 8.999999999999999e-08]"
1579257446276692452,,1742,,1579257446,276377511,"""base_link""",,0.000439533382732,0.00640949411926,0.442798989999,-0.89659789184,"[1.0, 0.0, 0.0, 0.0, 1.0, 0.0, 0.0, 0.0, 1.0]",,0.00371958687901,-0.000526227522641,7.55349174142e-06,"[1.2184696791468346e-07, 0.0, 0.0, 0.0, 1.2184696791468346e-07, 0.0, 0.0, 0.0, 1.2184696791468346e-07]",,-0.2941995,0.38245935,9.7674234,"[8.999999999999999e-08, 0.0, 0.0, 0.0, 8.999999999999999e-08, 0.0, 0.0, 0.0, 8.999999999999999e-08]"
1579257446511109753,,1743,,1579257446,511021390,"""base_link""",,0.000395949260671,0.00647169894235,0.442559171226,-0.89671586375,"[1.0, 0.0, 0.0, 0.0, 1.0, 0.0, 0.0, 0.0, 1.0]",,-0.000715867499821,-0.000582088367082,-0.000664632301778,"[1.2184696791468346e-07, 0.0, 0.0, 0.0, 1.2184696791468346e-07, 0.0, 0.0, 0.0, 1.2184696791468346e-07]",,-0.28439285,0.38245935,9.7674234,"[8.999999999999999e-08, 0.0, 0.0, 0.0, 8.999999999999999e-08, 0.0, 0.0, 0.0, 8.999999999999999e-08]"
1579257446758854714,,1744,,1579257446,758599876,"""base_link""",,0.000392364580097,0.00652549976729,0.442323691765,-0.896831653994,"[1.0, 0.0, 0.0, 0.0, 1.0, 0.0, 0.0, 0.0, 1.0]",,-0.00055767968297,-8.25940514915e-06,0.0013045812957,"[1.2184696791468346e-07, 0.0, 0.0, 0.0, 1.2184696791468346e-07, 0.0, 0.0, 0.0, 1.2184696791468346e-07]",,-0.28439285,0.3726527,9.77723005,"[8.999999999999999e-08, 0.0, 0.0, 0.0, 8.999999999999999e-08, 0.0, 0.0, 0.0, 8.999999999999999e-08]"
1579257447007942337,,1745,,1579257447,7763798,"""base_link""",,0.000408217382205,0.0065494410067,0.442111992585,-0.896935852887,"[1.0, 0.0, 0.0, 0.0, 1.0, 0.0, 0.0, 0.0, 1.0]",,-0.00209823530167,0.00250499532558,0.00178783759475,"[1.2184696791468346e-07, 0.0, 0.0, 0.0, 1.2184696791468346e-07, 0.0, 0.0, 0.0, 1.2184696791468346e-07]",,-0.26477955,0.3530394,9.7674234,"[8.999999999999999e-08, 0.0, 0.0, 0.0, 8.999999999999999e-08, 0.0, 0.0, 0.0, 8.999999999999999e-08]"
1579257447267410696,,1746,,1579257447,267136431,"""base_link""",,0.000359425956818,0.0066514645893,0.44183496838,-0.897071618963,"[1.0, 0.0, 0.0, 0.0, 1.0, 0.0, 0.0, 0.0, 1.0]",,0.00110056682024,0.00276676518843,0.00581867061555,"[1.2184696791468346e-07, 0.0, 0.0, 0.0, 1.2184696791468346e-07, 0.0, 0.0, 0.0, 1.2184696791468346e-07]",,-0.2941995,0.36284605,9.7674234,"[8.999999999999999e-08, 0.0, 0.0, 0.0, 8.999999999999999e-08, 0.0, 0.0, 0.0, 8.999999999999999e-08]"
1579257447476458244,,1747,,1579257447,476313585,"""base_link""",,0.000413852651134,0.00674934738158,0.441594458203,-0.897189282994,"[1.0, 0.0, 0.0, 0.0, 1.0, 0.0, 0.0, 0.0, 1.0]",,-0.0032013033051,0.000216298562009,0.00357859255746,"[1.2184696791468346e-07, 0.0, 0.0, 0.0, 1.2184696791468346e-07, 0.0, 0.0, 0.0, 1.2184696791468346e-07]",,-0.2941995,0.40207265,9.75761675,"[8.999999999999999e-08, 0.0, 0.0, 0.0, 8.999999999999999e-08, 0.0, 0.0, 0.0, 8.999999999999999e-08]"
1579257447740026197,,1748,,1579257447,739642836,"""base_link""",,0.000421714185462,0.00679262630494,0.441343024939,-0.897312663859,"[1.0, 0.0, 0.0, 0.0, 1.0, 0.0, 0.0, 0.0, 1.0]",,-0.00452244980261,-0.00168633053545,0.00225444929674,"[1.2184696791468346e-07, 0.0, 0.0, 0.0, 1.2184696791468346e-07, 0.0, 0.0, 0.0, 1.2184696791468346e-07]",,-0.2941995,0.3530394,9.77723005,"[8.999999999999999e-08, 0.0, 0.0, 0.0, 8.999999999999999e-08, 0.0, 0.0, 0.0, 8.999999999999999e-08]"
1579257447963404169,,1749,,1579257447,963149783,"""base_link""",,0.000700061800664,0.00652128041503,0.441237400601,-0.897366446401,"[1.0, 0.0, 0.0, 0.0, 1.0, 0.0, 0.0, 0.0, 1.0]",,0.00914066471159,0.0665931478143,0.0298625566065,"[1.2184696791468346e-07, 0.0, 0.0, 0.0, 1.2184696791468346e-07, 0.0, 0.0, 0.0, 1.2184696791468346e-07]",,-0.5295591,0.2157463,9.75761675,"[8.999999999999999e-08, 0.0, 0.0, 0.0, 8.999999999999999e-08, 0.0, 0.0, 0.0, 8.999999999999999e-08]"
1579257448205849757,,1750,,1579257448,205694559,"""base_link""",,0.0036916186139,0.00831623002859,0.437265203961,-0.899286580393,"[1.0, 0.0, 0.0, 0.0, 1.0, 0.0, 0.0, 0.0, 1.0]",,0.0554312430322,-0.00936897657812,0.164586305618,"[1.2184696791468346e-07, 0.0, 0.0, 0.0, 1.2184696791468346e-07, 0.0, 0.0, 0.0, 1.2184696791468346e-07]",,-0.67665885,0.4118793,12.83690485,"[8.999999999999999e-08, 0.0, 0.0, 0.0, 8.999999999999999e-08, 0.0, 0.0, 0.0, 8.999999999999999e-08]"
1579257448442215974,,1751,,1579257448,441886928,"""base_link""",,-0.0265417323492,0.0726722726985,0.395643471335,-0.915139618209,"[1.0, 0.0, 0.0, 0.0, 1.0, 0.0, 0.0, 0.0, 1.0]",,0.545056045055,-0.804282903671,0.661534845829,"[1.2184696791468346e-07, 0.0, 0.0, 0.0, 1.2184696791468346e-07, 0.0, 0.0, 0.0, 1.2184696791468346e-07]",,0.2941995,1.26505785,10.03220295,"[8.999999999999999e-08, 0.0, 0.0, 0.0, 8.999999999999999e-08, 0.0, 0.0, 0.0, 8.999999999999999e-08]"
1579257448693236824,,1752,,1579257448,693024949,"""base_link""",,-0.0448625226211,0.165847320156,0.275157817577,-0.945922933376,"[1.0, 0.0, 0.0, 0.0, 1.0, 0.0, 0.0, 0.0, 1.0]",,0.654720723629,0.0947870016098,1.06440782547,"[1.2184696791468346e-07, 0.0, 0.0, 0.0, 1.2184696791468346e-07, 0.0, 0.0, 0.0, 1.2184696791468346e-07]",,2.1182364,1.6082906,9.4928372,"[8.999999999999999e-08, 0.0, 0.0, 0.0, 8.999999999999999e-08, 0.0, 0.0, 0.0, 8.999999999999999e-08]"
1579257448929603833,,1753,,1579257448,929228912,"""base_link""",,-0.197497550335,0.101817811716,0.215529827325,-0.950881035862,"[1.0, 0.0, 0.0, 0.0, 1.0, 0.0, 0.0, 0.0, 1.0]",,1.5391780138,1.13942635059,-0.442865937948,"[1.2184696791468346e-07, 0.0, 0.0, 0.0, 1.2184696791468346e-07, 0.0, 0.0, 0.0, 1.2184696791468346e-07]",,0.8825985,3.85401345,7.9041599,"[8.999999999999999e-08, 0.0, 0.0, 0.0, 8.999999999999999e-08, 0.0, 0.0, 0.0, 8.999999999999999e-08]"
1579257449161512228,,1754,,1579257449,161287911,"""base_link""",,-0.340671344315,0.00279056465417,0.270763427113,-0.900345719404,"[1.0, 0.0, 0.0, 0.0, 1.0, 0.0, 0.0, 0.0, 1.0]",,0.239688202739,0.602356255054,-1.20851743221,"[1.2184696791468346e-07, 0.0, 0.0, 0.0, 1.2184696791468346e-07, 0.0, 0.0, 0.0, 1.2184696791468346e-07]",,-1.2160246,5.97224985,7.2176944,"[8.999999999999999e-08, 0.0, 0.0, 0.0, 8.999999999999999e-08, 0.0, 0.0, 0.0, 8.999999999999999e-08]"
1579257449410540287,,1755,,1579257449,410404579,"""base_link""",,-0.308614033685,-0.121578277184,0.392368303324,-0.857917953697,"[1.0, 0.0, 0.0, 0.0, 1.0, 0.0, 0.0, 0.0, 1.0]",,-0.829809248447,0.143176794052,-1.29593074322,"[1.2184696791468346e-07, 0.0, 0.0, 0.0, 1.2184696791468346e-07, 0.0, 0.0, 0.0, 1.2184696791468346e-07]",,-3.7069137,4.54047895,7.1588545,"[8.999999999999999e-08, 0.0, 0.0, 0.0, 8.999999999999999e-08, 0.0, 0.0, 0.0, 8.999999999999999e-08]"
1579257449644943605,,1756,,1579257449,644553611,"""base_link""",,-0.132323836733,-0.15819793376,0.464283847906,-0.861338681681,"[1.0, 0.0, 0.0, 0.0, 1.0, 0.0, 0.0, 0.0, 1.0]",,-1.45406484604,-1.23009705544,-0.155211225152,"[1.2184696791468346e-07, 0.0, 0.0, 0.0, 1.2184696791468346e-07, 0.0, 0.0, 0.0, 1.2184696791468346e-07]",,-3.5892339,1.61809725,8.69849855,"[8.999999999999999e-08, 0.0, 0.0, 0.0, 8.999999999999999e-08, 0.0, 0.0, 0.0, 8.999999999999999e-08]"
1579257449902072466,,1757,,1579257449,901894921,"""base_link""",,0.0802340064219,-0.0431753947595,0.423346510229,-0.901374573514,"[1.0, 0.0, 0.0, 0.0, 1.0, 0.0, 0.0, 0.0, 1.0]",,-0.780473589897,-2.04672694206,0.580181717873,"[1.2184696791468346e-07, 0.0, 0.0, 0.0, 1.2184696791468346e-07, 0.0, 0.0, 0.0, 1.2184696791468346e-07]",,-1.5494507,-2.4908891,10.3165958,"[8.999999999999999e-08, 0.0, 0.0, 0.0, 8.999999999999999e-08, 0.0, 0.0, 0.0, 8.999999999999999e-08]"
1579257450131352798,,1758,,1579257450,131190822,"""base_link""",,0.15615296622,0.103038352378,0.372237314133,-0.909086756612,"[1.0, 0.0, 0.0, 0.0, 1.0, 0.0, 0.0, 0.0, 1.0]",,0.551585972309,-0.876201510429,-0.206667721272,"[1.2184696791468346e-07, 0.0, 0.0, 0.0, 1.2184696791468346e-07, 0.0, 0.0, 0.0, 1.2184696791468346e-07]",,-0.2353596,-2.06920315,9.0417313,"[8.999999999999999e-08, 0.0, 0.0, 0.0, 8.999999999999999e-08, 0.0, 0.0, 0.0, 8.999999999999999e-08]"
1579257450378525387,,1759,,1579257450,378155899,"""base_link""",,0.110196218456,0.200683460009,0.374918407856,-0.89834243458,"[1.0, 0.0, 0.0, 0.0, 1.0, 0.0, 0.0, 0.0, 1.0]",,0.517437338829,-0.238217175007,0.00184177653864,"[1.2184696791468346e-07, 0.0, 0.0, 0.0, 1.2184696791468346e-07, 0.0, 0.0, 0.0, 1.2184696791468346e-07]",,4.4718324,0.6472389,9.1201845,"[8.999999999999999e-08, 0.0, 0.0, 0.0, 8.999999999999999e-08, 0.0, 0.0, 0.0, 8.999999999999999e-08]"
1579257450611222385,,1760,,1579257450,611050409,"""base_link""",,0.0361510962883,0.123037388566,0.346211381741,-0.929350621889,"[1.0, 0.0, 0.0, 0.0, 1.0, 0.0, 0.0, 0.0, 1.0]",,0.216824054718,2.0199739933,0.220454066992,"[1.2184696791468346e-07, 0.0, 0.0, 0.0, 1.2184696791468346e-07, 0.0, 0.0, 0.0, 1.2184696791468346e-07]",,4.50125235,1.26505785,8.22777935,"[8.999999999999999e-08, 0.0, 0.0, 0.0, 8.999999999999999e-08, 0.0, 0.0, 0.0, 8.999999999999999e-08]"
1579257450851759963,,1761,,1579257450,851613025,"""base_link""",,-0.040838921514,-0.181730864775,0.362593498536,-0.913144035789,"[1.0, 0.0, 0.0, 0.0, 1.0, 0.0, 0.0, 0.0, 1.0]",,-0.580764532089,2.58449649811,-0.697936356068,"[1.2184696791468346e-07, 0.0, 0.0, 0.0, 1.2184696791468346e-07, 0.0, 0.0, 0.0, 1.2184696791468346e-07]",,-1.08853815,-0.12748645,8.1787461,"[8.999999999999999e-08, 0.0, 0.0, 0.0, 8.999999999999999e-08, 0.0, 0.0, 0.0, 8.999999999999999e-08]"
1579257451090684475,,1762,,1579257451,90484347,"""base_link""",,-0.0610789852499,-0.386405507318,0.381033382241,-0.837719346257,"[1.0, 0.0, 0.0, 0.0, 1.0, 0.0, 0.0, 0.0, 1.0]",,-0.167497962713,1.09054481983,-0.121039181948,"[1.2184696791468346e-07, 0.0, 0.0, 0.0, 1.2184696791468346e-07, 0.0, 0.0, 0.0, 1.2184696791468346e-07]",,-7.24711435,-0.42168595,5.9624432,"[8.999999999999999e-08, 0.0, 0.0, 0.0, 8.999999999999999e-08, 0.0, 0.0, 0.0, 8.999999999999999e-08]"
1579257451344119777,,1763,,1579257451,343848181,"""base_link""",,-0.0683150080709,-0.45460466682,0.397690600702,-0.794046499073,"[1.0, 0.0, 0.0, 0.0, 1.0, 0.0, 0.0, 0.0, 1.0]",,0.0717876181006,0.547138333321,-0.310031712055,"[1.2184696791468346e-07, 0.0, 0.0, 0.0, 1.2184696791468346e-07, 0.0, 0.0, 0.0, 1.2184696791468346e-07]",,-8.01203305,-1.97113665,5.0210048,"[8.999999999999999e-08, 0.0, 0.0, 0.0, 8.999999999999999e-08, 0.0, 0.0, 0.0, 8.999999999999999e-08]"
1579257451579776516,,1764,,1579257451,579623184,"""base_link""",,-0.0950120243904,-0.489952215069,0.418890176984,-0.758584577879,"[1.0, 0.0, 0.0, 0.0, 1.0, 0.0, 0.0, 0.0, 1.0]",,0.246572911739,0.360541522503,-0.178447008133,"[1.2184696791468346e-07, 0.0, 0.0, 0.0, 1.2184696791468346e-07, 0.0, 0.0, 0.0, 1.2184696791468346e-07]",,-7.67860695,-1.69655045,4.81506515,"[8.999999999999999e-08, 0.0, 0.0, 0.0, 8.999999999999999e-08, 0.0, 0.0, 0.0, 8.999999999999999e-08]"
1579257451813906299,,1765,,1579257451,813723990,"""base_link""",,-0.088502454877,-0.48730347528,0.461586620938,-0.735962247559,"[1.0, 0.0, 0.0, 0.0, 1.0, 0.0, 0.0, 0.0, 1.0]",,0.0584002621472,-0.421227127314,-0.7222417593,"[1.2184696791468346e-07, 0.0, 0.0, 0.0, 1.2184696791468346e-07, 0.0, 0.0, 0.0, 1.2184696791468346e-07]",,-8.4533323,-4.1580196,5.4721107,"[8.999999999999999e-08, 0.0, 0.0, 0.0, 8.999999999999999e-08, 0.0, 0.0, 0.0, 8.999999999999999e-08]"
1579257452064247195,,1766,,1579257452,63891997,"""base_link""",,-0.0495892049082,-0.382574667349,0.492835630468,-0.779929853256,"[1.0, 0.0, 0.0, 0.0, 1.0, 0.0, 0.0, 0.0, 1.0]",,0.506664097309,-1.29208505154,0.640137195587,"[1.2184696791468346e-07, 0.0, 0.0, 0.0, 1.2184696791468346e-07, 0.0, 0.0, 0.0, 1.2184696791468346e-07]",,-8.63965865,-3.22638785,6.12915625,"[8.999999999999999e-08, 0.0, 0.0, 0.0, 8.999999999999999e-08, 0.0, 0.0, 0.0, 8.999999999999999e-08]"
1579257452296525255,,1767,,1579257452,296365049,"""base_link""",,-0.000385014518594,-0.18601134081,0.489646264041,-0.851848677268,"[1.0, 0.0, 0.0, 0.0, 1.0, 0.0, 0.0, 0.0, 1.0]",,0.150885984302,-1.76903235912,0.0967648327351,"[1.2184696791468346e-07, 0.0, 0.0, 0.0, 1.2184696791468346e-07, 0.0, 0.0, 0.0, 1.2184696791468346e-07]",,-5.95263655,-1.20621795,7.48247395,"[8.999999999999999e-08, 0.0, 0.0, 0.0, 8.999999999999999e-08, 0.0, 0.0, 0.0, 8.999999999999999e-08]"
1579257452547660412,,1768,,1579257452,547474027,"""base_link""",,0.104188247986,0.0170009979893,0.484834324399,-0.868211640635,"[1.0, 0.0, 0.0, 0.0, 1.0, 0.0, 0.0, 0.0, 1.0]",,0.0546263307333,-1.90023517609,-0.227542102337,"[1.2184696791468346e-07, 0.0, 0.0, 0.0, 1.2184696791468346e-07, 0.0, 0.0, 0.0, 1.2184696791468346e-07]",,-0.6080123,-1.34351105,8.5121722,"[8.999999999999999e-08, 0.0, 0.0, 0.0, 8.999999999999999e-08, 0.0, 0.0, 0.0, 8.999999999999999e-08]"
1579257452781031031,,1769,,1579257452,780705505,"""base_link""",,0.222287105668,0.226704300284,0.468940262228,-0.824189682869,"[1.0, 0.0, 0.0, 0.0, 1.0, 0.0, 0.0, 0.0, 1.0]",,-0.042009215802,-2.23730301857,0.052238740027,"[1.2184696791468346e-07, 0.0, 0.0, 0.0, 1.2184696791468346e-07, 0.0, 0.0, 0.0, 1.2184696791468346e-07]",,3.8442068,-2.34378935,7.16866115,"[8.999999999999999e-08, 0.0, 0.0, 0.0, 8.999999999999999e-08, 0.0, 0.0, 0.0, 8.999999999999999e-08]"
1579257453019500440,,1770,,1579257453,19361034,"""base_link""",,0.290156740183,0.380783259607,0.360880205439,-0.800361576197,"[1.0, 0.0, 0.0, 0.0, 1.0, 0.0, 0.0, 0.0, 1.0]",,0.507929980755,-0.198123008013,0.658399343491,"[1.2184696791468346e-07, 0.0, 0.0, 0.0, 1.2184696791468346e-07, 0.0, 0.0, 0.0, 1.2184696791468346e-07]",,8.16893945,-1.63771055,7.5511205,"[8.999999999999999e-08, 0.0, 0.0, 0.0, 8.999999999999999e-08, 0.0, 0.0, 0.0, 8.999999999999999e-08]"
1579257453276194375,,1771,,1579257453,275830218,"""base_link""",,0.24301982078,0.204933946782,0.232677714055,-0.919132485307,"[1.0, 0.0, 0.0, 0.0, 1.0, 0.0, 0.0, 0.0, 1.0]",,0.349770694971,2.12300300598,2.01110744476,"[1.2184696791468346e-07, 0.0, 0.0, 0.0, 1.2184696791468346e-07, 0.0, 0.0, 0.0, 1.2184696791468346e-07]",,3.6088472,-2.50069575,9.40457735,"[8.999999999999999e-08, 0.0, 0.0, 0.0, 8.999999999999999e-08, 0.0, 0.0, 0.0, 8.999999999999999e-08]"
1579257453508684970,,1772,,1579257453,508478074,"""base_link""",,0.176638898502,-0.0978170813143,0.103579203024,-0.973910605158,"[1.0, 0.0, 0.0, 0.0, 1.0, 0.0, 0.0, 0.0, 1.0]",,0.59436160326,2.75067090988,0.874975502491,"[1.2184696791468346e-07, 0.0, 0.0, 0.0, 1.2184696791468346e-07, 0.0, 0.0, 0.0, 1.2184696791468346e-07]",,-0.3334261,-3.8834334,9.46341725,"[8.999999999999999e-08, 0.0, 0.0, 0.0, 8.999999999999999e-08, 0.0, 0.0, 0.0, 8.999999999999999e-08]"
1579257453744558702,,1773,,1579257453,744361770,"""base_link""",,0.02026238529,-0.357890768752,0.186523773662,-0.914719910816,"[1.0, 0.0, 0.0, 0.0, 1.0, 0.0, 0.0, 0.0, 1.0]",,1.53823161125,1.99411177635,-0.919982075691,"[1.2184696791468346e-07, 0.0, 0.0, 0.0, 1.2184696791468346e-07, 0.0, 0.0, 0.0, 1.2184696791468346e-07]",,-4.4522191,-2.4516625,7.1196279,"[8.999999999999999e-08, 0.0, 0.0, 0.0, 8.999999999999999e-08, 0.0, 0.0, 0.0, 8.999999999999999e-08]"
1579257453990187944,,1774,,1579257453,989894722,"""base_link""",,-0.0832133910874,-0.485932802744,0.366347430106,-0.789135224924,"[1.0, 0.0, 0.0, 0.0, 1.0, 0.0, 0.0, 0.0, 1.0]",,0.742744207382,0.489253640175,-1.77942872047,"[1.2184696791468346e-07, 0.0, 0.0, 0.0, 1.2184696791468346e-07, 0.0, 0.0, 0.0, 1.2184696791468346e-07]",,-7.9433865,-2.57914895,5.52114395,"[8.999999999999999e-08, 0.0, 0.0, 0.0, 8.999999999999999e-08, 0.0, 0.0, 0.0, 8.999999999999999e-08]"
1579257454227517357,,1775,,1579257454,227401732,"""base_link""",,0.0640731663214,-0.399784443642,0.555526064826,-0.726262913329,"[1.0, 0.0, 0.0, 0.0, 1.0, 0.0, 0.0, 0.0, 1.0]",,-0.151410698891,-2.1427628994,-1.62783408165,"[1.2184696791468346e-07, 0.0, 0.0, 0.0, 1.2184696791468346e-07, 0.0, 0.0, 0.0, 1.2184696791468346e-07]",,-7.54131385,-6.18799615,5.73689025,"[8.999999999999999e-08, 0.0, 0.0, 0.0, 8.999999999999999e-08, 0.0, 0.0, 0.0, 8.999999999999999e-08]"
1579257454463701193,,1776,,1579257454,463525448,"""base_link""",,0.279474575168,-0.168993790909,0.590527732177,-0.737978358761,"[1.0, 0.0, 0.0, 0.0, 1.0, 0.0, 0.0, 0.0, 1.0]",,0.368069291115,-2.69143509865,-0.430649638176,"[1.2184696791468346e-07, 0.0, 0.0, 0.0, 1.2184696791468346e-07, 0.0, 0.0, 0.0, 1.2184696791468346e-07]",,-0.59820565,-6.32528925,6.8842683,"[8.999999999999999e-08, 0.0, 0.0, 0.0, 8.999999999999999e-08, 0.0, 0.0, 0.0, 8.999999999999999e-08]"
1579257454701759902,,1777,,1579257454,701405921,"""base_link""",,0.413798249294,0.122703577462,0.466195356362,-0.77225431735,"[1.0, 0.0, 0.0, 0.0, 1.0, 0.0, 0.0, 0.0, 1.0]",,0.469706743956,-2.67773270607,0.456142991781,"[1.2184696791468346e-07, 0.0, 0.0, 0.0, 1.2184696791468346e-07, 0.0, 0.0, 0.0, 1.2184696791468346e-07]",,5.77611685,-4.8837117,5.8251501,"[8.999999999999999e-08, 0.0, 0.0, 0.0, 8.999999999999999e-08, 0.0, 0.0, 0.0, 8.999999999999999e-08]"
1579257454938506303,,1778,,1579257454,938372763,"""base_link""",,0.510823605543,0.283942147349,0.303860667778,-0.752399359088,"[1.0, 0.0, 0.0, 0.0, 1.0, 0.0, 0.0, 0.0, 1.0]",,-0.253486126661,-1.68018364906,0.623592197895,"[1.2184696791468346e-07, 0.0, 0.0, 0.0, 1.2184696791468346e-07, 0.0, 0.0, 0.0, 1.2184696791468346e-07]",,7.16866115,-6.1585762,3.138128,"[8.999999999999999e-08, 0.0, 0.0, 0.0, 8.999999999999999e-08, 0.0, 0.0, 0.0, 8.999999999999999e-08]"
1579257455193524925,,1779,,1579257455,193321801,"""base_link""",,0.538652880964,0.351337971978,0.212492706301,-0.735704800205,"[1.0, 0.0, 0.0, 0.0, 1.0, 0.0, 0.0, 0.0, 1.0]",,0.535263478756,-0.713411867619,0.0933527424932,"[1.2184696791468346e-07, 0.0, 0.0, 0.0, 1.2184696791468346e-07, 0.0, 0.0, 0.0, 1.2184696791468346e-07]",,7.97280645,-7.44324735,1.2356379,"[8.999999999999999e-08, 0.0, 0.0, 0.0, 8.999999999999999e-08, 0.0, 0.0, 0.0, 8.999999999999999e-08]"
1579257455429749349,,1780,,1579257455,429410271,"""base_link""",,0.396647608155,0.429948867418,0.171201141905,-0.792782956023,"[1.0, 0.0, 0.0, 0.0, 1.0, 0.0, 0.0, 0.0, 1.0]",,2.1259021759,0.500852942467,-0.630676150322,"[1.2184696791468346e-07, 0.0, 0.0, 0.0, 1.2184696791468346e-07, 0.0, 0.0, 0.0, 1.2184696791468346e-07]",,9.95374975,-6.89407495,2.2163029,"[8.999999999999999e-08, 0.0, 0.0, 0.0, 8.999999999999999e-08, 0.0, 0.0, 0.0, 8.999999999999999e-08]"
1579257455667598492,,1781,,1579257455,667403946,"""base_link""",,0.0616007415977,0.355753293221,0.13846279875,-0.922210928345,"[1.0, 0.0, 0.0, 0.0, 1.0, 0.0, 0.0, 0.0, 1.0]",,3.21955800056,1.61333179474,-1.02014672756,"[1.2184696791468346e-07, 0.0, 0.0, 0.0, 1.2184696791468346e-07, 0.0, 0.0, 0.0, 1.2184696791468346e-07]",,6.5508422,-0.588399,6.08992965,"[8.999999999999999e-08, 0.0, 0.0, 0.0, 8.999999999999999e-08, 0.0, 0.0, 0.0, 8.999999999999999e-08]"
1579257455909334584,,1782,,1579257455,909156017,"""base_link""",,-0.318435285639,0.291216075506,0.19692186211,-0.880348764099,"[1.0, 0.0, 0.0, 0.0, 1.0, 0.0, 0.0, 0.0, 1.0]",,2.25356340408,0.0305765178055,-1.55995535851,"[1.2184696791468346e-07, 0.0, 0.0, 0.0, 1.2184696791468346e-07, 0.0, 0.0, 0.0, 1.2184696791468346e-07]",,1.95152335,7.36479415,4.8248718,"[8.999999999999999e-08, 0.0, 0.0, 0.0, 8.999999999999999e-08, 0.0, 0.0, 0.0, 8.999999999999999e-08]"
1579257456144353109,,1783,,1579257456,143980783,"""base_link""",,-0.433587115518,0.248403517325,0.244909448801,-0.830853337073,"[1.0, 0.0, 0.0, 0.0, 1.0, 0.0, 0.0, 0.0, 1.0]",,-0.410281687975,0.124186657369,-0.315177857876,"[1.2184696791468346e-07, 0.0, 0.0, 0.0, 1.2184696791468346e-07, 0.0, 0.0, 0.0, 1.2184696791468346e-07]",,0.97085835,8.3552658,4.10898635,"[8.999999999999999e-08, 0.0, 0.0, 0.0, 8.999999999999999e-08, 0.0, 0.0, 0.0, 8.999999999999999e-08]"
1579257456402107067,,1784,,1579257456,401970858,"""base_link""",,-0.402527821952,0.279830623042,0.215664495238,-0.844485050463,"[1.0, 0.0, 0.0, 0.0, 1.0, 0.0, 0.0, 0.0, 1.0]",,0.0883063226938,-0.386988043785,1.02309560776,"[1.2184696791468346e-07, 0.0, 0.0, 0.0, 1.2184696791468346e-07, 0.0, 0.0, 0.0, 1.2184696791468346e-07]",,3.03025485,8.09048625,5.1386846,"[8.999999999999999e-08, 0.0, 0.0, 0.0, 8.999999999999999e-08, 0.0, 0.0, 0.0, 8.999999999999999e-08]"
1579257456638224221,,1785,,1579257456,638055801,"""base_link""",,-0.346426434982,0.374178606232,0.137084288637,-0.849227292068,"[1.0, 0.0, 0.0, 0.0, 1.0, 0.0, 0.0, 0.0, 1.0]",,-0.185813039541,-0.335383117199,0.713123142719,"[1.2184696791468346e-07, 0.0, 0.0, 0.0, 1.2184696791468346e-07, 0.0, 0.0, 0.0, 1.2184696791468346e-07]",,5.1582979,7.24711435,4.63854545,"[8.999999999999999e-08, 0.0, 0.0, 0.0, 8.999999999999999e-08, 0.0, 0.0, 0.0, 8.999999999999999e-08]"
1579257456872946337,,1786,,1579257456,872551176,"""base_link""",,-0.314901010564,0.405963182161,0.121379652182,-0.849292781266,"[1.0, 0.0, 0.0, 0.0, 1.0, 0.0, 0.0, 0.0, 1.0]",,0.108140207827,-0.126365229487,0.0201807618141,"[1.2184696791468346e-07, 0.0, 0.0, 0.0, 1.2184696791468346e-07, 0.0, 0.0, 0.0, 1.2184696791468346e-07]",,5.8251501,6.10954295,4.5698989,"[8.999999999999999e-08, 0.0, 0.0, 0.0, 8.999999999999999e-08, 0.0, 0.0, 0.0, 8.999999999999999e-08]"
1579257457121207637,,1787,,1579257457,121016867,"""base_link""",,-0.354926559365,0.417334418746,0.122825202886,-0.827510175118,"[1.0, 0.0, 0.0, 0.0, 1.0, 0.0, 0.0, 0.0, 1.0]",,0.385302364826,-0.0761158391833,-0.215640157461,"[1.2184696791468346e-07, 0.0, 0.0, 0.0, 1.2184696791468346e-07, 0.0, 0.0, 0.0, 1.2184696791468346e-07]",,5.52114395,7.0019481,3.89324005,"[8.999999999999999e-08, 0.0, 0.0, 0.0, 8.999999999999999e-08, 0.0, 0.0, 0.0, 8.999999999999999e-08]"
1579257457362672678,,1788,,1579257457,362493859,"""base_link""",,-0.392579639055,0.436011196295,0.117104404835,-0.801287727395,"[1.0, 0.0, 0.0, 0.0, 1.0, 0.0, 0.0, 0.0, 1.0]",,0.471353173256,-0.330360949039,0.0936886444688,"[1.2184696791468346e-07, 0.0, 0.0, 0.0, 1.2184696791468346e-07, 0.0, 0.0, 0.0, 1.2184696791468346e-07]",,5.1582979,7.4138274,2.8635418,"[8.999999999999999e-08, 0.0, 0.0, 0.0, 8.999999999999999e-08, 0.0, 0.0, 0.0, 8.999999999999999e-08]"
1579257457600564839,,1789,,1579257457,600462466,"""base_link""",,-0.441377910219,0.511589417034,0.097738605863,-0.730690751052,"[1.0, 0.0, 0.0, 0.0, 1.0, 0.0, 0.0, 0.0, 1.0]",,1.03502964973,-0.919306516647,0.183525875211,"[1.2184696791468346e-07, 0.0, 0.0, 0.0, 1.2184696791468346e-07, 0.0, 0.0, 0.0, 1.2184696791468346e-07]",,5.93302325,7.71783355,1.0787315,"[8.999999999999999e-08, 0.0, 0.0, 0.0, 8.999999999999999e-08, 0.0, 0.0, 0.0, 8.999999999999999e-08]"
1579257457839336983,,1790,,1579257457,838996060,"""base_link""",,-0.487574278826,0.575531363691,0.0760459840656,-0.652113471984,"[1.0, 0.0, 0.0, 0.0, 1.0, 0.0, 0.0, 0.0, 1.0]",,-0.0124515835196,-0.0423333272338,0.102093607187,"[1.2184696791468346e-07, 0.0, 0.0, 0.0, 1.2184696791468346e-07, 0.0, 0.0, 0.0, 1.2184696791468346e-07]",,6.93330155,8.0022264,-2.1378497,"[8.999999999999999e-08, 0.0, 0.0, 0.0, 8.999999999999999e-08, 0.0, 0.0, 0.0, 8.999999999999999e-08]"
1579257458074709568,,1791,,1579257458,74572018,"""base_link""",,-0.417989067975,0.567276631005,0.0846996689855,-0.704491539369,"[1.0, 0.0, 0.0, 0.0, 1.0, 0.0, 0.0, 0.0, 1.0]",,-0.873541772366,0.223426610231,0.411184757948,"[1.2184696791468346e-07, 0.0, 0.0, 0.0, 1.2184696791468346e-07, 0.0, 0.0, 0.0, 1.2184696791468346e-07]",,6.75678185,7.2176944,-0.392266,"[8.999999999999999e-08, 0.0, 0.0, 0.0, 8.999999999999999e-08, 0.0, 0.0, 0.0, 8.999999999999999e-08]"
1579257458328257172,,1792,,1579257458,328109715,"""base_link""",,-0.344747929233,0.506521857881,0.12179824882,-0.780864686974,"[1.0, 0.0, 0.0, 0.0, 1.0, 0.0, 0.0, 0.0, 1.0]",,-0.979828774929,0.981735765934,-0.742763519287,"[1.2184696791468346e-07, 0.0, 0.0, 0.0, 1.2184696791468346e-07, 0.0, 0.0, 0.0, 1.2184696791468346e-07]",,6.50180895,6.5312289,2.8831551,"[8.999999999999999e-08, 0.0, 0.0, 0.0, 8.999999999999999e-08, 0.0, 0.0, 0.0, 8.999999999999999e-08]"
1579257458559788532,,1793,,1579257458,559438604,"""base_link""",,-0.35798576777,0.321702286282,0.233462761285,-0.844895832732,"[1.0, 0.0, 0.0, 0.0, 1.0, 0.0, 0.0, 0.0, 1.0]",,-0.416947007179,1.43936383724,-1.41407179832,"[1.2184696791468346e-07, 0.0, 0.0, 0.0, 1.2184696791468346e-07, 0.0, 0.0, 0.0, 1.2184696791468346e-07]",,3.1185147,8.0610663,4.44241245,"[8.999999999999999e-08, 0.0, 0.0, 0.0, 8.999999999999999e-08, 0.0, 0.0, 0.0, 8.999999999999999e-08]"
1579257458801164030,,1794,,1579257458,800956003,"""base_link""",,-0.413589068654,0.10183888913,0.328446409282,-0.843027804512,"[1.0, 0.0, 0.0, 0.0, 1.0, 0.0, 0.0, 0.0, 1.0]",,-0.270670413971,1.31663823128,-1.63965129852,"[1.2184696791468346e-07, 0.0, 0.0, 0.0, 1.2184696791468346e-07, 0.0, 0.0, 0.0, 1.2184696791468346e-07]",,-1.81423025,7.8649333,5.42307745,"[8.999999999999999e-08, 0.0, 0.0, 0.0, 8.999999999999999e-08, 0.0, 0.0, 0.0, 8.999999999999999e-08]"
1579257459036309391,,1795,,1579257459,36218959,"""base_link""",,-0.457789631121,-0.126148807887,0.421793788641,-0.772402182655,"[1.0, 0.0, 0.0, 0.0, 1.0, 0.0, 0.0, 0.0, 1.0]",,-0.0815467685461,1.08854532242,-1.83981406689,"[1.2184696791468346e-07, 0.0, 0.0, 0.0, 1.2184696791468346e-07, 0.0, 0.0, 0.0, 1.2184696791468346e-07]",,-4.71699865,6.12915625,5.24655775,"[8.999999999999999e-08, 0.0, 0.0, 0.0, 8.999999999999999e-08, 0.0, 0.0, 0.0, 8.999999999999999e-08]"
1579257459276072089,,1796,,1579257459,275750168,"""base_link""",,-0.414756688093,-0.30504994128,0.522284466244,-0.679809060934,"[1.0, 0.0, 0.0, 0.0, 1.0, 0.0, 0.0, 0.0, 1.0]",,-0.92790222168,0.089579731226,-1.39505755901,"[1.2184696791468346e-07, 0.0, 0.0, 0.0, 1.2184696791468346e-07, 0.0, 0.0, 0.0, 1.2184696791468346e-07]",,-8.0610663,3.38329425,3.87362675,"[8.999999999999999e-08, 0.0, 0.0, 0.0, 8.999999999999999e-08, 0.0, 0.0, 0.0, 8.999999999999999e-08]"
1579257459521936877,,1797,,1579257459,521761390,"""base_link""",,-0.194243292728,-0.409340892464,0.560558791633,-0.693169112202,"[1.0, 0.0, 0.0, 0.0, 1.0, 0.0, 0.0, 0.0, 1.0]",,-1.91915953159,-1.34696424007,-0.956654131413,"[1.2184696791468346e-07, 0.0, 0.0, 0.0, 1.2184696791468346e-07, 0.0, 0.0, 0.0, 1.2184696791468346e-07]",,-8.2179727,-1.8632635,6.05070305,"[8.999999999999999e-08, 0.0, 0.0, 0.0, 8.999999999999999e-08, 0.0, 0.0, 0.0, 8.999999999999999e-08]"
1579257459756463294,,1798,,1579257459,756319834,"""base_link""",,0.0899380917211,-0.335436027039,0.560164943058,-0.752069842495,"[1.0, 0.0, 0.0, 0.0, 1.0, 0.0, 0.0, 0.0, 1.0]",,-0.719681322575,-2.65556573868,-0.825325250626,"[1.2184696791468346e-07, 0.0, 0.0, 0.0, 1.2184696791468346e-07, 0.0, 0.0, 0.0, 1.2184696791468346e-07]",,-4.9621649,-5.30539765,7.5118939,"[8.999999999999999e-08, 0.0, 0.0, 0.0, 8.999999999999999e-08, 0.0, 0.0, 0.0, 8.999999999999999e-08]"
1579257459999465567,,1799,,1579257459,999219865,"""base_link""",,0.312146316954,-0.132660601221,0.576183220477,-0.743625401756,"[1.0, 0.0, 0.0, 0.0, 1.0, 0.0, 0.0, 0.0, 1.0]",,-0.546867191792,-2.22035241127,-0.694708883762,"[1.2184696791468346e-07, 0.0, 0.0, 0.0, 1.2184696791468346e-07, 0.0, 0.0, 0.0, 1.2184696791468346e-07]",,-0.06864655,-6.22722275,8.20816605,"[8.999999999999999e-08, 0.0, 0.0, 0.0, 8.999999999999999e-08, 0.0, 0.0, 0.0, 8.999999999999999e-08]"
1579257460243878194,,1800,,1579257460,243733939,"""base_link""",,0.502111478178,0.0705189258837,0.526446449348,-0.682469985086,"[1.0, 0.0, 0.0, 0.0, 1.0, 0.0, 0.0, 0.0, 1.0]",,-0.426784217358,-2.28426909447,-0.493749201298,"[1.2184696791468346e-07, 0.0, 0.0, 0.0, 1.2184696791468346e-07, 0.0, 0.0, 0.0, 1.2184696791468346e-07]",,5.18771785,-5.2367511,5.08965135,"[8.999999999999999e-08, 0.0, 0.0, 0.0, 8.999999999999999e-08, 0.0, 0.0, 0.0, 8.999999999999999e-08]"
1579257460495046308,,1801,,1579257460,494869309,"""base_link""",,0.610918963171,0.236635849124,0.448671358524,-0.607844969863,"[1.0, 0.0, 0.0, 0.0, 1.0, 0.0, 0.0, 0.0, 1.0]",,-0.146892204881,-1.44336080551,-0.408075720072,"[1.2184696791468346e-07, 0.0, 0.0, 0.0, 1.2184696791468346e-07, 0.0, 0.0, 0.0, 1.2184696791468346e-07]",,6.83523505,-6.0212831,0.75511205,"[8.999999999999999e-08, 0.0, 0.0, 0.0, 8.999999999999999e-08, 0.0, 0.0, 0.0, 8.999999999999999e-08]"
1579257460726041893,,1802,,1579257460,725590520,"""base_link""",,0.650488965915,0.31204473843,0.387064884226,-0.574171543914,"[1.0, 0.0, 0.0, 0.0, 1.0, 0.0, 0.0, 0.0, 1.0]",,0.178228661418,-0.474810510874,0.296451300383,"[1.2184696791468346e-07, 0.0, 0.0, 0.0, 1.2184696791468346e-07, 0.0, 0.0, 0.0, 1.2184696791468346e-07]",,8.3944924,-5.67805035,0.196133,"[8.999999999999999e-08, 0.0, 0.0, 0.0, 8.999999999999999e-08, 0.0, 0.0, 0.0, 8.999999999999999e-08]"
1579257460968260103,,1803,,1579257460,968062393,"""base_link""",,0.662228683608,0.308623232214,0.293397464042,-0.616540995586,"[1.0, 0.0, 0.0, 0.0, 1.0, 0.0, 0.0, 0.0, 1.0]",,0.734741747379,-0.435732752085,0.541124284267,"[1.2184696791468346e-07, 0.0, 0.0, 0.0, 1.2184696791468346e-07, 0.0, 0.0, 0.0, 1.2184696791468346e-07]",,7.4922806,-6.864655,-1.1375714,"[8.999999999999999e-08, 0.0, 0.0, 0.0, 8.999999999999999e-08, 0.0, 0.0, 0.0, 8.999999999999999e-08]"
1579257461198380850,,1804,,1579257461,198293978,"""base_link""",,0.651341100533,0.33919080824,0.203472562088,-0.647536317777,"[1.0, 0.0, 0.0, 0.0, 1.0, 0.0, 0.0, 0.0, 1.0]",,0.364544630051,-0.526229381561,0.0504299402237,"[1.2184696791468346e-07, 0.0, 0.0, 0.0, 1.2184696791468346e-07, 0.0, 0.0, 0.0, 1.2184696791468346e-07]",,6.83523505,-7.38440745,-1.4513842,"[8.999999999999999e-08, 0.0, 0.0, 0.0, 8.999999999999999e-08, 0.0, 0.0, 0.0, 8.999999999999999e-08]"
1579257461453839754,,1805,,1579257461,453416903,"""base_link""",,0.644284851942,0.38569000919,0.15140883589,-0.642818489765,"[1.0, 0.0, 0.0, 0.0, 1.0, 0.0, 0.0, 0.0, 1.0]",,0.086428694427,-0.444123834372,-0.0687224119902,"[1.2184696791468346e-07, 0.0, 0.0, 0.0, 1.2184696791468346e-07, 0.0, 0.0, 0.0, 1.2184696791468346e-07]",,6.4331624,-7.4922806,-1.3533177,"[8.999999999999999e-08, 0.0, 0.0, 0.0, 8.999999999999999e-08, 0.0, 0.0, 0.0, 8.999999999999999e-08]"
1579257461699007274,,1806,,1579257461,698833577,"""base_link""",,0.631517823988,0.41699910522,0.128827014087,-0.640859254964,"[1.0, 0.0, 0.0, 0.0, 1.0, 0.0, 0.0, 0.0, 1.0]",,0.177835255861,-0.158752128482,-0.0609306842089,"[1.2184696791468346e-07, 0.0, 0.0, 0.0, 1.2184696791468346e-07, 0.0, 0.0, 0.0, 1.2184696791468346e-07]",,6.5704555,-7.4138274,-2.1378497,"[8.999999999999999e-08, 0.0, 0.0, 0.0, 8.999999999999999e-08, 0.0, 0.0, 0.0, 8.999999999999999e-08]"
1579257461927584492,,1807,,1579257461,927415311,"""base_link""",,0.61005433777,0.426527200175,0.12305691386,-0.656327089514,"[1.0, 0.0, 0.0, 0.0, 1.0, 0.0, 0.0, 0.0, 1.0]",,0.376444578171,0.12938117981,-0.176526367664,"[1.2184696791468346e-07, 0.0, 0.0, 0.0, 1.2184696791468346e-07, 0.0, 0.0, 0.0, 1.2184696791468346e-07]",,6.7273619,-7.84532,-1.3925443,"[8.999999999999999e-08, 0.0, 0.0, 0.0, 8.999999999999999e-08, 0.0, 0.0, 0.0, 8.999999999999999e-08]"
1579257462172532659,,1808,,1579257462,172192190,"""base_link""",,0.519491900843,0.42421607954,0.107746386683,-0.733866199641,"[1.0, 0.0, 0.0, 0.0, 1.0, 0.0, 0.0, 0.0, 1.0]",,1.35823130608,0.434758424759,-0.0298475641757,"[1.2184696791468346e-07, 0.0, 0.0, 0.0, 1.2184696791468346e-07, 0.0, 0.0, 0.0, 1.2184696791468346e-07]",,6.7665885,-7.7668668,1.08853815,"[8.999999999999999e-08, 0.0, 0.0, 0.0, 8.999999999999999e-08, 0.0, 0.0, 0.0, 8.999999999999999e-08]"
1579257462410683874,,1809,,1579257462,410532079,"""base_link""",,0.36548310087,0.41307510184,0.0476284413393,-0.832780039863,"[1.0, 0.0, 0.0, 0.0, 1.0, 0.0, 0.0, 0.0, 1.0]",,1.86927115917,0.333636790514,-0.115807108581,"[1.2184696791468346e-07, 0.0, 0.0, 0.0, 1.2184696791468346e-07, 0.0, 0.0, 0.0, 1.2184696791468346e-07]",,6.99214145,-6.0016698,3.50097405,"[8.999999999999999e-08, 0.0, 0.0, 0.0, 8.999999999999999e-08, 0.0, 0.0, 0.0, 8.999999999999999e-08]"
1579257462653022825,,1810,,1579257462,652886959,"""base_link""",,0.139857949928,0.352555714022,0.014607272556,-0.925165309521,"[1.0, 0.0, 0.0, 0.0, 1.0, 0.0, 0.0, 0.0, 1.0]",,1.97210896015,1.00638079643,-0.872713804245,"[1.2184696791468346e-07, 0.0, 0.0, 0.0, 1.2184696791468346e-07, 0.0, 0.0, 0.0, 1.2184696791468346e-07]",,6.5116156,-2.10842975,6.9234949,"[8.999999999999999e-08, 0.0, 0.0, 0.0, 8.999999999999999e-08, 0.0, 0.0, 0.0, 8.999999999999999e-08]"
1579257462894308959,,1811,,1579257462,894123231,"""base_link""",,-0.095130747357,0.223218076773,0.0992013382326,-0.965030012798,"[1.0, 0.0, 0.0, 0.0, 1.0, 0.0, 0.0, 0.0, 1.0]",,0.702253520489,1.03146481514,-1.51182568073,"[1.2184696791468346e-07, 0.0, 0.0, 0.0, 1.2184696791468346e-07, 0.0, 0.0, 0.0, 1.2184696791468346e-07]",,4.1384063,3.3538743,7.69822025,"[8.999999999999999e-08, 0.0, 0.0, 0.0, 8.999999999999999e-08, 0.0, 0.0, 0.0, 8.999999999999999e-08]"
1579257463148788081,,1812,,1579257463,148587000,"""base_link""",,-0.215010612438,0.0181769091933,0.243648616554,-0.945555597605,"[1.0, 0.0, 0.0, 0.0, 1.0, 0.0, 0.0, 0.0, 1.0]",,0.204130232334,1.91013383865,-1.91055238247,"[1.2184696791468346e-07, 0.0, 0.0, 0.0, 1.2184696791468346e-07, 0.0, 0.0, 0.0, 1.2184696791468346e-07]",,-0.77472535,3.63826715,8.2179727,"[8.999999999999999e-08, 0.0, 0.0, 0.0, 8.999999999999999e-08, 0.0, 0.0, 0.0, 8.999999999999999e-08]"
1579257463376654368,,1813,,1579257463,376464472,"""base_link""",,-0.244032014296,-0.272317949583,0.389577122276,-0.845293426055,"[1.0, 0.0, 0.0, 0.0, 1.0, 0.0, 0.0, 0.0, 1.0]",,-0.284838378429,1.86221599579,-2.11992955208,"[1.2184696791468346e-07, 0.0, 0.0, 0.0, 1.2184696791468346e-07, 0.0, 0.0, 0.0, 1.2184696791468346e-07]",,-6.3547092,1.52003075,5.6486304,"[8.999999999999999e-08, 0.0, 0.0, 0.0, 8.999999999999999e-08, 0.0, 0.0, 0.0, 8.999999999999999e-08]"
1579257463626673153,,1814,,1579257463,626346301,"""base_link""",,0.162213496342,0.449679380732,-0.550624875598,0.684315338511,"[1.0, 0.0, 0.0, 0.0, 1.0, 0.0, 0.0, 0.0, 1.0]",,-0.115746736526,-0.00245672650635,-2.02483510971,"[1.2184696791468346e-07, 0.0, 0.0, 0.0, 1.2184696791468346e-07, 0.0, 0.0, 0.0, 1.2184696791468346e-07]",,-8.433719,-2.3143694,5.42307745,"[8.999999999999999e-08, 0.0, 0.0, 0.0, 8.999999999999999e-08, 0.0, 0.0, 0.0, 8.999999999999999e-08]"
1579257463853204267,,1815,,1579257463,853037482,"""base_link""",,0.0176964092212,0.3558264869,-0.722762966885,0.592189194447,"[1.0, 0.0, 0.0, 0.0, 1.0, 0.0, 0.0, 0.0, 1.0]",,1.04064869881,-1.91942000389,-1.51771903038,"[1.2184696791468346e-07, 0.0, 0.0, 0.0, 1.2184696791468346e-07, 0.0, 0.0, 0.0, 1.2184696791468346e-07]",,-6.472389,-5.01119815,7.36479415,"[8.999999999999999e-08, 0.0, 0.0, 0.0, 8.999999999999999e-08, 0.0, 0.0, 0.0, 8.999999999999999e-08]"
1579257464102500298,,1816,,1579257464,102378992,"""base_link""",,-0.116235367033,0.0533973252177,-0.790721053751,0.598663745575,"[1.0, 0.0, 0.0, 0.0, 1.0, 0.0, 0.0, 0.0, 1.0]",,1.55938303471,-2.27673006058,0.0973152294755,"[1.2184696791468346e-07, 0.0, 0.0, 0.0, 1.2184696791468346e-07, 0.0, 0.0, 0.0, 1.2184696791468346e-07]",,0.196133,-2.6281822,9.99297635,"[8.999999999999999e-08, 0.0, 0.0, 0.0, 8.999999999999999e-08, 0.0, 0.0, 0.0, 8.999999999999999e-08]"
1579257464339054204,,1817,,1579257464,338734144,"""base_link""",,-0.201230150581,-0.218950473535,-0.706079870504,0.642665024025,"[1.0, 0.0, 0.0, 0.0, 1.0, 0.0, 0.0, 0.0, 1.0]",,1.15904438496,-1.90371274948,0.462819516659,"[1.2184696791468346e-07, 0.0, 0.0, 0.0, 1.2184696791468346e-07, 0.0, 0.0, 0.0, 1.2184696791468346e-07]",,4.52086565,0.0588399,7.5707338,"[8.999999999999999e-08, 0.0, 0.0, 0.0, 8.999999999999999e-08, 0.0, 0.0, 0.0, 8.999999999999999e-08]"
1579257464570587314,,1818,,1579257464,570495064,"""base_link""",,-0.200120348426,-0.364455209403,-0.627749355721,0.658069139891,"[1.0, 0.0, 0.0, 0.0, 1.0, 0.0, 0.0, 0.0, 1.0]",,1.01279091835,0.628917753696,0.243835628033,"[1.2184696791468346e-07, 0.0, 0.0, 0.0, 1.2184696791468346e-07, 0.0, 0.0, 0.0, 1.2184696791468346e-07]",,7.46286065,2.36340265,6.48219565,"[8.999999999999999e-08, 0.0, 0.0, 0.0, 8.999999999999999e-08, 0.0, 0.0, 0.0, 8.999999999999999e-08]"
1579257464814771138,,1819,,1579257464,814676748,"""base_link""",,-0.0701085689332,0.337099373482,0.573105755541,-0.743638752302,"[1.0, 0.0, 0.0, 0.0, 1.0, 0.0, 0.0, 0.0, 1.0]",,2.14872026443,2.1521821022,-0.601152896881,"[1.2184696791468346e-07, 0.0, 0.0, 0.0, 1.2184696791468346e-07, 0.0, 0.0, 0.0, 1.2184696791468346e-07]",,3.67749375,4.54047895,6.79600845,"[8.999999999999999e-08, 0.0, 0.0, 0.0, 8.999999999999999e-08, 0.0, 0.0, 0.0, 8.999999999999999e-08]"
1579257465066243559,,1820,,1579257465,65885635,"""base_link""",,-0.282082453573,0.155749336958,0.592857662442,-0.738032130403,"[1.0, 0.0, 0.0, 0.0, 1.0, 0.0, 0.0, 0.0, 1.0]",,-0.819010615349,2.24998807907,-1.01685035229,"[1.2184696791468346e-07, 0.0, 0.0, 0.0, 1.2184696791468346e-07, 0.0, 0.0, 0.0, 1.2184696791468346e-07]",,-1.0787315,6.668522,6.20760945,"[8.999999999999999e-08, 0.0, 0.0, 0.0, 8.999999999999999e-08, 0.0, 0.0, 0.0, 8.999999999999999e-08]"
1579257465305650423,,1821,,1579257465,305484775,"""base_link""",,-0.260411743855,-0.0345143248541,0.608011476508,-0.749210604221,"[1.0, 0.0, 0.0, 0.0, 1.0, 0.0, 0.0, 0.0, 1.0]",,-0.604898452759,0.153329893947,-0.135739713907,"[1.2184696791468346e-07, 0.0, 0.0, 0.0, 1.2184696791468346e-07, 0.0, 0.0, 0.0, 1.2184696791468346e-07]",,-4.06975975,3.18716125,8.50236555,"[8.999999999999999e-08, 0.0, 0.0, 0.0, 8.999999999999999e-08, 0.0, 0.0, 0.0, 8.999999999999999e-08]"
1579257465537207098,,1822,,1579257465,537029075,"""base_link""",,-0.259969544874,-0.055205966859,0.585828546744,-0.765619390285,"[1.0, 0.0, 0.0, 0.0, 1.0, 0.0, 0.0, 0.0, 1.0]",,-0.0215620324016,0.239494949579,0.314816594124,"[1.2184696791468346e-07, 0.0, 0.0, 0.0, 1.2184696791468346e-07, 0.0, 0.0, 0.0, 1.2184696791468346e-07]",,-4.4129925,3.7069137,8.05125965,"[8.999999999999999e-08, 0.0, 0.0, 0.0, 8.999999999999999e-08, 0.0, 0.0, 0.0, 8.999999999999999e-08]"
1579257465805877512,,1823,,1579257465,805460497,"""base_link""",,-0.263562376728,-0.123833266703,0.538593862561,-0.79064331202,"[1.0, 0.0, 0.0, 0.0, 1.0, 0.0, 0.0, 0.0, 1.0]",,-0.690437495708,0.976292431355,0.343700915575,"[1.2184696791468346e-07, 0.0, 0.0, 0.0, 1.2184696791468346e-07, 0.0, 0.0, 0.0, 1.2184696791468346e-07]",,-4.63854545,3.5696206,7.14904785,"[8.999999999999999e-08, 0.0, 0.0, 0.0, 8.999999999999999e-08, 0.0, 0.0, 0.0, 8.999999999999999e-08]"
1579257466028214402,,1824,,1579257466,27978130,"""base_link""",,-0.280818188192,-0.297024398266,0.445285781673,-0.796641842144,"[1.0, 0.0, 0.0, 0.0, 1.0, 0.0, 0.0, 0.0, 1.0]",,-0.715243399143,1.70925736427,-0.235773339868,"[1.2184696791468346e-07, 0.0, 0.0, 0.0, 1.2184696791468346e-07, 0.0, 0.0, 0.0, 1.2184696791468346e-07]",,-7.1196279,2.1182364,5.36423755,"[8.999999999999999e-08, 0.0, 0.0, 0.0, 8.999999999999999e-08, 0.0, 0.0, 0.0, 8.999999999999999e-08]"
1579257466258801318,,1825,,1579257466,258424019,"""base_link""",,-0.268664220762,-0.490595567844,0.411138254894,-0.719792234368,"[1.0, 0.0, 0.0, 0.0, 1.0, 0.0, 0.0, 0.0, 1.0]",,-0.720487117767,1.51843094826,-0.545005440712,"[1.2184696791468346e-07, 0.0, 0.0, 0.0, 1.2184696791468346e-07, 0.0, 0.0, 0.0, 1.2184696791468346e-07]",,-9.40457735,-1.4513842,2.91257505,"[8.999999999999999e-08, 0.0, 0.0, 0.0, 8.999999999999999e-08, 0.0, 0.0, 0.0, 8.999999999999999e-08]"
1579257466510770293,,1826,,1579257466,510661011,"""base_link""",,0.274045755978,0.679478888065,-0.333490342635,0.593288762471,"[1.0, 0.0, 0.0, 0.0, 1.0, 0.0, 0.0, 0.0, 1.0]",,-0.414205163717,1.16762042046,0.123033061624,"[1.2184696791468346e-07, 0.0, 0.0, 0.0, 1.2184696791468346e-07, 0.0, 0.0, 0.0, 1.2184696791468346e-07]",,-10.18910935,-2.157463,0.40207265,"[8.999999999999999e-08, 0.0, 0.0, 0.0, 8.999999999999999e-08, 0.0, 0.0, 0.0, 8.999999999999999e-08]"
1579257466758386342,,1827,,1579257466,758214941,"""base_link""",,0.292730683143,0.733214179589,-0.279669708689,0.546342903348,"[1.0, 0.0, 0.0, 0.0, 1.0, 0.0, 0.0, 0.0, 1.0]",,0.0718629062176,0.541635990143,-0.333456367254,"[1.2184696791468346e-07, 0.0, 0.0, 0.0, 1.2184696791468346e-07, 0.0, 0.0, 0.0, 1.2184696791468346e-07]",,-9.5712904,-0.4118793,-2.42224255,"[8.999999999999999e-08, 0.0, 0.0, 0.0, 8.999999999999999e-08, 0.0, 0.0, 0.0, 8.999999999999999e-08]"
1579257466985105638,,1828,,1579257466,984752148,"""base_link""",,0.333736407972,0.770934337473,-0.267322920264,0.472036771451,"[1.0, 0.0, 0.0, 0.0, 1.0, 0.0, 0.0, 0.0, 1.0]",,0.27330365777,0.797447264194,0.025861332193,"[1.2184696791468346e-07, 0.0, 0.0, 0.0, 1.2184696791468346e-07, 0.0, 0.0, 0.0, 1.2184696791468346e-07]",,-9.022118,-0.30400615,-4.3541526,"[8.999999999999999e-08, 0.0, 0.0, 0.0, 8.999999999999999e-08, 0.0, 0.0, 0.0, 8.999999999999999e-08]"
1579257467223560192,,1829,,1579257467,223388145,"""base_link""",,0.333915327612,0.783629293852,-0.278378169994,0.443769397631,"[1.0, 0.0, 0.0, 0.0, 1.0, 0.0, 0.0, 0.0, 1.0]",,-0.0287288539112,-0.280543804169,-0.217918843031,"[1.2184696791468346e-07, 0.0, 0.0, 0.0, 1.2184696791468346e-07, 0.0, 0.0, 0.0, 1.2184696791468346e-07]",,-9.28689755,-1.8044236,-4.52086565,"[8.999999999999999e-08, 0.0, 0.0, 0.0, 8.999999999999999e-08, 0.0, 0.0, 0.0, 8.999999999999999e-08]"
1579257467469725384,,1830,,1579257467,469566992,"""base_link""",,0.312958142061,0.807891501827,-0.283655215526,0.410984478171,"[1.0, 0.0, 0.0, 0.0, 1.0, 0.0, 0.0, 0.0, 1.0]",,-0.00865676626563,0.835017323494,-0.51917809248,"[1.2184696791468346e-07, 0.0, 0.0, 0.0, 1.2184696791468346e-07, 0.0, 0.0, 0.0, 1.2184696791468346e-07]",,-8.3552658,-1.95152335,-4.6287388,"[8.999999999999999e-08, 0.0, 0.0, 0.0, 8.999999999999999e-08, 0.0, 0.0, 0.0, 8.999999999999999e-08]"
1579257467705916452,,1831,,1579257467,705709411,"""base_link""",,0.331454174351,0.874078826794,-0.20132606574,0.292561361272,"[1.0, 0.0, 0.0, 0.0, 1.0, 0.0, 0.0, 0.0, 1.0]",,-0.708939135075,1.62306201458,-0.206907093525,"[1.2184696791468346e-07, 0.0, 0.0, 0.0, 1.2184696791468346e-07, 0.0, 0.0, 0.0, 1.2184696791468346e-07]",,-7.0411747,-2.8047019,-7.6295737,"[8.999999999999999e-08, 0.0, 0.0, 0.0, 8.999999999999999e-08, 0.0, 0.0, 0.0, 8.999999999999999e-08]"
1579257467955161304,,1832,,1579257467,954807785,"""base_link""",,0.34278433644,0.921327934308,-0.0747116485154,0.167546727011,"[1.0, 0.0, 0.0, 0.0, 1.0, 0.0, 0.0, 0.0, 1.0]",,-0.210667952895,1.10330605507,0.0608944818377,"[1.2184696791468346e-07, 0.0, 0.0, 0.0, 1.2184696791468346e-07, 0.0, 0.0, 0.0, 1.2184696791468346e-07]",,-3.63826715,-0.85317855,-9.1005712,"[8.999999999999999e-08, 0.0, 0.0, 0.0, 8.999999999999999e-08, 0.0, 0.0, 0.0, 8.999999999999999e-08]"
1579257468190730215,,1833,,1579257468,190580283,"""base_link""",,0.368935705523,0.92626087214,-0.0295720219928,0.0710826100316,"[1.0, 0.0, 0.0, 0.0, 1.0, 0.0, 0.0, 0.0, 1.0]",,-0.281293213367,0.418673604727,0.347572624683,"[1.2184696791468346e-07, 0.0, 0.0, 0.0, 1.2184696791468346e-07, 0.0, 0.0, 0.0, 1.2184696791468346e-07]",,-0.53936575,-0.0588399,-9.73800345,"[8.999999999999999e-08, 0.0, 0.0, 0.0, 8.999999999999999e-08, 0.0, 0.0, 0.0, 8.999999999999999e-08]"
1579257468440580317,,1834,,1579257468,440384900,"""base_link""",,-0.3750223456,-0.925624703463,-0.048715085158,-0.0142824759252,"[1.0, 0.0, 0.0, 0.0, 1.0, 0.0, 0.0, 0.0, 1.0]",,-0.364849686623,0.90055257082,0.0634923055768,"[1.2184696791468346e-07, 0.0, 0.0, 0.0, 1.2184696791468346e-07, 0.0, 0.0, 0.0, 1.2184696791468346e-07]",,0.51975245,0.53936575,-10.0223963,"[8.999999999999999e-08, 0.0, 0.0, 0.0, 8.999999999999999e-08, 0.0, 0.0, 0.0, 8.999999999999999e-08]"
1579257468665053775,,1835,,1579257468,664664494,"""base_link""",,-0.374639416483,-0.922434844131,-0.0836673999612,0.0419408170428,"[1.0, 0.0, 0.0, 0.0, 1.0, 0.0, 0.0, 0.0, 1.0]",,0.0896065607667,0.676947295666,-0.0188368372619,"[1.2184696791468346e-07, 0.0, 0.0, 0.0, 1.2184696791468346e-07, 0.0, 0.0, 0.0, 1.2184696791468346e-07]",,1.12776475,0.9610517,-9.93413645,"[8.999999999999999e-08, 0.0, 0.0, 0.0, 8.999999999999999e-08, 0.0, 0.0, 0.0, 8.999999999999999e-08]"
1579257468916420666,,1836,,1579257468,916253848,"""base_link""",,-0.389349451389,-0.900955291457,-0.138464958942,0.132340555549,"[1.0, 0.0, 0.0, 0.0, 1.0, 0.0, 0.0, 0.0, 1.0]",,-0.0910125747323,0.550300598145,0.224493488669,"[1.2184696791468346e-07, 0.0, 0.0, 0.0, 1.2184696791468346e-07, 0.0, 0.0, 0.0, 1.2184696791468346e-07]",,1.99074995,0.9610517,-9.42419065,"[8.999999999999999e-08, 0.0, 0.0, 0.0, 8.999999999999999e-08, 0.0, 0.0, 0.0, 8.999999999999999e-08]"
1579257469152598370,,1837,,1579257469,152434276,"""base_link""",,-0.361056965877,-0.89973576121,-0.150487766569,0.193563580008,"[1.0, 0.0, 0.0, 0.0, 1.0, 0.0, 0.0, 0.0, 1.0]",,0.168278560042,0.545927107334,-0.126512438059,"[1.2184696791468346e-07, 0.0, 0.0, 0.0, 1.2184696791468346e-07, 0.0, 0.0, 0.0, 1.2184696791468346e-07]",,3.4323275,1.0787315,-9.22805765,"[8.999999999999999e-08, 0.0, 0.0, 0.0, 8.999999999999999e-08, 0.0, 0.0, 0.0, 8.999999999999999e-08]"
1579257469389414625,,1838,,1579257469,389087379,"""base_link""",,-0.359155785986,-0.883752666932,-0.174508066434,0.243998524244,"[1.0, 0.0, 0.0, 0.0, 1.0, 0.0, 0.0, 0.0, 1.0]",,-0.209171205759,0.500454366207,0.189595803618,"[1.2184696791468346e-07, 0.0, 0.0, 0.0, 1.2184696791468346e-07, 0.0, 0.0, 0.0, 1.2184696791468346e-07]",,6.8254284,1.22583125,-7.81590005,"[8.999999999999999e-08, 0.0, 0.0, 0.0, 8.999999999999999e-08, 0.0, 0.0, 0.0, 8.999999999999999e-08]"
1579257469643044896,,1839,,1579257469,642894047,"""base_link""",,-0.390708043636,-0.842989632874,-0.220681826744,0.296673616707,"[1.0, 0.0, 0.0, 0.0, 1.0, 0.0, 0.0, 0.0, 1.0]",,-0.20897385478,0.421483278275,0.283317655325,"[1.2184696791468346e-07, 0.0, 0.0, 0.0, 1.2184696791468346e-07, 0.0, 0.0, 0.0, 1.2184696791468346e-07]",,6.8842683,1.4709975,-6.9627215,"[8.999999999999999e-08, 0.0, 0.0, 0.0, 8.999999999999999e-08, 0.0, 0.0, 0.0, 8.999999999999999e-08]"
1579257469882052847,,1840,,1579257469,881835154,"""base_link""",,-0.392701453056,-0.829204960157,-0.250671563108,0.308817859373,"[1.0, 0.0, 0.0, 0.0, 1.0, 0.0, 0.0, 0.0, 1.0]",,-0.137039497495,0.213625088334,-0.166711047292,"[1.2184696791468346e-07, 0.0, 0.0, 0.0, 1.2184696791468346e-07, 0.0, 0.0, 0.0, 1.2184696791468346e-07]",,6.38412915,1.372931,-6.5116156,"[8.999999999999999e-08, 0.0, 0.0, 0.0, 8.999999999999999e-08, 0.0, 0.0, 0.0, 8.999999999999999e-08]"
1579257470145437128,,1841,,1579257470,145061686,"""base_link""",,-0.376758209875,-0.817245575777,-0.274360687637,0.338952995626,"[1.0, 0.0, 0.0, 0.0, 1.0, 0.0, 0.0, 0.0, 1.0]",,0.29603895545,0.734312653542,0.190413683653,"[1.2184696791468346e-07, 0.0, 0.0, 0.0, 1.2184696791468346e-07, 0.0, 0.0, 0.0, 1.2184696791468346e-07]",,5.97224985,0.9218251,-7.52170055,"[8.999999999999999e-08, 0.0, 0.0, 0.0, 8.999999999999999e-08, 0.0, 0.0, 0.0, 8.999999999999999e-08]"
1579257470354221319,,1842,,1579257470,354059465,"""base_link""",,-0.406127060651,-0.785960383259,-0.248525426071,0.394413741077,"[1.0, 0.0, 0.0, 0.0, 1.0, 0.0, 0.0, 0.0, 1.0]",,0.0896302461624,-0.0549148619175,0.214989900589,"[1.2184696791468346e-07, 0.0, 0.0, 0.0, 1.2184696791468346e-07, 0.0, 0.0, 0.0, 1.2184696791468346e-07]",,6.668522,0.53936575,-7.1000146,"[8.999999999999999e-08, 0.0, 0.0, 0.0, 8.999999999999999e-08, 0.0, 0.0, 0.0, 8.999999999999999e-08]"
1579257470597289452,,1843,,1579257470,597115635,"""base_link""",,-0.419817022402,-0.788620212108,-0.241769039872,0.378654935417,"[1.0, 0.0, 0.0, 0.0, 1.0, 0.0, 0.0, 0.0, 1.0]",,-0.26381701231,-0.0245414916426,0.0909628048539,"[1.2184696791468346e-07, 0.0, 0.0, 0.0, 1.2184696791468346e-07, 0.0, 0.0, 0.0, 1.2184696791468346e-07]",,7.50208725,-0.22555295,-6.30567595,"[8.999999999999999e-08, 0.0, 0.0, 0.0, 8.999999999999999e-08, 0.0, 0.0, 0.0, 8.999999999999999e-08]"
1579257470834400703,,1844,,1579257470,834053043,"""base_link""",,0.49582316283,0.770181549909,0.218517089993,-0.336496735143,"[1.0, 0.0, 0.0, 0.0, 1.0, 0.0, 0.0, 0.0, 1.0]",,-0.373319327831,-0.560971021652,0.771534323692,"[1.2184696791468346e-07, 0.0, 0.0, 0.0, 1.2184696791468346e-07, 0.0, 0.0, 0.0, 1.2184696791468346e-07]",,7.81590005,-0.42168595,-6.44296905,"[8.999999999999999e-08, 0.0, 0.0, 0.0, 8.999999999999999e-08, 0.0, 0.0, 0.0, 8.999999999999999e-08]"
1579257471102216057,,1845,,1579257471,102053750,"""base_link""",,0.572760273376,0.760462022591,0.182802307642,-0.245410875391,"[1.0, 0.0, 0.0, 0.0, 1.0, 0.0, 0.0, 0.0, 1.0]",,-0.042559966445,-1.16758704185,0.238602176309,"[1.2184696791468346e-07, 0.0, 0.0, 0.0, 1.2184696791468346e-07, 0.0, 0.0, 0.0, 1.2184696791468346e-07]",,5.65843705,-0.7453054,-8.5317855,"[8.999999999999999e-08, 0.0, 0.0, 0.0, 8.999999999999999e-08, 0.0, 0.0, 0.0, 8.999999999999999e-08]"
1579257471319860215,,1846,,1579257471,319727186,"""base_link""",,0.597685632612,0.792554767692,0.0421008944105,-0.113385799232,"[1.0, 0.0, 0.0, 0.0, 1.0, 0.0, 0.0, 0.0, 1.0]",,0.279458761215,-1.85515987873,-0.117654688656,"[1.2184696791468346e-07, 0.0, 0.0, 0.0, 1.2184696791468346e-07, 0.0, 0.0, 0.0, 1.2184696791468346e-07]",,2.4124359,-0.588399,-10.3165958,"[8.999999999999999e-08, 0.0, 0.0, 0.0, 8.999999999999999e-08, 0.0, 0.0, 0.0, 8.999999999999999e-08]"
1579257471573867552,,1847,,1579257471,573544552,"""base_link""",,0.555880711279,0.820717638249,-0.112824652874,0.0684820472754,"[1.0, 0.0, 0.0, 0.0, 1.0, 0.0, 0.0, 0.0, 1.0]",,0.178469508886,-1.74306190014,-0.137321740389,"[1.2184696791468346e-07, 0.0, 0.0, 0.0, 1.2184696791468346e-07, 0.0, 0.0, 0.0, 1.2184696791468346e-07]",,-3.99130655,-2.4124359,-8.01203305,"[8.999999999999999e-08, 0.0, 0.0, 0.0, 8.999999999999999e-08, 0.0, 0.0, 0.0, 8.999999999999999e-08]"
1579257471804678988,,1848,,1579257471,804496952,"""base_link""",,0.487980669786,0.810038666504,-0.250095762473,0.207760280798,"[1.0, 0.0, 0.0, 0.0, 1.0, 0.0, 0.0, 0.0, 1.0]",,-0.343540608883,-1.59782075882,-0.510509133339,"[1.2184696791468346e-07, 0.0, 0.0, 0.0, 1.2184696791468346e-07, 0.0, 0.0, 0.0, 1.2184696791468346e-07]",,-7.93357985,-3.8638201,-9.5124505,"[8.999999999999999e-08, 0.0, 0.0, 0.0, 8.999999999999999e-08, 0.0, 0.0, 0.0, 8.999999999999999e-08]"
1579257472043264362,,1849,,1579257472,43070333,"""base_link""",,0.301003833558,0.821242866209,-0.351134281743,0.334157991179,"[1.0, 0.0, 0.0, 0.0, 1.0, 0.0, 0.0, 0.0, 1.0]",,-0.259116530418,-2.15391159058,-1.5222928524,"[1.2184696791468346e-07, 0.0, 0.0, 0.0, 1.2184696791468346e-07, 0.0, 0.0, 0.0, 1.2184696791468346e-07]",,-7.3942141,-2.91257505,-7.060788,"[8.999999999999999e-08, 0.0, 0.0, 0.0, 8.999999999999999e-08, 0.0, 0.0, 0.0, 8.999999999999999e-08]"
1579257472280094662,,1850,,1579257472,279741710,"""base_link""",,0.0272720659049,0.689297839755,-0.50985621772,0.513976030358,"[1.0, 0.0, 0.0, 0.0, 1.0, 0.0, 0.0, 0.0, 1.0]",,0.351065903902,-3.07279896736,-1.26302206516,"[1.2184696791468346e-07, 0.0, 0.0, 0.0, 1.2184696791468346e-07, 0.0, 0.0, 0.0, 1.2184696791468346e-07]",,-7.95319315,-5.295591,-2.6870221,"[8.999999999999999e-08, 0.0, 0.0, 0.0, 8.999999999999999e-08, 0.0, 0.0, 0.0, 8.999999999999999e-08]"
1579257472522061949,,1851,,1579257472,521833062,"""base_link""",,-0.290429026972,0.425147621955,-0.588565176249,0.623290873626,"[1.0, 0.0, 0.0, 0.0, 1.0, 0.0, 0.0, 0.0, 1.0]",,-0.340187549591,-3.31264090538,-1.62399625778,"[1.2184696791468346e-07, 0.0, 0.0, 0.0, 1.2184696791468346e-07, 0.0, 0.0, 0.0, 1.2184696791468346e-07]",,-3.54020065,-7.01175475,1.6279039,"[8.999999999999999e-08, 0.0, 0.0, 0.0, 8.999999999999999e-08, 0.0, 0.0, 0.0, 8.999999999999999e-08]"
1579257472769190819,,1852,,1579257472,769019952,"""base_link""",,0.570483267676,-0.160763308509,0.539895774224,-0.597675959793,"[1.0, 0.0, 0.0, 0.0, 1.0, 0.0, 0.0, 0.0, 1.0]",,-0.107289128006,-2.35669350624,-1.14415717125,"[1.2184696791468346e-07, 0.0, 0.0, 0.0, 1.2184696791468346e-07, 0.0, 0.0, 0.0, 1.2184696791468346e-07]",,3.1773546,-8.44352565,1.2160246,"[8.999999999999999e-08, 0.0, 0.0, 0.0, 8.999999999999999e-08, 0.0, 0.0, 0.0, 8.999999999999999e-08]"
1579257473009267948,,1853,,1579257473,8899966,"""base_link""",,0.607942595047,0.0971624283803,0.494898905468,-0.613221278989,"[1.0, 0.0, 0.0, 0.0, 1.0, 0.0, 0.0, 0.0, 1.0]",,1.78476250172,-1.45777928829,-1.04192829132,"[1.2184696791468346e-07, 0.0, 0.0, 0.0, 1.2184696791468346e-07, 0.0, 0.0, 0.0, 1.2184696791468346e-07]",,7.1392412,-7.60015375,1.89268345,"[8.999999999999999e-08, 0.0, 0.0, 0.0, 8.999999999999999e-08, 0.0, 0.0, 0.0, 8.999999999999999e-08]"
1579257473243725488,,1854,,1579257473,243584259,"""base_link""",,0.500467147287,0.352207059754,0.416914418583,-0.672060405859,"[1.0, 0.0, 0.0, 0.0, 1.0, 0.0, 0.0, 0.0, 1.0]",,2.15253710747,-0.860951781273,-0.167839884758,"[1.2184696791468346e-07, 0.0, 0.0, 0.0, 1.2184696791468346e-07, 0.0, 0.0, 0.0, 1.2184696791468346e-07]",,10.22833595,-4.12859965,3.28522775,"[8.999999999999999e-08, 0.0, 0.0, 0.0, 8.999999999999999e-08, 0.0, 0.0, 0.0, 8.999999999999999e-08]"
1579257473488928679,,1855,,1579257473,488769446,"""base_link""",,0.175766438529,0.464277778492,0.151709631942,-0.854714274516,"[1.0, 0.0, 0.0, 0.0, 1.0, 0.0, 0.0, 0.0, 1.0]",,2.69899988174,1.08322358131,0.158977925777,"[1.2184696791468346e-07, 0.0, 0.0, 0.0, 1.2184696791468346e-07, 0.0, 0.0, 0.0, 1.2184696791468346e-07]",,9.87529655,-2.63798885,3.18716125,"[8.999999999999999e-08, 0.0, 0.0, 0.0, 8.999999999999999e-08, 0.0, 0.0, 0.0, 8.999999999999999e-08]"
1579257473740962463,,1856,,1579257473,740592229,"""base_link""",,-0.0466415459058,0.301751547718,0.0868739524003,-0.948273950944,"[1.0, 0.0, 0.0, 0.0, 1.0, 0.0, 0.0, 0.0, 1.0]",,0.909781217575,2.43684768677,-0.594666242599,"[1.2184696791468346e-07, 0.0, 0.0, 0.0, 1.2184696791468346e-07, 0.0, 0.0, 0.0, 1.2184696791468346e-07]",,6.3547092,1.2552512,4.93274495,"[8.999999999999999e-08, 0.0, 0.0, 0.0, 8.999999999999999e-08, 0.0, 0.0, 0.0, 8.999999999999999e-08]"
1579257473968687873,,1857,,1579257473,968254070,"""base_link""",,-0.157562982108,0.0119168167706,0.131596442478,-0.978628771534,"[1.0, 0.0, 0.0, 0.0, 1.0, 0.0, 0.0, 0.0, 1.0]",,0.495775431395,1.94393599033,-0.996408581734,"[1.2184696791468346e-07, 0.0, 0.0, 0.0, 1.2184696791468346e-07, 0.0, 0.0, 0.0, 1.2184696791468346e-07]",,-1.0787315,2.7066354,8.09048625,"[8.999999999999999e-08, 0.0, 0.0, 0.0, 8.999999999999999e-08, 0.0, 0.0, 0.0, 8.999999999999999e-08]"
1579257474199526921,,1858,,1579257474,199404592,"""base_link""",,-0.14684621916,-0.0114645457063,0.289297641952,-0.945839112361,"[1.0, 0.0, 0.0, 0.0, 1.0, 0.0, 0.0, 0.0, 1.0]",,-0.208739981055,-1.80957257748,-1.22552990913,"[1.2184696791468346e-07, 0.0, 0.0, 0.0, 1.2184696791468346e-07, 0.0, 0.0, 0.0, 1.2184696791468346e-07]",,-2.97141495,1.8436502,9.1594111,"[8.999999999999999e-08, 0.0, 0.0, 0.0, 8.999999999999999e-08, 0.0, 0.0, 0.0, 8.999999999999999e-08]"
1579257474458306717,,1859,,1579257474,457907412,"""base_link""",,0.0622120919796,0.261768223757,0.503924897981,-0.82077204499,"[1.0, 0.0, 0.0, 0.0, 1.0, 0.0, 0.0, 0.0, 1.0]",,-0.0391416959465,-2.93852925301,0.288279861212,"[1.2184696791468346e-07, 0.0, 0.0, 0.0, 1.2184696791468346e-07, 0.0, 0.0, 0.0, 1.2184696791468346e-07]",,2.9027684,0.9610517,9.5124505,"[8.999999999999999e-08, 0.0, 0.0, 0.0, 8.999999999999999e-08, 0.0, 0.0, 0.0, 8.999999999999999e-08]"
1579257474683010304,,1860,,1579257474,682857408,"""base_link""",,0.261299754614,0.495689296972,0.469769296839,-0.682152011544,"[1.0, 0.0, 0.0, 0.0, 1.0, 0.0, 0.0, 0.0, 1.0]",,-0.601506412029,-2.75110626221,0.00241093337536,"[1.2184696791468346e-07, 0.0, 0.0, 0.0, 1.2184696791468346e-07, 0.0, 0.0, 0.0, 1.2184696791468346e-07]",,7.67860695,2.1770763,2.57914895,"[8.999999999999999e-08, 0.0, 0.0, 0.0, 8.999999999999999e-08, 0.0, 0.0, 0.0, 8.999999999999999e-08]"
1579257474929145735,,1861,,1579257474,929023195,"""base_link""",,-0.405455607849,-0.627009729217,-0.380907497339,0.545320115164,"[1.0, 0.0, 0.0, 0.0, 1.0, 0.0, 0.0, 0.0, 1.0]",,0.526027858257,-2.12756276131,0.540255963802,"[1.2184696791468346e-07, 0.0, 0.0, 0.0, 1.2184696791468346e-07, 0.0, 0.0, 0.0, 1.2184696791468346e-07]",,9.67916355,-0.55897905,-1.6279039,"[8.999999999999999e-08, 0.0, 0.0, 0.0, 8.999999999999999e-08, 0.0, 0.0, 0.0, 8.999999999999999e-08]"
1579257475189688474,,1862,,1579257475,189306897,"""base_link""",,0.422674827683,0.717674681412,0.257578288065,-0.489839225891,"[1.0, 0.0, 0.0, 0.0, 1.0, 0.0, 0.0, 0.0, 1.0]",,0.182997658849,-0.706603646278,0.0482089929283,"[1.2184696791468346e-07, 0.0, 0.0, 0.0, 1.2184696791468346e-07, 0.0, 0.0, 0.0, 1.2184696791468346e-07]",,10.2969825,-0.5099458,-3.0400615,"[8.999999999999999e-08, 0.0, 0.0, 0.0, 8.999999999999999e-08, 0.0, 0.0, 0.0, 8.999999999999999e-08]"
1579257475413627791,,1863,,1579257475,413438210,"""base_link""",,0.471481675178,0.756273238082,0.209288202877,-0.402435420246,"[1.0, 0.0, 0.0, 0.0, 1.0, 0.0, 0.0, 0.0, 1.0]",,-0.213399961591,-1.04251194,0.283165931702,"[1.2184696791468346e-07, 0.0, 0.0, 0.0, 1.2184696791468346e-07, 0.0, 0.0, 0.0, 1.2184696791468346e-07]",,8.12971285,-1.36312435,-7.3157609,"[8.999999999999999e-08, 0.0, 0.0, 0.0, 8.999999999999999e-08, 0.0, 0.0, 0.0, 8.999999999999999e-08]"
1579257475651630494,,1864,,1579257475,651435047,"""base_link""",,0.465227580195,0.792275012456,0.151671049051,-0.364498965901,"[1.0, 0.0, 0.0, 0.0, 1.0, 0.0, 0.0, 0.0, 1.0]",,0.337532758713,-0.564133346081,-0.149832829833,"[1.2184696791468346e-07, 0.0, 0.0, 0.0, 1.2184696791468346e-07, 0.0, 0.0, 0.0, 1.2184696791468346e-07]",,5.63882375,-0.6668522,-7.8060934,"[8.999999999999999e-08, 0.0, 0.0, 0.0, 8.999999999999999e-08, 0.0, 0.0, 0.0, 8.999999999999999e-08]"
1579257475896359681,,1865,,1579257475,896195655,"""base_link""",,0.448798014562,0.819718458796,0.103386223007,-0.3405191321,"[1.0, 0.0, 0.0, 0.0, 1.0, 0.0, 0.0, 0.0, 1.0]",,0.295888870955,0.0284040793777,-0.00513658439741,"[1.2184696791468346e-07, 0.0, 0.0, 0.0, 1.2184696791468346e-07, 0.0, 0.0, 0.0, 1.2184696791468346e-07]",,6.08992965,-0.48052585,-8.0610663,"[8.999999999999999e-08, 0.0, 0.0, 0.0, 8.999999999999999e-08, 0.0, 0.0, 0.0, 8.999999999999999e-08]"
1579257476139173272,,1866,,1579257476,138854679,"""base_link""",,0.476015960387,0.820342051274,0.0946398248983,-0.302474838477,"[1.0, 0.0, 0.0, 0.0, 1.0, 0.0, 0.0, 0.0, 1.0]",,-0.231741294265,-0.27791839838,0.233279570937,"[1.2184696791468346e-07, 0.0, 0.0, 0.0, 1.2184696791468346e-07, 0.0, 0.0, 0.0, 1.2184696791468346e-07]",,5.52114395,-2.42224255,-7.87473995,"[8.999999999999999e-08, 0.0, 0.0, 0.0, 8.999999999999999e-08, 0.0, 0.0, 0.0, 8.999999999999999e-08]"
1579257476386498069,,1867,,1579257476,386329025,"""base_link""",,0.508625516083,0.821749818197,0.076401940884,-0.245336634265,"[1.0, 0.0, 0.0, 0.0, 1.0, 0.0, 0.0, 0.0, 1.0]",,-0.217835754156,-0.61548858881,0.420127093792,"[1.2184696791468346e-07, 0.0, 0.0, 0.0, 1.2184696791468346e-07, 0.0, 0.0, 0.0, 1.2184696791468346e-07]",,3.6480738,-2.95180165,-9.1790244,"[8.999999999999999e-08, 0.0, 0.0, 0.0, 8.999999999999999e-08, 0.0, 0.0, 0.0, 8.999999999999999e-08]"
