rosbagTimestamp,header,seq,stamp,secs,nsecs,frame_id,orientation,x,y,z,w,orientation_covariance,angular_velocity,x,y,z,angular_velocity_covariance,linear_acceleration,x,y,z,linear_acceleration_covariance
1579257248491709330,,919,,1579257248,491535727,"""base_link""",,-0.00456178399565,0.00549952410362,0.593031019361,-0.805147909044,"[1.0, 0.0, 0.0, 0.0, 1.0, 0.0, 0.0, 0.0, 1.0]",,0.047523804009,0.00735587161034,-0.0438852980733,"[1.2184696791468346e-07, 0.0, 0.0, 0.0, 1.2184696791468346e-07, 0.0, 0.0, 0.0, 1.2184696791468346e-07]",,-0.2549729,0.0196133,10.99325465,"[8.999999999999999e-08, 0.0, 0.0, 0.0, 8.999999999999999e-08, 0.0, 0.0, 0.0, 8.999999999999999e-08]"
1579257248741425285,,920,,1579257248,741246677,"""base_link""",,-0.00913615192964,0.0126945355619,0.596906207513,-0.802158562211,"[1.0, 0.0, 0.0, 0.0, 1.0, 0.0, 0.0, 0.0, 1.0]",,-0.00447012903169,-0.0118859745562,-0.0462649837136,"[1.2184696791468346e-07, 0.0, 0.0, 0.0, 1.2184696791468346e-07, 0.0, 0.0, 0.0, 1.2184696791468346e-07]",,-0.63743225,0.4118793,11.1011278,"[8.999999999999999e-08, 0.0, 0.0, 0.0, 8.999999999999999e-08, 0.0, 0.0, 0.0, 8.999999999999999e-08]"
1579257248986740568,,921,,1579257248,986396955,"""base_link""",,0.00592796016669,0.0169815491685,0.601283373581,-0.798833393726,"[1.0, 0.0, 0.0, 0.0, 1.0, 0.0, 0.0, 0.0, 1.0]",,0.00796470791101,-0.0764102041721,0.0176351908594,"[1.2184696791468346e-07, 0.0, 0.0, 0.0, 1.2184696791468346e-07, 0.0, 0.0, 0.0, 1.2184696791468346e-07]",,-0.2353596,0.48052585,9.9635564,"[8.999999999999999e-08, 0.0, 0.0, 0.0, 8.999999999999999e-08, 0.0, 0.0, 0.0, 8.999999999999999e-08]"
1579257249216351225,,922,,1579257249,216216396,"""base_link""",,0.00738334123708,0.0229893317978,0.601932895917,-0.798181536812,"[1.0, 0.0, 0.0, 0.0, 1.0, 0.0, 0.0, 0.0, 1.0]",,-0.0684419572353,-0.0109877865762,-0.0417956225574,"[1.2184696791468346e-07, 0.0, 0.0, 0.0, 1.2184696791468346e-07, 0.0, 0.0, 0.0, 1.2184696791468346e-07]",,0.02941995,0.26477955,9.9047165,"[8.999999999999999e-08, 0.0, 0.0, 0.0, 8.999999999999999e-08, 0.0, 0.0, 0.0, 8.999999999999999e-08]"
1579257249460769702,,923,,1579257249,460616201,"""base_link""",,0.0282746746179,0.00453477260871,0.608860972232,-0.792759922741,"[1.0, 0.0, 0.0, 0.0, 1.0, 0.0, 0.0, 0.0, 1.0]",,-0.281923621893,-0.00607335194945,0.028033586219,"[1.2184696791468346e-07, 0.0, 0.0, 0.0, 1.2184696791468346e-07, 0.0, 0.0, 0.0, 1.2184696791468346e-07]",,0.34323275,-0.32361945,9.6301303,"[8.999999999999999e-08, 0.0, 0.0, 0.0, 8.999999999999999e-08, 0.0, 0.0, 0.0, 8.999999999999999e-08]"
1579257249702060374,,924,,1579257249,701636407,"""base_link""",,0.0412372268416,0.00222869367014,0.604002119557,-0.795912032588,"[1.0, 0.0, 0.0, 0.0, 1.0, 0.0, 0.0, 0.0, 1.0]",,0.123268380761,0.00881867203861,0.082635127008,"[1.2184696791468346e-07, 0.0, 0.0, 0.0, 1.2184696791468346e-07, 0.0, 0.0, 0.0, 1.2184696791468346e-07]",,0.28439285,-0.65704555,9.75761675,"[8.999999999999999e-08, 0.0, 0.0, 0.0, 8.999999999999999e-08, 0.0, 0.0, 0.0, 8.999999999999999e-08]"
1579257249948440280,,925,,1579257249,948297018,"""base_link""",,0.0367052007599,0.0148932993232,0.596109237964,-0.80192561643,"[1.0, 0.0, 0.0, 0.0, 1.0, 0.0, 0.0, 0.0, 1.0]",,-0.0460349991918,-0.037722364068,0.0357502922416,"[1.2184696791468346e-07, 0.0, 0.0, 0.0, 1.2184696791468346e-07, 0.0, 0.0, 0.0, 1.2184696791468346e-07]",,0.28439285,0.0196133,9.26728425,"[8.999999999999999e-08, 0.0, 0.0, 0.0, 8.999999999999999e-08, 0.0, 0.0, 0.0, 8.999999999999999e-08]"
1579257250168521855,,926,,1579257250,168372816,"""base_link""",,0.0480027710636,-0.00211154018424,0.595486485193,-0.801927129682,"[1.0, 0.0, 0.0, 0.0, 1.0, 0.0, 0.0, 0.0, 1.0]",,-0.234968870878,0.025552039966,0.0113420076668,"[1.2184696791468346e-07, 0.0, 0.0, 0.0, 1.2184696791468346e-07, 0.0, 0.0, 0.0, 1.2184696791468346e-07]",,0.0980665,-0.14709975,9.1201845,"[8.999999999999999e-08, 0.0, 0.0, 0.0, 8.999999999999999e-08, 0.0, 0.0, 0.0, 8.999999999999999e-08]"
1579257250423009196,,927,,1579257250,422747347,"""base_link""",,0.0604548417882,-0.00914580417938,0.596814739886,-0.800046081564,"[1.0, 0.0, 0.0, 0.0, 1.0, 0.0, 0.0, 0.0, 1.0]",,0.0204342920333,0.0617809258401,-0.040234208107,"[1.2184696791468346e-07, 0.0, 0.0, 0.0, 1.2184696791468346e-07, 0.0, 0.0, 0.0, 1.2184696791468346e-07]",,0.1569064,-0.40207265,9.1594111,"[8.999999999999999e-08, 0.0, 0.0, 0.0, 8.999999999999999e-08, 0.0, 0.0, 0.0, 8.999999999999999e-08]"
1579257250658543952,,928,,1579257250,658398560,"""base_link""",,0.0591217289347,-0.0176919202912,0.595813505943,-0.800748327042,"[1.0, 0.0, 0.0, 0.0, 1.0, 0.0, 0.0, 0.0, 1.0]",,-0.134877845645,0.0643448904157,0.023757647723,"[1.2184696791468346e-07, 0.0, 0.0, 0.0, 1.2184696791468346e-07, 0.0, 0.0, 0.0, 1.2184696791468346e-07]",,0.0,-0.48052585,9.218251,"[8.999999999999999e-08, 0.0, 0.0, 0.0, 8.999999999999999e-08, 0.0, 0.0, 0.0, 8.999999999999999e-08]"
1579257250900603648,,929,,1579257250,900426425,"""base_link""",,0.0738267110677,-0.0293219981057,0.595507034243,-0.799413040504,"[1.0, 0.0, 0.0, 0.0, 1.0, 0.0, 0.0, 0.0, 1.0]",,-0.124204680324,0.00529657304287,-0.0468547418714,"[1.2184696791468346e-07, 0.0, 0.0, 0.0, 1.2184696791468346e-07, 0.0, 0.0, 0.0, 1.2184696791468346e-07]",,-0.02941995,-0.91201845,8.9632781,"[8.999999999999999e-08, 0.0, 0.0, 0.0, 8.999999999999999e-08, 0.0, 0.0, 0.0, 8.999999999999999e-08]"
1579257251132484970,,930,,1579257251,132286200,"""base_link""",,0.0798896724686,-0.0317235506152,0.594473273728,-0.799507838231,"[1.0, 0.0, 0.0, 0.0, 1.0, 0.0, 0.0, 0.0, 1.0]",,0.000744656077586,-0.00700862519443,0.0158273670822,"[1.2184696791468346e-07, 0.0, 0.0, 0.0, 1.2184696791468346e-07, 0.0, 0.0, 0.0, 1.2184696791468346e-07]",,0.22555295,-1.22583125,9.54187045,"[8.999999999999999e-08, 0.0, 0.0, 0.0, 8.999999999999999e-08, 0.0, 0.0, 0.0, 8.999999999999999e-08]"
1579257251364433502,,931,,1579257251,364261920,"""base_link""",,0.080664181526,-0.0332317525819,0.595176786769,-0.798845124496,"[1.0, 0.0, 0.0, 0.0, 1.0, 0.0, 0.0, 0.0, 1.0]",,-0.0336281657219,-0.0281610488892,-0.0314972475171,"[1.2184696791468346e-07, 0.0, 0.0, 0.0, 1.2184696791468346e-07, 0.0, 0.0, 0.0, 1.2184696791468346e-07]",,-0.1176798,-1.0983448,9.5909037,"[8.999999999999999e-08, 0.0, 0.0, 0.0, 8.999999999999999e-08, 0.0, 0.0, 0.0, 8.999999999999999e-08]"
1579257251622505905,,932,,1579257251,622150208,"""base_link""",,0.0883940177603,-0.029605576305,0.593325197999,-0.799546882237,"[1.0, 0.0, 0.0, 0.0, 1.0, 0.0, 0.0, 0.0, 1.0]",,-0.0375323034823,-0.0829947665334,0.0374484099448,"[1.2184696791468346e-07, 0.0, 0.0, 0.0, 1.2184696791468346e-07, 0.0, 0.0, 0.0, 1.2184696791468346e-07]",,0.00980665,-1.40235095,9.71839015,"[8.999999999999999e-08, 0.0, 0.0, 0.0, 8.999999999999999e-08, 0.0, 0.0, 0.0, 8.999999999999999e-08]"
1579257251850970076,,933,,1579257251,850800277,"""base_link""",,0.0960632261756,-0.0215066481403,0.591623821822,-0.800181588213,"[1.0, 0.0, 0.0, 0.0, 1.0, 0.0, 0.0, 0.0, 1.0]",,0.0287191774696,-0.144166231155,-0.0482188612223,"[1.2184696791468346e-07, 0.0, 0.0, 0.0, 1.2184696791468346e-07, 0.0, 0.0, 0.0, 1.2184696791468346e-07]",,-0.14709975,-1.34351105,9.54187045,"[8.999999999999999e-08, 0.0, 0.0, 0.0, 8.999999999999999e-08, 0.0, 0.0, 0.0, 8.999999999999999e-08]"
1579257252092220438,,934,,1579257252,91906057,"""base_link""",,0.107303388444,-0.0112121167173,0.596147205105,-0.795593351602,"[1.0, 0.0, 0.0, 0.0, 1.0, 0.0, 0.0, 0.0, 1.0]",,-0.0789195075631,-0.0700039193034,-0.00975048728287,"[1.2184696791468346e-07, 0.0, 0.0, 0.0, 1.2184696791468346e-07, 0.0, 0.0, 0.0, 1.2184696791468346e-07]",,0.1372931,-1.5886773,9.6497436,"[8.999999999999999e-08, 0.0, 0.0, 0.0, 8.999999999999999e-08, 0.0, 0.0, 0.0, 8.999999999999999e-08]"
1579257252329505053,,935,,1579257252,329202391,"""base_link""",,0.116358968737,-0.00267358190192,0.592586247182,-0.797053939207,"[1.0, 0.0, 0.0, 0.0, 1.0, 0.0, 0.0, 0.0, 1.0]",,0.0648839324713,-0.149567753077,0.00517896749079,"[1.2184696791468346e-07, 0.0, 0.0, 0.0, 1.2184696791468346e-07, 0.0, 0.0, 0.0, 1.2184696791468346e-07]",,0.0392266,-1.63771055,9.65955025,"[8.999999999999999e-08, 0.0, 0.0, 0.0, 8.999999999999999e-08, 0.0, 0.0, 0.0, 8.999999999999999e-08]"
1579257252580392063,,936,,1579257252,580246205,"""base_link""",,0.125161421174,0.0119673505681,0.594567049643,-0.794154534489,"[1.0, 0.0, 0.0, 0.0, 1.0, 0.0, 0.0, 0.0, 1.0]",,-0.0347733236849,-0.183337956667,-0.0346179753542,"[1.2184696791468346e-07, 0.0, 0.0, 0.0, 1.2184696791468346e-07, 0.0, 0.0, 0.0, 1.2184696791468346e-07]",,1.2748645,-1.6279039,9.6693569,"[8.999999999999999e-08, 0.0, 0.0, 0.0, 8.999999999999999e-08, 0.0, 0.0, 0.0, 8.999999999999999e-08]"
1579257252812678970,,937,,1579257252,812359069,"""base_link""",,0.132727445209,0.0181870922216,0.599621317528,-0.788991083936,"[1.0, 0.0, 0.0, 0.0, 1.0, 0.0, 0.0, 0.0, 1.0]",,-0.00210880720988,-0.0848219916224,-0.002168093808,"[1.2184696791468346e-07, 0.0, 0.0, 0.0, 1.2184696791468346e-07, 0.0, 0.0, 0.0, 1.2184696791468346e-07]",,1.87307015,-1.372931,9.6889702,"[8.999999999999999e-08, 0.0, 0.0, 0.0, 8.999999999999999e-08, 0.0, 0.0, 0.0, 8.999999999999999e-08]"
1579257253057634132,,938,,1579257253,57435100,"""base_link""",,0.135390195099,0.0209145028254,0.598773162972,-0.789115186743,"[1.0, 0.0, 0.0, 0.0, 1.0, 0.0, 0.0, 0.0, 1.0]",,0.00215225992724,0.0670251473784,-0.0112709384412,"[1.2184696791468346e-07, 0.0, 0.0, 0.0, 1.2184696791468346e-07, 0.0, 0.0, 0.0, 1.2184696791468346e-07]",,1.97113665,-1.0591182,9.3947707,"[8.999999999999999e-08, 0.0, 0.0, 0.0, 8.999999999999999e-08, 0.0, 0.0, 0.0, 8.999999999999999e-08]"
1579257253301446282,,939,,1579257253,301283713,"""base_link""",,0.132099728554,0.0130710095762,0.59726713711,-0.790980895694,"[1.0, 0.0, 0.0, 0.0, 1.0, 0.0, 0.0, 0.0, 1.0]",,-0.0566485710442,0.112282663584,0.020599141717,"[1.2184696791468346e-07, 0.0, 0.0, 0.0, 1.2184696791468346e-07, 0.0, 0.0, 0.0, 1.2184696791468346e-07]",,1.04931155,-1.1375714,9.83606995,"[8.999999999999999e-08, 0.0, 0.0, 0.0, 8.999999999999999e-08, 0.0, 0.0, 0.0, 8.999999999999999e-08]"
1579257253533140751,,940,,1579257253,532781599,"""base_link""",,0.119431383991,0.00200897149287,0.601484842054,-0.789903850687,"[1.0, 0.0, 0.0, 0.0, 1.0, 0.0, 0.0, 0.0, 1.0]",,0.12504580617,-0.0177898984402,0.00356775755063,"[1.2184696791468346e-07, 0.0, 0.0, 0.0, 1.2184696791468346e-07, 0.0, 0.0, 0.0, 1.2184696791468346e-07]",,0.8433719,-1.52003075,9.71839015,"[8.999999999999999e-08, 0.0, 0.0, 0.0, 8.999999999999999e-08, 0.0, 0.0, 0.0, 8.999999999999999e-08]"
1579257253791444794,,941,,1579257253,791306038,"""base_link""",,0.108774667053,0.00943683224821,0.600789647585,-0.791915915587,"[1.0, 0.0, 0.0, 0.0, 1.0, 0.0, 0.0, 0.0, 1.0]",,0.0627490207553,0.0902517437935,-0.152219176292,"[1.2184696791468346e-07, 0.0, 0.0, 0.0, 1.2184696791468346e-07, 0.0, 0.0, 0.0, 1.2184696791468346e-07]",,1.176798,-1.53964405,9.75761675,"[8.999999999999999e-08, 0.0, 0.0, 0.0, 8.999999999999999e-08, 0.0, 0.0, 0.0, 8.999999999999999e-08]"
1579257254023393019,,942,,1579257254,23189619,"""base_link""",,0.104075899158,-0.00549818644519,0.60850735294,-0.786674506119,"[1.0, 0.0, 0.0, 0.0, 1.0, 0.0, 0.0, 0.0, 1.0]",,-0.0773533135653,0.126959756017,-0.00271076569334,"[1.2184696791468346e-07, 0.0, 0.0, 0.0, 1.2184696791468346e-07, 0.0, 0.0, 0.0, 1.2184696791468346e-07]",,1.02969825,-1.18660465,9.69877685,"[8.999999999999999e-08, 0.0, 0.0, 0.0, 8.999999999999999e-08, 0.0, 0.0, 0.0, 8.999999999999999e-08]"
1579257254264172624,,943,,1579257254,263835558,"""base_link""",,0.103816578773,-0.0201537104636,0.612195642012,-0.783602221684,"[1.0, 0.0, 0.0, 0.0, 1.0, 0.0, 0.0, 0.0, 1.0]",,-0.0932880192995,0.0128274755552,-0.109522558749,"[1.2184696791468346e-07, 0.0, 0.0, 0.0, 1.2184696791468346e-07, 0.0, 0.0, 0.0, 1.2184696791468346e-07]",,0.16671305,-1.7063571,9.62032365,"[8.999999999999999e-08, 0.0, 0.0, 0.0, 8.999999999999999e-08, 0.0, 0.0, 0.0, 8.999999999999999e-08]"
1579257254488839825,,944,,1579257254,488672132,"""base_link""",,0.10739057881,-0.0310085876847,0.618723091915,-0.777616529276,"[1.0, 0.0, 0.0, 0.0, 1.0, 0.0, 0.0, 0.0, 1.0]",,-0.0745439231396,0.1020270437,0.0229133367538,"[1.2184696791468346e-07, 0.0, 0.0, 0.0, 1.2184696791468346e-07, 0.0, 0.0, 0.0, 1.2184696791468346e-07]",,0.65704555,-1.87307015,9.83606995,"[8.999999999999999e-08, 0.0, 0.0, 0.0, 8.999999999999999e-08, 0.0, 0.0, 0.0, 8.999999999999999e-08]"
1579257254732597016,,945,,1579257254,732246075,"""base_link""",,0.10665705564,-0.0403060297365,0.610341828154,-0.783889373097,"[1.0, 0.0, 0.0, 0.0, 1.0, 0.0, 0.0, 0.0, 1.0]",,0.0118751190603,0.0645451322198,0.142373159528,"[1.2184696791468346e-07, 0.0, 0.0, 0.0, 1.2184696791468346e-07, 0.0, 0.0, 0.0, 1.2184696791468346e-07]",,0.9218251,-1.81423025,9.40457735,"[8.999999999999999e-08, 0.0, 0.0, 0.0, 8.999999999999999e-08, 0.0, 0.0, 0.0, 8.999999999999999e-08]"
1579257254967470301,,946,,1579257254,967259629,"""base_link""",,0.0972355476099,-0.0493411419173,0.610937620447,-0.784133868621,"[1.0, 0.0, 0.0, 0.0, 1.0, 0.0, 0.0, 0.0, 1.0]",,-0.00737501401454,0.101797528565,-0.0771787837148,"[1.2184696791468346e-07, 0.0, 0.0, 0.0, 1.2184696791468346e-07, 0.0, 0.0, 0.0, 1.2184696791468346e-07]",,0.5491724,-1.73577705,9.5909037,"[8.999999999999999e-08, 0.0, 0.0, 0.0, 8.999999999999999e-08, 0.0, 0.0, 0.0, 8.999999999999999e-08]"
1579257255220849752,,947,,1579257255,220674289,"""base_link""",,0.0821703352399,-0.0537505315343,0.609495026128,-0.786685915402,"[1.0, 0.0, 0.0, 0.0, 1.0, 0.0, 0.0, 0.0, 1.0]",,0.111516036093,0.0809654295444,0.118197754025,"[1.2184696791468346e-07, 0.0, 0.0, 0.0, 1.2184696791468346e-07, 0.0, 0.0, 0.0, 1.2184696791468346e-07]",,0.18632635,-1.3140911,9.6497436,"[8.999999999999999e-08, 0.0, 0.0, 0.0, 8.999999999999999e-08, 0.0, 0.0, 0.0, 8.999999999999999e-08]"
1579257255459998673,,948,,1579257255,459644251,"""base_link""",,0.0787311374257,-0.0634322290027,0.605861957981,-0.789119159694,"[1.0, 0.0, 0.0, 0.0, 1.0, 0.0, 0.0, 0.0, 1.0]",,-0.0442630276084,0.075712479651,-0.00642414903268,"[1.2184696791468346e-07, 0.0, 0.0, 0.0, 1.2184696791468346e-07, 0.0, 0.0, 0.0, 1.2184696791468346e-07]",,0.0196133,-1.52003075,9.5712904,"[8.999999999999999e-08, 0.0, 0.0, 0.0, 8.999999999999999e-08, 0.0, 0.0, 0.0, 8.999999999999999e-08]"
1579257255691542498,,949,,1579257255,691370852,"""base_link""",,0.0738562069679,-0.0689877112834,0.602795650717,-0.791469114913,"[1.0, 0.0, 0.0, 0.0, 1.0, 0.0, 0.0, 0.0, 1.0]",,0.0104662897065,0.029921701178,0.0375512093306,"[1.2184696791468346e-07, 0.0, 0.0, 0.0, 1.2184696791468346e-07, 0.0, 0.0, 0.0, 1.2184696791468346e-07]",,-0.3138128,-1.55925735,9.63993695,"[8.999999999999999e-08, 0.0, 0.0, 0.0, 8.999999999999999e-08, 0.0, 0.0, 0.0, 8.999999999999999e-08]"
1579257255941153661,,950,,1579257255,940754933,"""base_link""",,0.073910766014,-0.0702163536518,0.603388412174,-0.790904094313,"[1.0, 0.0, 0.0, 0.0, 1.0, 0.0, 0.0, 0.0, 1.0]",,0.0150162372738,-0.0227937530726,-0.0633499398828,"[1.2184696791468346e-07, 0.0, 0.0, 0.0, 1.2184696791468346e-07, 0.0, 0.0, 0.0, 1.2184696791468346e-07]",,-0.2941995,-1.52003075,9.5124505,"[8.999999999999999e-08, 0.0, 0.0, 0.0, 8.999999999999999e-08, 0.0, 0.0, 0.0, 8.999999999999999e-08]"
1579257256170919134,,951,,1579257256,170533426,"""base_link""",,0.0728490490886,-0.0732003937995,0.604881246458,-0.789590650957,"[1.0, 0.0, 0.0, 0.0, 1.0, 0.0, 0.0, 0.0, 1.0]",,-0.0676116794348,0.0218597128987,0.0102392304689,"[1.2184696791468346e-07, 0.0, 0.0, 0.0, 1.2184696791468346e-07, 0.0, 0.0, 0.0, 1.2184696791468346e-07]",,-0.784532,-1.77500365,9.7281968,"[8.999999999999999e-08, 0.0, 0.0, 0.0, 8.999999999999999e-08, 0.0, 0.0, 0.0, 8.999999999999999e-08]"
1579257256410865213,,952,,1579257256,410747399,"""base_link""",,0.0743534424354,-0.072198998711,0.605604463867,-0.788988024958,"[1.0, 0.0, 0.0, 0.0, 1.0, 0.0, 0.0, 0.0, 1.0]",,0.0447814390063,-0.0272747538984,-0.055292788893,"[1.2184696791468346e-07, 0.0, 0.0, 0.0, 1.2184696791468346e-07, 0.0, 0.0, 0.0, 1.2184696791468346e-07]",,-0.4903325,-1.63771055,9.610517,"[8.999999999999999e-08, 0.0, 0.0, 0.0, 8.999999999999999e-08, 0.0, 0.0, 0.0, 8.999999999999999e-08]"
1579257256650224161,,953,,1579257256,649908826,"""base_link""",,0.0779544259489,-0.0769842345884,0.606913126816,-0.787180406005,"[1.0, 0.0, 0.0, 0.0, 1.0, 0.0, 0.0, 0.0, 1.0]",,-0.111239045858,0.055194247514,0.0208278000355,"[1.2184696791468346e-07, 0.0, 0.0, 0.0, 1.2184696791468346e-07, 0.0, 0.0, 0.0, 1.2184696791468346e-07]",,-0.48052585,-1.569064,9.73800345,"[8.999999999999999e-08, 0.0, 0.0, 0.0, 8.999999999999999e-08, 0.0, 0.0, 0.0, 8.999999999999999e-08]"
1579257256910772546,,954,,1579257256,910593090,"""base_link""",,0.0825921165704,-0.0832757847966,0.606873505907,-0.786096834859,"[1.0, 0.0, 0.0, 0.0, 1.0, 0.0, 0.0, 0.0, 1.0]",,-0.0222159456462,-0.0279148034751,-0.0370010398328,"[1.2184696791468346e-07, 0.0, 0.0, 0.0, 1.2184696791468346e-07, 0.0, 0.0, 0.0, 1.2184696791468346e-07]",,-0.1372931,-1.50041745,9.7281968,"[8.999999999999999e-08, 0.0, 0.0, 0.0, 8.999999999999999e-08, 0.0, 0.0, 0.0, 8.999999999999999e-08]"
1579257257143479795,,955,,1579257257,143298630,"""base_link""",,0.0823570956542,-0.0807302742901,0.605036468195,-0.787801246357,"[1.0, 0.0, 0.0, 0.0, 1.0, 0.0, 0.0, 0.0, 1.0]",,0.0373332314193,-0.0113224294037,0.0671424940228,"[1.2184696791468346e-07, 0.0, 0.0, 0.0, 1.2184696791468346e-07, 0.0, 0.0, 0.0, 1.2184696791468346e-07]",,-0.2157463,-1.26505785,9.6301303,"[8.999999999999999e-08, 0.0, 0.0, 0.0, 8.999999999999999e-08, 0.0, 0.0, 0.0, 8.999999999999999e-08]"
1579257257368480019,,956,,1579257257,368079650,"""base_link""",,0.0790792523355,-0.0746225188476,0.600244206922,-0.792391849773,"[1.0, 0.0, 0.0, 0.0, 1.0, 0.0, 0.0, 0.0, 1.0]",,0.10426748544,-0.0286829248071,0.0409152321517,"[1.2184696791468346e-07, 0.0, 0.0, 0.0, 1.2184696791468346e-07, 0.0, 0.0, 0.0, 1.2184696791468346e-07]",,-0.61781895,-1.65732385,9.83606995,"[8.999999999999999e-08, 0.0, 0.0, 0.0, 8.999999999999999e-08, 0.0, 0.0, 0.0, 8.999999999999999e-08]"
1579257257610551284,,957,,1579257257,610379762,"""base_link""",,0.0671112588627,-0.0644022387607,0.597786897675,-0.796240702015,"[1.0, 0.0, 0.0, 0.0, 1.0, 0.0, 0.0, 0.0, 1.0]",,0.036112293601,-0.0478202551603,0.0190637093037,"[1.2184696791468346e-07, 0.0, 0.0, 0.0, 1.2184696791468346e-07, 0.0, 0.0, 0.0, 1.2184696791468346e-07]",,-0.93163175,-1.59848395,9.56148375,"[8.999999999999999e-08, 0.0, 0.0, 0.0, 8.999999999999999e-08, 0.0, 0.0, 0.0, 8.999999999999999e-08]"
1579257257848708322,,958,,1579257257,848514272,"""base_link""",,0.0765597651232,-0.0621887658916,0.59808540389,-0.795339556048,"[1.0, 0.0, 0.0, 0.0, 1.0, 0.0, 0.0, 0.0, 1.0]",,-0.100020520389,-0.0146045936272,-0.0276759751141,"[1.2184696791468346e-07, 0.0, 0.0, 0.0, 1.2184696791468346e-07, 0.0, 0.0, 0.0, 1.2184696791468346e-07]",,-0.7453054,-1.55925735,9.4536106,"[8.999999999999999e-08, 0.0, 0.0, 0.0, 8.999999999999999e-08, 0.0, 0.0, 0.0, 8.999999999999999e-08]"
1579257258101240140,,959,,1579257258,100908887,"""base_link""",,0.0806294349344,-0.0632544833169,0.595787634619,-0.796576963637,"[1.0, 0.0, 0.0, 0.0, 1.0, 0.0, 0.0, 0.0, 1.0]",,0.0545540750027,-0.00617172475904,0.00769845815375,"[1.2184696791468346e-07, 0.0, 0.0, 0.0, 1.2184696791468346e-07, 0.0, 0.0, 0.0, 1.2184696791468346e-07]",,-0.55897905,-1.7259704,9.58109705,"[8.999999999999999e-08, 0.0, 0.0, 0.0, 8.999999999999999e-08, 0.0, 0.0, 0.0, 8.999999999999999e-08]"
1579257258340532939,,960,,1579257258,340357960,"""base_link""",,0.070292957895,-0.0633365194556,0.598886384117,-0.795224801105,"[1.0, 0.0, 0.0, 0.0, 1.0, 0.0, 0.0, 0.0, 1.0]",,0.0543383769691,0.029465880245,-0.0285950209945,"[1.2184696791468346e-07, 0.0, 0.0, 0.0, 1.2184696791468346e-07, 0.0, 0.0, 0.0, 1.2184696791468346e-07]",,-0.5295591,-2.24572285,9.75761675,"[8.999999999999999e-08, 0.0, 0.0, 0.0, 8.999999999999999e-08, 0.0, 0.0, 0.0, 8.999999999999999e-08]"
1579257258565215279,,961,,1579257258,564839716,"""base_link""",,0.0627837074973,-0.0558386522388,0.600685175955,-0.795058218231,"[1.0, 0.0, 0.0, 0.0, 1.0, 0.0, 0.0, 0.0, 1.0]",,0.155300617218,0.00445327488706,-0.0493409447372,"[1.2184696791468346e-07, 0.0, 0.0, 0.0, 1.2184696791468346e-07, 0.0, 0.0, 0.0, 1.2184696791468346e-07]",,-0.2941995,-1.9024901,9.5712904,"[8.999999999999999e-08, 0.0, 0.0, 0.0, 8.999999999999999e-08, 0.0, 0.0, 0.0, 8.999999999999999e-08]"
1579257258806483527,,962,,1579257258,806312727,"""base_link""",,0.0528777480453,-0.0390429103799,0.606514128859,-0.792351062601,"[1.0, 0.0, 0.0, 0.0, 1.0, 0.0, 0.0, 0.0, 1.0]",,0.0657455325127,-0.0557697787881,-0.0202533584088,"[1.2184696791468346e-07, 0.0, 0.0, 0.0, 1.2184696791468346e-07, 0.0, 0.0, 0.0, 1.2184696791468346e-07]",,-0.12748645,-1.1179581,9.60071035,"[8.999999999999999e-08, 0.0, 0.0, 0.0, 8.999999999999999e-08, 0.0, 0.0, 0.0, 8.999999999999999e-08]"
1579257259057972755,,963,,1579257259,57753615,"""base_link""",,0.0556408614413,-0.0394061542886,0.597046931339,-0.799303578949,"[1.0, 0.0, 0.0, 0.0, 1.0, 0.0, 0.0, 0.0, 1.0]",,0.0224820785224,0.110827185214,0.159795075655,"[1.2184696791468346e-07, 0.0, 0.0, 0.0, 1.2184696791468346e-07, 0.0, 0.0, 0.0, 1.2184696791468346e-07]",,-0.0784532,-1.32389775,9.7870367,"[8.999999999999999e-08, 0.0, 0.0, 0.0, 8.999999999999999e-08, 0.0, 0.0, 0.0, 8.999999999999999e-08]"
1579257259289424573,,964,,1579257259,289124155,"""base_link""",,0.0402948018701,-0.0469612044885,0.588388975272,-0.806206789846,"[1.0, 0.0, 0.0, 0.0, 1.0, 0.0, 0.0, 0.0, 1.0]",,0.0275424942374,0.148174226284,0.0337247699499,"[1.2184696791468346e-07, 0.0, 0.0, 0.0, 1.2184696791468346e-07, 0.0, 0.0, 0.0, 1.2184696791468346e-07]",,-0.0392266,-0.99047165,9.73800345,"[8.999999999999999e-08, 0.0, 0.0, 0.0, 8.999999999999999e-08, 0.0, 0.0, 0.0, 8.999999999999999e-08]"
1579257259548842779,,965,,1579257259,548699566,"""base_link""",,0.0321150190074,-0.0675617218728,0.581005509075,-0.810454587078,"[1.0, 0.0, 0.0, 0.0, 1.0, 0.0, 0.0, 0.0, 1.0]",,-0.0466277450323,0.167694509029,0.128449171782,"[1.2184696791468346e-07, 0.0, 0.0, 0.0, 1.2184696791468346e-07, 0.0, 0.0, 0.0, 1.2184696791468346e-07]",,-0.4118793,-1.04931155,9.52225715,"[8.999999999999999e-08, 0.0, 0.0, 0.0, 8.999999999999999e-08, 0.0, 0.0, 0.0, 8.999999999999999e-08]"
1579257259795980533,,966,,1579257259,795713158,"""base_link""",,0.0329103867566,-0.0757027261841,0.569594642683,-0.817770106276,"[1.0, 0.0, 0.0, 0.0, 1.0, 0.0, 0.0, 0.0, 1.0]",,-0.028236862272,0.0610007680953,0.0782268941402,"[1.2184696791468346e-07, 0.0, 0.0, 0.0, 1.2184696791468346e-07, 0.0, 0.0, 0.0, 1.2184696791468346e-07]",,-1.4121576,-1.02969825,9.65955025,"[8.999999999999999e-08, 0.0, 0.0, 0.0, 8.999999999999999e-08, 0.0, 0.0, 0.0, 8.999999999999999e-08]"
1579257260013141541,,967,,1579257260,12727855,"""base_link""",,0.0291302260905,-0.0913780966192,0.569905038667,-0.816094185917,"[1.0, 0.0, 0.0, 0.0, 1.0, 0.0, 0.0, 0.0, 1.0]",,-0.118156567216,0.2141803056,-0.162312284112,"[1.2184696791468346e-07, 0.0, 0.0, 0.0, 1.2184696791468346e-07, 0.0, 0.0, 0.0, 1.2184696791468346e-07]",,-1.61809725,-0.61781895,9.42419065,"[8.999999999999999e-08, 0.0, 0.0, 0.0, 8.999999999999999e-08, 0.0, 0.0, 0.0, 8.999999999999999e-08]"
1579257260258556056,,968,,1579257260,258377440,"""base_link""",,0.0269026258137,-0.129974936588,0.582543852147,-0.801888661167,"[1.0, 0.0, 0.0, 0.0, 1.0, 0.0, 0.0, 0.0, 1.0]",,-0.102314934134,0.276935219765,-0.0465628951788,"[1.2184696791468346e-07, 0.0, 0.0, 0.0, 1.2184696791468346e-07, 0.0, 0.0, 0.0, 1.2184696791468346e-07]",,-2.4712758,-1.24544455,9.44380395,"[8.999999999999999e-08, 0.0, 0.0, 0.0, 8.999999999999999e-08, 0.0, 0.0, 0.0, 8.999999999999999e-08]"
1579257260491264175,,969,,1579257260,490953815,"""base_link""",,0.0235650829229,-0.136718993988,0.569602697308,-0.810126762161,"[1.0, 0.0, 0.0, 0.0, 1.0, 0.0, 0.0, 0.0, 1.0]",,-0.0242011956871,-0.0534126907587,0.0992333069444,"[1.2184696791468346e-07, 0.0, 0.0, 0.0, 1.2184696791468346e-07, 0.0, 0.0, 0.0, 1.2184696791468346e-07]",,-2.48108245,-1.6867438,9.65955025,"[8.999999999999999e-08, 0.0, 0.0, 0.0, 8.999999999999999e-08, 0.0, 0.0, 0.0, 8.999999999999999e-08]"
1579257260743789759,,970,,1579257260,743603241,"""base_link""",,0.0239257678137,-0.131803025515,0.566531509701,-0.813079066644,"[1.0, 0.0, 0.0, 0.0, 1.0, 0.0, 0.0, 0.0, 1.0]",,-0.0472575351596,-0.0530026853085,0.0191113688052,"[1.2184696791468346e-07, 0.0, 0.0, 0.0, 1.2184696791468346e-07, 0.0, 0.0, 0.0, 1.2184696791468346e-07]",,-2.50069575,-1.8436502,9.44380395,"[8.999999999999999e-08, 0.0, 0.0, 0.0, 8.999999999999999e-08, 0.0, 0.0, 0.0, 8.999999999999999e-08]"
1579257260974260642,,971,,1579257260,974089865,"""base_link""",,0.0295551225332,-0.125690333301,0.560730211497,-0.817869222285,"[1.0, 0.0, 0.0, 0.0, 1.0, 0.0, 0.0, 0.0, 1.0]",,0.0345573052764,-0.0494852438569,0.0591213852167,"[1.2184696791468346e-07, 0.0, 0.0, 0.0, 1.2184696791468346e-07, 0.0, 0.0, 0.0, 1.2184696791468346e-07]",,-1.7848103,-2.0986231,9.24767095,"[8.999999999999999e-08, 0.0, 0.0, 0.0, 8.999999999999999e-08, 0.0, 0.0, 0.0, 8.999999999999999e-08]"
1579257261213920382,,972,,1579257261,213495149,"""base_link""",,0.0363879247364,-0.109276675811,0.545997157044,-0.829832291223,"[1.0, 0.0, 0.0, 0.0, 1.0, 0.0, 0.0, 0.0, 1.0]",,0.0476440116763,-0.198307693005,0.260005414486,"[1.2184696791468346e-07, 0.0, 0.0, 0.0, 1.2184696791468346e-07, 0.0, 0.0, 0.0, 1.2184696791468346e-07]",,-1.79461695,-1.9417167,9.65955025,"[8.999999999999999e-08, 0.0, 0.0, 0.0, 8.999999999999999e-08, 0.0, 0.0, 0.0, 8.999999999999999e-08]"
1579257261450045295,,973,,1579257261,449755299,"""base_link""",,0.0460918004961,-0.0819724539622,0.536217726228,-0.838824542319,"[1.0, 0.0, 0.0, 0.0, 1.0, 0.0, 0.0, 0.0, 1.0]",,-0.0595008581877,-0.196164220572,-0.0400078855455,"[1.2184696791468346e-07, 0.0, 0.0, 0.0, 1.2184696791468346e-07, 0.0, 0.0, 0.0, 1.2184696791468346e-07]",,-1.36312435,-1.3533177,9.5909037,"[8.999999999999999e-08, 0.0, 0.0, 0.0, 8.999999999999999e-08, 0.0, 0.0, 0.0, 8.999999999999999e-08]"
1579257261711275711,,974,,1579257261,711038663,"""base_link""",,0.0524398141544,-0.0720202621532,0.530860303099,-0.842763600498,"[1.0, 0.0, 0.0, 0.0, 1.0, 0.0, 0.0, 0.0, 1.0]",,0.0269857496023,0.0438628345728,0.041254401207,"[1.2184696791468346e-07, 0.0, 0.0, 0.0, 1.2184696791468346e-07, 0.0, 0.0, 0.0, 1.2184696791468346e-07]",,-1.4513842,-0.91201845,9.7674234,"[8.999999999999999e-08, 0.0, 0.0, 0.0, 8.999999999999999e-08, 0.0, 0.0, 0.0, 8.999999999999999e-08]"
1579257261933139308,,975,,1579257261,932849253,"""base_link""",,0.0540758721955,-0.0688340926646,0.523447915098,-0.847549377861,"[1.0, 0.0, 0.0, 0.0, 1.0, 0.0, 0.0, 0.0, 1.0]",,-0.063239403069,-0.0670941993594,0.0521442480385,"[1.2184696791468346e-07, 0.0, 0.0, 0.0, 1.2184696791468346e-07, 0.0, 0.0, 0.0, 1.2184696791468346e-07]",,-1.2748645,-0.71588545,9.60071035,"[8.999999999999999e-08, 0.0, 0.0, 0.0, 8.999999999999999e-08, 0.0, 0.0, 0.0, 8.999999999999999e-08]"
1579257262196732087,,976,,1579257262,196582603,"""base_link""",,0.0583197507086,-0.0625668790526,0.528934658138,-0.84434135262,"[1.0, 0.0, 0.0, 0.0, 1.0, 0.0, 0.0, 0.0, 1.0]",,-0.0182794388384,-0.07891741395,-0.0500593520701,"[1.2184696791468346e-07, 0.0, 0.0, 0.0, 1.2184696791468346e-07, 0.0, 0.0, 0.0, 1.2184696791468346e-07]",,-1.02969825,-1.5298374,9.99297635,"[8.999999999999999e-08, 0.0, 0.0, 0.0, 8.999999999999999e-08, 0.0, 0.0, 0.0, 8.999999999999999e-08]"
1579257262406976940,,977,,1579257262,406878904,"""base_link""",,0.0654895001701,-0.0611737310001,0.528687309006,-0.844072644563,"[1.0, 0.0, 0.0, 0.0, 1.0, 0.0, 0.0, 0.0, 1.0]",,0.004096086137,-0.0657342746854,0.0412909574807,"[1.2184696791468346e-07, 0.0, 0.0, 0.0, 1.2184696791468346e-07, 0.0, 0.0, 0.0, 1.2184696791468346e-07]",,-0.85317855,-1.87307015,8.85540495,"[8.999999999999999e-08, 0.0, 0.0, 0.0, 8.999999999999999e-08, 0.0, 0.0, 0.0, 8.999999999999999e-08]"
1579257262653454861,,978,,1579257262,653168509,"""base_link""",,0.067335200993,-0.0606559468389,0.514451231611,-0.852717278536,"[1.0, 0.0, 0.0, 0.0, 1.0, 0.0, 0.0, 0.0, 1.0]",,-0.00156371959019,-0.0627587214112,0.221760571003,"[1.2184696791468346e-07, 0.0, 0.0, 0.0, 1.2184696791468346e-07, 0.0, 0.0, 0.0, 1.2184696791468346e-07]",,-0.57859235,-1.89268345,9.7085835,"[8.999999999999999e-08, 0.0, 0.0, 0.0, 8.999999999999999e-08, 0.0, 0.0, 0.0, 8.999999999999999e-08]"
1579257262912457473,,979,,1579257262,912296436,"""base_link""",,0.0707499082527,-0.0379038023542,0.492158486577,-0.866797425203,"[1.0, 0.0, 0.0, 0.0, 1.0, 0.0, 0.0, 0.0, 1.0]",,0.095810495317,-0.110112756491,0.0605811662972,"[1.2184696791468346e-07, 0.0, 0.0, 0.0, 1.2184696791468346e-07, 0.0, 0.0, 0.0, 1.2184696791468346e-07]",,-0.38245935,-1.4513842,10.36562905,"[8.999999999999999e-08, 0.0, 0.0, 0.0, 8.999999999999999e-08, 0.0, 0.0, 0.0, 8.999999999999999e-08]"
1579257263145111104,,980,,1579257263,144736265,"""base_link""",,0.0742661468856,-0.0282661135994,0.486086277401,-0.870290582031,"[1.0, 0.0, 0.0, 0.0, 1.0, 0.0, 0.0, 0.0, 1.0]",,-0.0649342089891,-0.041121352464,0.136014059186,"[1.2184696791468346e-07, 0.0, 0.0, 0.0, 1.2184696791468346e-07, 0.0, 0.0, 0.0, 1.2184696791468346e-07]",,-0.79433865,-1.10815145,9.83606995,"[8.999999999999999e-08, 0.0, 0.0, 0.0, 8.999999999999999e-08, 0.0, 0.0, 0.0, 8.999999999999999e-08]"
1579257263381109178,,981,,1579257263,380951449,"""base_link""",,0.0726860385193,-0.0281436214086,0.473920226798,-0.877111335584,"[1.0, 0.0, 0.0, 0.0, 1.0, 0.0, 0.0, 0.0, 1.0]",,0.000854951038491,0.00104733533226,-0.00845939107239,"[1.2184696791468346e-07, 0.0, 0.0, 0.0, 1.2184696791468346e-07, 0.0, 0.0, 0.0, 1.2184696791468346e-07]",,-1.1179581,-0.63743225,9.2967042,"[8.999999999999999e-08, 0.0, 0.0, 0.0, 8.999999999999999e-08, 0.0, 0.0, 0.0, 8.999999999999999e-08]"
1579257263631701337,,982,,1579257263,631530373,"""base_link""",,0.0758643713175,-0.0305228077344,0.478884082358,-0.874061205544,"[1.0, 0.0, 0.0, 0.0, 1.0, 0.0, 0.0, 0.0, 1.0]",,-0.00197203457355,-0.00515979947522,0.0324526019394,"[1.2184696791468346e-07, 0.0, 0.0, 0.0, 1.2184696791468346e-07, 0.0, 0.0, 0.0, 1.2184696791468346e-07]",,-0.93163175,-1.10815145,9.8851032,"[8.999999999999999e-08, 0.0, 0.0, 0.0, 8.999999999999999e-08, 0.0, 0.0, 0.0, 8.999999999999999e-08]"
1579257263873417199,,983,,1579257263,873214510,"""base_link""",,0.0662888855413,-0.0280585705275,0.483674966769,-0.87228265304,"[1.0, 0.0, 0.0, 0.0, 1.0, 0.0, 0.0, 0.0, 1.0]",,0.0432542786002,-0.0294522028416,-0.100938230753,"[1.2184696791468346e-07, 0.0, 0.0, 0.0, 1.2184696791468346e-07, 0.0, 0.0, 0.0, 1.2184696791468346e-07]",,-0.6668522,-0.8041453,9.5909037,"[8.999999999999999e-08, 0.0, 0.0, 0.0, 8.999999999999999e-08, 0.0, 0.0, 0.0, 8.999999999999999e-08]"
1579257264109768712,,984,,1579257264,109589344,"""base_link""",,0.0648982106955,-0.027155384012,0.481807456891,-0.873448557072,"[1.0, 0.0, 0.0, 0.0, 1.0, 0.0, 0.0, 0.0, 1.0]",,0.0575069189072,-0.016122199595,0.0801356211305,"[1.2184696791468346e-07, 0.0, 0.0, 0.0, 1.2184696791468346e-07, 0.0, 0.0, 0.0, 1.2184696791468346e-07]",,-0.48052585,-0.9218251,9.80665,"[8.999999999999999e-08, 0.0, 0.0, 0.0, 8.999999999999999e-08, 0.0, 0.0, 0.0, 8.999999999999999e-08]"
1579257264341972038,,985,,1579257264,341736878,"""base_link""",,0.0672764469898,-0.0278547659039,0.480097754404,-0.874187701762,"[1.0, 0.0, 0.0, 0.0, 1.0, 0.0, 0.0, 0.0, 1.0]",,-0.0361289717257,-0.00734977051616,-0.0470776930451,"[1.2184696791468346e-07, 0.0, 0.0, 0.0, 1.2184696791468346e-07, 0.0, 0.0, 0.0, 1.2184696791468346e-07]",,-0.1372931,-1.04931155,9.5516771,"[8.999999999999999e-08, 0.0, 0.0, 0.0, 8.999999999999999e-08, 0.0, 0.0, 0.0, 8.999999999999999e-08]"
1579257264583787827,,986,,1579257264,583402731,"""base_link""",,0.0732048258465,-0.0285337002336,0.475965565387,-0.87594729407,"[1.0, 0.0, 0.0, 0.0, 1.0, 0.0, 0.0, 0.0, 1.0]",,-0.0461172237992,-0.0133834984154,0.160650461912,"[1.2184696791468346e-07, 0.0, 0.0, 0.0, 1.2184696791468346e-07, 0.0, 0.0, 0.0, 1.2184696791468346e-07]",,0.3530394,-1.26505785,9.7478101,"[8.999999999999999e-08, 0.0, 0.0, 0.0, 8.999999999999999e-08, 0.0, 0.0, 0.0, 8.999999999999999e-08]"
1579257264824720434,,987,,1579257264,824545572,"""base_link""",,0.0751450914097,-0.0323198469282,0.456074610368,-0.88617413216,"[1.0, 0.0, 0.0, 0.0, 1.0, 0.0, 0.0, 0.0, 1.0]",,-0.0337178595364,-0.0129224695265,0.206825137138,"[1.2184696791468346e-07, 0.0, 0.0, 0.0, 1.2184696791468346e-07, 0.0, 0.0, 0.0, 1.2184696791468346e-07]",,0.24516625,-1.6867438,10.002783,"[8.999999999999999e-08, 0.0, 0.0, 0.0, 8.999999999999999e-08, 0.0, 0.0, 0.0, 8.999999999999999e-08]"
1579257265057991833,,988,,1579257265,57613616,"""base_link""",,0.0706165512132,-0.0225158873598,0.426779118024,-0.901313442666,"[1.0, 0.0, 0.0, 0.0, 1.0, 0.0, 0.0, 0.0, 1.0]",,0.0671554803848,-0.0736810192466,0.267166614532,"[1.2184696791468346e-07, 0.0, 0.0, 0.0, 1.2184696791468346e-07, 0.0, 0.0, 0.0, 1.2184696791468346e-07]",,-0.0588399,-1.2160246,9.63993695,"[8.999999999999999e-08, 0.0, 0.0, 0.0, 8.999999999999999e-08, 0.0, 0.0, 0.0, 8.999999999999999e-08]"
1579257265310534380,,989,,1579257265,310329015,"""base_link""",,0.0645299443089,-0.0177129788272,0.406505530515,-0.911194485458,"[1.0, 0.0, 0.0, 0.0, 1.0, 0.0, 0.0, 0.0, 1.0]",,0.0642605572939,0.000748185033444,0.156506180763,"[1.2184696791468346e-07, 0.0, 0.0, 0.0, 1.2184696791468346e-07, 0.0, 0.0, 0.0, 1.2184696791468346e-07]",,-0.24516625,-0.81395195,9.52225715,"[8.999999999999999e-08, 0.0, 0.0, 0.0, 8.999999999999999e-08, 0.0, 0.0, 0.0, 8.999999999999999e-08]"
1579257265532881753,,990,,1579257265,532725317,"""base_link""",,0.0691275695867,-0.0188334668417,0.397687445975,-0.914719287522,"[1.0, 0.0, 0.0, 0.0, 1.0, 0.0, 0.0, 0.0, 1.0]",,-0.0740167573094,0.00828842166811,0.0384241342545,"[1.2184696791468346e-07, 0.0, 0.0, 0.0, 1.2184696791468346e-07, 0.0, 0.0, 0.0, 1.2184696791468346e-07]",,-0.4118793,-0.9610517,9.87529655,"[8.999999999999999e-08, 0.0, 0.0, 0.0, 8.999999999999999e-08, 0.0, 0.0, 0.0, 8.999999999999999e-08]"
1579257265770391421,,991,,1579257265,770007636,"""base_link""",,0.0677223208044,-0.0234069917666,0.3968528125,-0.915081223287,"[1.0, 0.0, 0.0, 0.0, 1.0, 0.0, 0.0, 0.0, 1.0]",,0.0112537657842,0.0442030802369,-0.0517591945827,"[1.2184696791468346e-07, 0.0, 0.0, 0.0, 1.2184696791468346e-07, 0.0, 0.0, 0.0, 1.2184696791468346e-07]",,-0.55897905,-0.7649187,9.6889702,"[8.999999999999999e-08, 0.0, 0.0, 0.0, 8.999999999999999e-08, 0.0, 0.0, 0.0, 8.999999999999999e-08]"
1579257266022522652,,992,,1579257266,22363519,"""base_link""",,0.0663281564752,-0.0267312328903,0.406633841432,-0.910788085039,"[1.0, 0.0, 0.0, 0.0, 1.0, 0.0, 0.0, 0.0, 1.0]",,0.00407234532759,0.0321985930204,-0.0598693527281,"[1.2184696791468346e-07, 0.0, 0.0, 0.0, 1.2184696791468346e-07, 0.0, 0.0, 0.0, 1.2184696791468346e-07]",,-0.6864655,-0.9610517,9.7478101,"[8.999999999999999e-08, 0.0, 0.0, 0.0, 8.999999999999999e-08, 0.0, 0.0, 0.0, 8.999999999999999e-08]"
1579257266252833856,,993,,1579257266,252726840,"""base_link""",,0.0619455264881,-0.0323659192344,0.410631512728,-0.909118781994,"[1.0, 0.0, 0.0, 0.0, 1.0, 0.0, 0.0, 0.0, 1.0]",,0.00378765026107,0.0378935970366,-0.130080029368,"[1.2184696791468346e-07, 0.0, 0.0, 0.0, 1.2184696791468346e-07, 0.0, 0.0, 0.0, 1.2184696791468346e-07]",,-0.8041453,-0.8433719,9.79684335,"[8.999999999999999e-08, 0.0, 0.0, 0.0, 8.999999999999999e-08, 0.0, 0.0, 0.0, 8.999999999999999e-08]"
1579257266494420680,,994,,1579257266,494103308,"""base_link""",,0.0688689073913,-0.0209057400704,0.435268310683,-0.897419367599,"[1.0, 0.0, 0.0, 0.0, 1.0, 0.0, 0.0, 0.0, 1.0]",,-0.0141585990787,-0.173911914229,-0.270767956972,"[1.2184696791468346e-07, 0.0, 0.0, 0.0, 1.2184696791468346e-07, 0.0, 0.0, 0.0, 1.2184696791468346e-07]",,-0.9610517,-0.9414384,9.69877685,"[8.999999999999999e-08, 0.0, 0.0, 0.0, 8.999999999999999e-08, 0.0, 0.0, 0.0, 8.999999999999999e-08]"
1579257266736167603,,995,,1579257266,735964419,"""base_link""",,0.0807841495745,-0.00105402958538,0.45865178771,-0.884935787405,"[1.0, 0.0, 0.0, 0.0, 1.0, 0.0, 0.0, 0.0, 1.0]",,-0.0455108471215,-0.0849019959569,-0.163248211145,"[1.2184696791468346e-07, 0.0, 0.0, 0.0, 1.2184696791468346e-07, 0.0, 0.0, 0.0, 1.2184696791468346e-07]",,-0.04903325,-1.2356379,9.85568325,"[8.999999999999999e-08, 0.0, 0.0, 0.0, 8.999999999999999e-08, 0.0, 0.0, 0.0, 8.999999999999999e-08]"
1579257266974719044,,996,,1579257266,974579882,"""base_link""",,0.0870229194869,0.00472261575482,0.475135429063,-0.875586107949,"[1.0, 0.0, 0.0, 0.0, 1.0, 0.0, 0.0, 0.0, 1.0]",,0.0246927980334,-0.0513288453221,-0.184742286801,"[1.2184696791468346e-07, 0.0, 0.0, 0.0, 1.2184696791468346e-07, 0.0, 0.0, 0.0, 1.2184696791468346e-07]",,0.10787315,-0.95124505,9.5124505,"[8.999999999999999e-08, 0.0, 0.0, 0.0, 8.999999999999999e-08, 0.0, 0.0, 0.0, 8.999999999999999e-08]"
1579257267212174122,,997,,1579257267,211959676,"""base_link""",,0.102726303042,0.00729342955206,0.49210700673,-0.864421660115,"[1.0, 0.0, 0.0, 0.0, 1.0, 0.0, 0.0, 0.0, 1.0]",,-0.178876042366,-0.134970292449,-0.0771690532565,"[1.2184696791468346e-07, 0.0, 0.0, 0.0, 1.2184696791468346e-07, 0.0, 0.0, 0.0, 1.2184696791468346e-07]",,0.97085835,-1.02969825,9.60071035,"[8.999999999999999e-08, 0.0, 0.0, 0.0, 8.999999999999999e-08, 0.0, 0.0, 0.0, 8.999999999999999e-08]"
1579257267475375817,,998,,1579257267,475200275,"""base_link""",,0.108077686916,0.014200914228,0.486985544009,-0.866580998841,"[1.0, 0.0, 0.0, 0.0, 1.0, 0.0, 0.0, 0.0, 1.0]",,0.10326077044,-0.0129967788234,0.0073901899159,"[1.2184696791468346e-07, 0.0, 0.0, 0.0, 1.2184696791468346e-07, 0.0, 0.0, 0.0, 1.2184696791468346e-07]",,1.2356379,-0.87279185,9.6693569,"[8.999999999999999e-08, 0.0, 0.0, 0.0, 8.999999999999999e-08, 0.0, 0.0, 0.0, 8.999999999999999e-08]"
1579257267704527369,,999,,1579257267,704100049,"""base_link""",,0.0923237988339,0.0146980248108,0.493449474105,-0.864735740409,"[1.0, 0.0, 0.0, 0.0, 1.0, 0.0, 0.0, 0.0, 1.0]",,0.128084927797,0.0695890262723,-0.0153156109154,"[1.2184696791468346e-07, 0.0, 0.0, 0.0, 1.2184696791468346e-07, 0.0, 0.0, 0.0, 1.2184696791468346e-07]",,0.46091255,-0.6472389,10.1008495,"[8.999999999999999e-08, 0.0, 0.0, 0.0, 8.999999999999999e-08, 0.0, 0.0, 0.0, 8.999999999999999e-08]"
1579257267935522512,,1000,,1579257267,935157846,"""base_link""",,0.0804656445606,-0.00608527381564,0.509493486178,-0.856682343129,"[1.0, 0.0, 0.0, 0.0, 1.0, 0.0, 0.0, 0.0, 1.0]",,-0.0416565574706,0.205055698752,-0.273601353168,"[1.2184696791468346e-07, 0.0, 0.0, 0.0, 1.2184696791468346e-07, 0.0, 0.0, 0.0, 1.2184696791468346e-07]",,0.57859235,-1.26505785,9.93413645,"[8.999999999999999e-08, 0.0, 0.0, 0.0, 8.999999999999999e-08, 0.0, 0.0, 0.0, 8.999999999999999e-08]"
1579257268169178908,,1001,,1579257268,168979842,"""base_link""",,0.0681284522636,-0.0204379595877,0.528883348001,-0.845708701627,"[1.0, 0.0, 0.0, 0.0, 1.0, 0.0, 0.0, 0.0, 1.0]",,0.0512524656951,0.0884835273027,-0.126719862223,"[1.2184696791468346e-07, 0.0, 0.0, 0.0, 1.2184696791468346e-07, 0.0, 0.0, 0.0, 1.2184696791468346e-07]",,0.1176798,-1.04931155,9.6301303,"[8.999999999999999e-08, 0.0, 0.0, 0.0, 8.999999999999999e-08, 0.0, 0.0, 0.0, 8.999999999999999e-08]"
1579257268418539170,,1002,,1579257268,418180012,"""base_link""",,0.0748997129315,-0.0235558380155,0.543041077725,-0.836027238433,"[1.0, 0.0, 0.0, 0.0, 1.0, 0.0, 0.0, 0.0, 1.0]",,-0.0684992522001,0.0345441512764,-0.136096939445,"[1.2184696791468346e-07, 0.0, 0.0, 0.0, 1.2184696791468346e-07, 0.0, 0.0, 0.0, 1.2184696791468346e-07]",,-0.08825985,-1.3925443,9.1986377,"[8.999999999999999e-08, 0.0, 0.0, 0.0, 8.999999999999999e-08, 0.0, 0.0, 0.0, 8.999999999999999e-08]"
1579257268650860070,,1003,,1579257268,650710842,"""base_link""",,0.0708364748476,-0.0265724611646,0.563051106837,-0.822951729586,"[1.0, 0.0, 0.0, 0.0, 1.0, 0.0, 0.0, 0.0, 1.0]",,-0.0239242948592,0.0271306876093,-0.171477243304,"[1.2184696791468346e-07, 0.0, 0.0, 0.0, 1.2184696791468346e-07, 0.0, 0.0, 0.0, 1.2184696791468346e-07]",,-0.50013915,-1.372931,9.6693569,"[8.999999999999999e-08, 0.0, 0.0, 0.0, 8.999999999999999e-08, 0.0, 0.0, 0.0, 8.999999999999999e-08]"
1579257268895574160,,1004,,1579257268,895432636,"""base_link""",,0.0778276786932,-0.0419679782069,0.573798437723,-0.814209367485,"[1.0, 0.0, 0.0, 0.0, 1.0, 0.0, 0.0, 0.0, 1.0]",,-0.117912739515,0.0150588080287,-0.0775137320161,"[1.2184696791468346e-07, 0.0, 0.0, 0.0, 1.2184696791468346e-07, 0.0, 0.0, 0.0, 1.2184696791468346e-07]",,0.3726527,-1.6671305,9.7085835,"[8.999999999999999e-08, 0.0, 0.0, 0.0, 8.999999999999999e-08, 0.0, 0.0, 0.0, 8.999999999999999e-08]"
1579257269144112316,,1005,,1579257269,143750109,"""base_link""",,0.0719305328735,-0.043838847701,0.575676455428,-0.813326977629,"[1.0, 0.0, 0.0, 0.0, 1.0, 0.0, 0.0, 0.0, 1.0]",,0.0172986947,-0.00233329832554,0.027068933472,"[1.2184696791468346e-07, 0.0, 0.0, 0.0, 1.2184696791468346e-07, 0.0, 0.0, 0.0, 1.2184696791468346e-07]",,0.1765197,-1.02969825,9.56148375,"[8.999999999999999e-08, 0.0, 0.0, 0.0, 8.999999999999999e-08, 0.0, 0.0, 0.0, 8.999999999999999e-08]"
1579257269371705139,,1006,,1579257269,371558316,"""base_link""",,0.0750162025017,-0.0413460620409,0.572456364063,-0.815448823507,"[1.0, 0.0, 0.0, 0.0, 1.0, 0.0, 0.0, 0.0, 1.0]",,0.0624232590199,-0.112222798169,0.0660551264882,"[1.2184696791468346e-07, 0.0, 0.0, 0.0, 1.2184696791468346e-07, 0.0, 0.0, 0.0, 1.2184696791468346e-07]",,0.06864655,-0.6472389,9.5516771,"[8.999999999999999e-08, 0.0, 0.0, 0.0, 8.999999999999999e-08, 0.0, 0.0, 0.0, 8.999999999999999e-08]"
1579257269628106219,,1007,,1579257269,627858072,"""base_link""",,0.0720530499682,-0.0359261511887,0.568925090143,-0.818438703543,"[1.0, 0.0, 0.0, 0.0, 1.0, 0.0, 0.0, 0.0, 1.0]",,0.095169134438,-0.0312864668667,0.0571632012725,"[1.2184696791468346e-07, 0.0, 0.0, 0.0, 1.2184696791468346e-07, 0.0, 0.0, 0.0, 1.2184696791468346e-07]",,-0.24516625,-0.6472389,9.80665,"[8.999999999999999e-08, 0.0, 0.0, 0.0, 8.999999999999999e-08, 0.0, 0.0, 0.0, 8.999999999999999e-08]"
1579257269863367466,,1008,,1579257269,863012196,"""base_link""",,0.0527164664369,-0.0334613607399,0.562369113661,-0.824525494757,"[1.0, 0.0, 0.0, 0.0, 1.0, 0.0, 0.0, 0.0, 1.0]",,0.119209416211,0.136937692761,0.0105697661638,"[1.2184696791468346e-07, 0.0, 0.0, 0.0, 1.2184696791468346e-07, 0.0, 0.0, 0.0, 1.2184696791468346e-07]",,0.0196133,-1.0395049,9.85568325,"[8.999999999999999e-08, 0.0, 0.0, 0.0, 8.999999999999999e-08, 0.0, 0.0, 0.0, 8.999999999999999e-08]"
1579257270107431130,,1009,,1579257270,107314544,"""base_link""",,0.0698673568445,-0.0343374451254,0.563678846207,-0.822317244528,"[1.0, 0.0, 0.0, 0.0, 1.0, 0.0, 0.0, 0.0, 1.0]",,-0.160125911236,-0.0470842719078,-0.0679962188005,"[1.2184696791468346e-07, 0.0, 0.0, 0.0, 1.2184696791468346e-07, 0.0, 0.0, 0.0, 1.2184696791468346e-07]",,0.0196133,-1.71616375,9.5516771,"[8.999999999999999e-08, 0.0, 0.0, 0.0, 8.999999999999999e-08, 0.0, 0.0, 0.0, 8.999999999999999e-08]"
1579257270350747091,,1010,,1579257270,350382457,"""base_link""",,0.0645496703577,-0.0366240618371,0.561374064748,-0.824227624859,"[1.0, 0.0, 0.0, 0.0, 1.0, 0.0, 0.0, 0.0, 1.0]",,0.0592319704592,0.0758980885148,0.028094496578,"[1.2184696791468346e-07, 0.0, 0.0, 0.0, 1.2184696791468346e-07, 0.0, 0.0, 0.0, 1.2184696791468346e-07]",,-0.61781895,-1.30428445,9.46341725,"[8.999999999999999e-08, 0.0, 0.0, 0.0, 8.999999999999999e-08, 0.0, 0.0, 0.0, 8.999999999999999e-08]"
1579257270576448544,,1011,,1579257270,576291336,"""base_link""",,0.0625070916612,-0.0428152278038,0.570526421945,-0.817777061076,"[1.0, 0.0, 0.0, 0.0, 1.0, 0.0, 0.0, 0.0, 1.0]",,-0.0331100299954,0.0768140479922,-0.14458578825,"[1.2184696791468346e-07, 0.0, 0.0, 0.0, 1.2184696791468346e-07, 0.0, 0.0, 0.0, 1.2184696791468346e-07]",,-0.53936575,-1.4906108,9.9439431,"[8.999999999999999e-08, 0.0, 0.0, 0.0, 8.999999999999999e-08, 0.0, 0.0, 0.0, 8.999999999999999e-08]"
1579257270824229518,,1012,,1579257270,824060754,"""base_link""",,0.0572002933731,-0.0535346019836,0.581687371772,-0.809630764206,"[1.0, 0.0, 0.0, 0.0, 1.0, 0.0, 0.0, 0.0, 1.0]",,-0.0309481322765,0.0332571677864,-0.101014614105,"[1.2184696791468346e-07, 0.0, 0.0, 0.0, 1.2184696791468346e-07, 0.0, 0.0, 0.0, 1.2184696791468346e-07]",,-0.14709975,-1.20621795,9.7870367,"[8.999999999999999e-08, 0.0, 0.0, 0.0, 8.999999999999999e-08, 0.0, 0.0, 0.0, 8.999999999999999e-08]"
1579257271055769514,,1013,,1579257271,55381152,"""base_link""",,0.0613490765988,-0.0548254613267,0.584021679185,-0.807557513638,"[1.0, 0.0, 0.0, 0.0, 1.0, 0.0, 0.0, 0.0, 1.0]",,-0.0467259213328,-0.0550952591002,0.0329895094037,"[1.2184696791468346e-07, 0.0, 0.0, 0.0, 1.2184696791468346e-07, 0.0, 0.0, 0.0, 1.2184696791468346e-07]",,0.00980665,-0.9022118,9.62032365,"[8.999999999999999e-08, 0.0, 0.0, 0.0, 8.999999999999999e-08, 0.0, 0.0, 0.0, 8.999999999999999e-08]"
1579257271293828891,,1014,,1579257271,293642701,"""base_link""",,0.0677663206078,-0.0559662377801,0.578033227506,-0.81126635202,"[1.0, 0.0, 0.0, 0.0, 1.0, 0.0, 0.0, 0.0, 1.0]",,-0.0369478501379,-0.00766739202663,0.0837118029594,"[1.2184696791468346e-07, 0.0, 0.0, 0.0, 1.2184696791468346e-07, 0.0, 0.0, 0.0, 1.2184696791468346e-07]",,0.5687857,-1.176798,9.8654899,"[8.999999999999999e-08, 0.0, 0.0, 0.0, 8.999999999999999e-08, 0.0, 0.0, 0.0, 8.999999999999999e-08]"
1579257271540810425,,1015,,1579257271,540577673,"""base_link""",,0.0573918394974,-0.0519991147974,0.564024651957,-0.822118276651,"[1.0, 0.0, 0.0, 0.0, 1.0, 0.0, 0.0, 0.0, 1.0]",,0.093290373683,0.0491016320884,0.0970487594604,"[1.2184696791468346e-07, 0.0, 0.0, 0.0, 1.2184696791468346e-07, 0.0, 0.0, 0.0, 1.2184696791468346e-07]",,-0.18632635,-0.7453054,9.63993695,"[8.999999999999999e-08, 0.0, 0.0, 0.0, 8.999999999999999e-08, 0.0, 0.0, 0.0, 8.999999999999999e-08]"
1579257271776190990,,1016,,1579257271,775855889,"""base_link""",,0.0551666257097,-0.0519292357914,0.557403007191,-0.826778014616,"[1.0, 0.0, 0.0, 0.0, 1.0, 0.0, 0.0, 0.0, 1.0]",,-0.122549317777,-0.0178873948753,0.00732202455401,"[1.2184696791468346e-07, 0.0, 0.0, 0.0, 1.2184696791468346e-07, 0.0, 0.0, 0.0, 1.2184696791468346e-07]",,-0.71588545,-1.28467115,9.60071035,"[8.999999999999999e-08, 0.0, 0.0, 0.0, 8.999999999999999e-08, 0.0, 0.0, 0.0, 8.999999999999999e-08]"
1579257272017178053,,1017,,1579257272,17069053,"""base_link""",,0.0617135813634,-0.053152106659,0.564426153551,-0.821455661993,"[1.0, 0.0, 0.0, 0.0, 1.0, 0.0, 0.0, 0.0, 1.0]",,0.0220781341195,0.0270677171648,-0.102434113622,"[1.2184696791468346e-07, 0.0, 0.0, 0.0, 1.2184696791468346e-07, 0.0, 0.0, 0.0, 1.2184696791468346e-07]",,-0.77472535,-1.4317709,9.85568325,"[8.999999999999999e-08, 0.0, 0.0, 0.0, 8.999999999999999e-08, 0.0, 0.0, 0.0, 8.999999999999999e-08]"
1579257272258841941,,1018,,1579257272,258520358,"""base_link""",,0.0609415242238,-0.0579098048045,0.571482393389,-0.816296796012,"[1.0, 0.0, 0.0, 0.0, 1.0, 0.0, 0.0, 0.0, 1.0]",,-0.0465519055724,0.0364626795053,-0.0239097103477,"[1.2184696791468346e-07, 0.0, 0.0, 0.0, 1.2184696791468346e-07, 0.0, 0.0, 0.0, 1.2184696791468346e-07]",,-0.5687857,-1.50041745,9.7870367,"[8.999999999999999e-08, 0.0, 0.0, 0.0, 8.999999999999999e-08, 0.0, 0.0, 0.0, 8.999999999999999e-08]"
1579257272509178534,,1019,,1579257272,508997817,"""base_link""",,0.0589081047601,-0.0575914081043,0.569039520065,-0.8181730193,"[1.0, 0.0, 0.0, 0.0, 1.0, 0.0, 0.0, 0.0, 1.0]",,0.0961730480194,0.0143854785711,0.0871506556869,"[1.2184696791468346e-07, 0.0, 0.0, 0.0, 1.2184696791468346e-07, 0.0, 0.0, 0.0, 1.2184696791468346e-07]",,-0.196133,-1.2748645,9.6889702,"[8.999999999999999e-08, 0.0, 0.0, 0.0, 8.999999999999999e-08, 0.0, 0.0, 0.0, 8.999999999999999e-08]"
1579257272750809701,,1020,,1579257272,750643140,"""base_link""",,0.0481293456871,-0.0622237468489,0.558647958203,-0.825665931359,"[1.0, 0.0, 0.0, 0.0, 1.0, 0.0, 0.0, 0.0, 1.0]",,-0.0403167381883,0.0117264520377,0.00408135354519,"[1.2184696791468346e-07, 0.0, 0.0, 0.0, 1.2184696791468346e-07, 0.0, 0.0, 0.0, 1.2184696791468346e-07]",,-0.67665885,-1.1179581,9.5320638,"[8.999999999999999e-08, 0.0, 0.0, 0.0, 8.999999999999999e-08, 0.0, 0.0, 0.0, 8.999999999999999e-08]"
1579257272979003185,,1021,,1579257272,978622825,"""base_link""",,0.0519043131763,-0.0625330122854,0.559782993276,-0.824644508311,"[1.0, 0.0, 0.0, 0.0, 1.0, 0.0, 0.0, 0.0, 1.0]",,0.00538373505697,0.0360186398029,0.0393191501498,"[1.2184696791468346e-07, 0.0, 0.0, 0.0, 1.2184696791468346e-07, 0.0, 0.0, 0.0, 1.2184696791468346e-07]",,-0.4903325,-1.32389775,9.6301303,"[8.999999999999999e-08, 0.0, 0.0, 0.0, 8.999999999999999e-08, 0.0, 0.0, 0.0, 8.999999999999999e-08]"
1579257273229625610,,1022,,1579257273,229472707,"""base_link""",,0.0488347045989,-0.0635713590736,0.55866823117,-0.825508123166,"[1.0, 0.0, 0.0, 0.0, 1.0, 0.0, 0.0, 0.0, 1.0]",,-0.0231904648244,0.0185208655894,-0.0677507966757,"[1.2184696791468346e-07, 0.0, 0.0, 0.0, 1.2184696791468346e-07, 0.0, 0.0, 0.0, 1.2184696791468346e-07]",,-0.5687857,-1.01008495,9.75761675,"[8.999999999999999e-08, 0.0, 0.0, 0.0, 8.999999999999999e-08, 0.0, 0.0, 0.0, 8.999999999999999e-08]"
1579257273460268160,,1023,,1579257273,460172388,"""base_link""",,0.0460141127638,-0.0657946433453,0.564307196977,-0.821651479505,"[1.0, 0.0, 0.0, 0.0, 1.0, 0.0, 0.0, 0.0, 1.0]",,-0.00282458285801,0.0467828735709,-0.0764345303178,"[1.2184696791468346e-07, 0.0, 0.0, 0.0, 1.2184696791468346e-07, 0.0, 0.0, 0.0, 1.2184696791468346e-07]",,-0.5687857,-0.69627215,9.6693569,"[8.999999999999999e-08, 0.0, 0.0, 0.0, 8.999999999999999e-08, 0.0, 0.0, 0.0, 8.999999999999999e-08]"
1579257273711729310,,1024,,1579257273,711486206,"""base_link""",,0.0569052172963,-0.0770749433894,0.566002495475,-0.818817699163,"[1.0, 0.0, 0.0, 0.0, 1.0, 0.0, 0.0, 0.0, 1.0]",,-0.134848371148,-0.00773980282247,0.0454156212509,"[1.2184696791468346e-07, 0.0, 0.0, 0.0, 1.2184696791468346e-07, 0.0, 0.0, 0.0, 1.2184696791468346e-07]",,-0.50013915,-1.0983448,9.71839015,"[8.999999999999999e-08, 0.0, 0.0, 0.0, 8.999999999999999e-08, 0.0, 0.0, 0.0, 8.999999999999999e-08]"
1579257273947221339,,1025,,1579257273,947020423,"""base_link""",,0.0681960364198,-0.0817518950951,0.556158243906,-0.824229298194,"[1.0, 0.0, 0.0, 0.0, 1.0, 0.0, 0.0, 0.0, 1.0]",,-0.149270743132,-0.0447371080518,0.0845256745815,"[1.2184696791468346e-07, 0.0, 0.0, 0.0, 1.2184696791468346e-07, 0.0, 0.0, 0.0, 1.2184696791468346e-07]",,-1.0198916,-1.48080415,9.65955025,"[8.999999999999999e-08, 0.0, 0.0, 0.0, 8.999999999999999e-08, 0.0, 0.0, 0.0, 8.999999999999999e-08]"
1579257274176471647,,1026,,1579257274,176042800,"""base_link""",,0.0797992314236,-0.0798492530284,0.54872898891,-0.828343332311,"[1.0, 0.0, 0.0, 0.0, 1.0, 0.0, 0.0, 0.0, 1.0]",,-0.0287880674005,-0.115610651672,0.00179327651858,"[1.2184696791468346e-07, 0.0, 0.0, 0.0, 1.2184696791468346e-07, 0.0, 0.0, 0.0, 1.2184696791468346e-07]",,-1.1375714,-1.73577705,9.4339973,"[8.999999999999999e-08, 0.0, 0.0, 0.0, 8.999999999999999e-08, 0.0, 0.0, 0.0, 8.999999999999999e-08]"
1579257274419005958,,1027,,1579257274,418871715,"""base_link""",,0.0891942838727,-0.0856352246707,0.545504560797,-0.828936524813,"[1.0, 0.0, 0.0, 0.0, 1.0, 0.0, 0.0, 0.0, 1.0]",,-0.0803611800075,0.0673483535647,0.0264553502202,"[1.2184696791468346e-07, 0.0, 0.0, 0.0, 1.2184696791468346e-07, 0.0, 0.0, 0.0, 1.2184696791468346e-07]",,-1.1964113,-2.01036325,9.5909037,"[8.999999999999999e-08, 0.0, 0.0, 0.0, 8.999999999999999e-08, 0.0, 0.0, 0.0, 8.999999999999999e-08]"
1579257274664240975,,1028,,1579257274,664060362,"""base_link""",,0.0745785790009,-0.0803055481476,0.547816083972,-0.829389288955,"[1.0, 0.0, 0.0, 0.0, 1.0, 0.0, 0.0, 0.0, 1.0]",,0.183305606246,0.0016032330459,-0.0991014242172,"[1.2184696791468346e-07, 0.0, 0.0, 0.0, 1.2184696791468346e-07, 0.0, 0.0, 0.0, 1.2184696791468346e-07]",,-1.44157755,-1.3925443,9.93413645,"[8.999999999999999e-08, 0.0, 0.0, 0.0, 8.999999999999999e-08, 0.0, 0.0, 0.0, 8.999999999999999e-08]"
1579257274910309141,,1029,,1579257274,909919707,"""base_link""",,0.0716471673252,-0.0757556805271,0.556849898626,-0.824042444709,"[1.0, 0.0, 0.0, 0.0, 1.0, 0.0, 0.0, 0.0, 1.0]",,0.0540517382324,-0.0488364547491,-0.0122867170721,"[1.2184696791468346e-07, 0.0, 0.0, 0.0, 1.2184696791468346e-07, 0.0, 0.0, 0.0, 1.2184696791468346e-07]",,-0.91201845,-1.77500365,9.7281968,"[8.999999999999999e-08, 0.0, 0.0, 0.0, 8.999999999999999e-08, 0.0, 0.0, 0.0, 8.999999999999999e-08]"
1579257275144519904,,1030,,1579257275,144365059,"""base_link""",,0.0692116765616,-0.0675655575877,0.556152265811,-0.825432793442,"[1.0, 0.0, 0.0, 0.0, 1.0, 0.0, 0.0, 0.0, 1.0]",,0.0884758979082,-0.101683206856,0.039358433336,"[1.2184696791468346e-07, 0.0, 0.0, 0.0, 1.2184696791468346e-07, 0.0, 0.0, 0.0, 1.2184696791468346e-07]",,-0.26477955,-1.7455837,9.11037785,"[8.999999999999999e-08, 0.0, 0.0, 0.0, 8.999999999999999e-08, 0.0, 0.0, 0.0, 8.999999999999999e-08]"
1579257275400390833,,1031,,1579257275,400048643,"""base_link""",,0.0775718704881,-0.0571645481795,0.550098524361,-0.829521809741,"[1.0, 0.0, 0.0, 0.0, 1.0, 0.0, 0.0, 0.0, 1.0]",,-0.0750313848257,-0.0956433415413,0.0644458085299,"[1.2184696791468346e-07, 0.0, 0.0, 0.0, 1.2184696791468346e-07, 0.0, 0.0, 0.0, 1.2184696791468346e-07]",,-0.06864655,-1.77500365,9.34573745,"[8.999999999999999e-08, 0.0, 0.0, 0.0, 8.999999999999999e-08, 0.0, 0.0, 0.0, 8.999999999999999e-08]"
1579257275641717335,,1032,,1579257275,641509195,"""base_link""",,0.0697279244773,-0.037347130078,0.545597124077,-0.834306290652,"[1.0, 0.0, 0.0, 0.0, 1.0, 0.0, 0.0, 0.0, 1.0]",,0.204865843058,-0.099163852632,-0.0128035256639,"[1.2184696791468346e-07, 0.0, 0.0, 0.0, 1.2184696791468346e-07, 0.0, 0.0, 0.0, 1.2184696791468346e-07]",,-0.50013915,-1.73577705,9.4928372,"[8.999999999999999e-08, 0.0, 0.0, 0.0, 8.999999999999999e-08, 0.0, 0.0, 0.0, 8.999999999999999e-08]"
1579257275872266432,,1033,,1579257275,872120937,"""base_link""",,0.0559296510384,-0.0209572808819,0.544006909296,-0.836952298014,"[1.0, 0.0, 0.0, 0.0, 1.0, 0.0, 0.0, 0.0, 1.0]",,0.0939086601138,-0.0534480214119,3.46722081304e-05,"[1.2184696791468346e-07, 0.0, 0.0, 0.0, 1.2184696791468346e-07, 0.0, 0.0, 0.0, 1.2184696791468346e-07]",,-0.40207265,-1.0198916,9.5909037,"[8.999999999999999e-08, 0.0, 0.0, 0.0, 8.999999999999999e-08, 0.0, 0.0, 0.0, 8.999999999999999e-08]"
1579257276109898689,,1034,,1579257276,109471447,"""base_link""",,0.0445765593245,-0.0146383807948,0.544341375947,-0.837550663899,"[1.0, 0.0, 0.0, 0.0, 1.0, 0.0, 0.0, 0.0, 1.0]",,0.20011767745,0.0466633401811,-0.0159202814102,"[1.2184696791468346e-07, 0.0, 0.0, 0.0, 1.2184696791468346e-07, 0.0, 0.0, 0.0, 1.2184696791468346e-07]",,-0.30400615,-0.85317855,9.65955025,"[8.999999999999999e-08, 0.0, 0.0, 0.0, 8.999999999999999e-08, 0.0, 0.0, 0.0, 8.999999999999999e-08]"
1579257276349289839,,1035,,1579257276,349123171,"""base_link""",,0.00955984845978,0.00682588373979,0.553995358648,-0.832436880013,"[1.0, 0.0, 0.0, 0.0, 1.0, 0.0, 0.0, 0.0, 1.0]",,0.310885101557,-0.0331856906414,-0.0406557060778,"[1.2184696791468346e-07, 0.0, 0.0, 0.0, 1.2184696791468346e-07, 0.0, 0.0, 0.0, 1.2184696791468346e-07]",,-0.1176798,0.3138128,9.30651085,"[8.999999999999999e-08, 0.0, 0.0, 0.0, 8.999999999999999e-08, 0.0, 0.0, 0.0, 8.999999999999999e-08]"
1579257276578067060,,1036,,1579257276,577895363,"""base_link""",,0.025186416203,0.00569388232942,0.550701250188,-0.834302916922,"[1.0, 0.0, 0.0, 0.0, 1.0, 0.0, 0.0, 0.0, 1.0]",,-0.246810600162,-0.0739897936583,0.0532098971307,"[1.2184696791468346e-07, 0.0, 0.0, 0.0, 1.2184696791468346e-07, 0.0, 0.0, 0.0, 1.2184696791468346e-07]",,-0.0980665,-0.34323275,8.81617835,"[8.999999999999999e-08, 0.0, 0.0, 0.0, 8.999999999999999e-08, 0.0, 0.0, 0.0, 8.999999999999999e-08]"
1579257276827342521,,1037,,1579257276,826926622,"""base_link""",,0.0253451413087,0.0156849540057,0.547715509258,-0.83613355808,"[1.0, 0.0, 0.0, 0.0, 1.0, 0.0, 0.0, 0.0, 1.0]",,0.181592598557,0.00170829822309,-0.0106902178377,"[1.2184696791468346e-07, 0.0, 0.0, 0.0, 1.2184696791468346e-07, 0.0, 0.0, 0.0, 1.2184696791468346e-07]",,0.0980665,-0.0392266,10.198916,"[8.999999999999999e-08, 0.0, 0.0, 0.0, 8.999999999999999e-08, 0.0, 0.0, 0.0, 8.999999999999999e-08]"
1579257277056771163,,1038,,1579257277,56575978,"""base_link""",,0.0260138334753,0.0041107371919,0.548546832928,-0.835704944578,"[1.0, 0.0, 0.0, 0.0, 1.0, 0.0, 0.0, 0.0, 1.0]",,-0.0919363945723,0.0430886372924,-0.00980769842863,"[1.2184696791468346e-07, 0.0, 0.0, 0.0, 1.2184696791468346e-07, 0.0, 0.0, 0.0, 1.2184696791468346e-07]",,0.02941995,0.0196133,9.52225715,"[8.999999999999999e-08, 0.0, 0.0, 0.0, 8.999999999999999e-08, 0.0, 0.0, 0.0, 8.999999999999999e-08]"
1579257277305375791,,1039,,1579257277,305097625,"""base_link""",,0.0145497640166,0.00375768536499,0.547931266507,-0.836388373515,"[1.0, 0.0, 0.0, 0.0, 1.0, 0.0, 0.0, 0.0, 1.0]",,0.12636859715,0.00580713897943,0.0551583021879,"[1.2184696791468346e-07, 0.0, 0.0, 0.0, 1.2184696791468346e-07, 0.0, 0.0, 0.0, 1.2184696791468346e-07]",,-0.4314926,0.2941995,9.97336305,"[8.999999999999999e-08, 0.0, 0.0, 0.0, 8.999999999999999e-08, 0.0, 0.0, 0.0, 8.999999999999999e-08]"
1579257277559163806,,1040,,1579257277,559002317,"""base_link""",,0.0142361434969,0.00501836427151,0.545662632332,-0.837868987321,"[1.0, 0.0, 0.0, 0.0, 1.0, 0.0, 0.0, 0.0, 1.0]",,-0.183030977845,0.121262669563,-0.0561198741198,"[1.2184696791468346e-07, 0.0, 0.0, 0.0, 1.2184696791468346e-07, 0.0, 0.0, 0.0, 1.2184696791468346e-07]",,-0.12748645,0.34323275,9.80665,"[8.999999999999999e-08, 0.0, 0.0, 0.0, 8.999999999999999e-08, 0.0, 0.0, 0.0, 8.999999999999999e-08]"
1579257277781824279,,1041,,1579257277,781611312,"""base_link""",,0.0159687048027,-0.00355494605695,0.547288367214,-0.836784205119,"[1.0, 0.0, 0.0, 0.0, 1.0, 0.0, 0.0, 0.0, 1.0]",,0.125820860267,0.0525402724743,-0.0232823751867,"[1.2184696791468346e-07, 0.0, 0.0, 0.0, 1.2184696791468346e-07, 0.0, 0.0, 0.0, 1.2184696791468346e-07]",,-0.04903325,0.0980665,9.7085835,"[8.999999999999999e-08, 0.0, 0.0, 0.0, 8.999999999999999e-08, 0.0, 0.0, 0.0, 8.999999999999999e-08]"
1579257278040510830,,1042,,1579257278,40135014,"""base_link""",,-0.0012324102917,0.00923421459012,0.545676516733,-0.837944120769,"[1.0, 0.0, 0.0, 0.0, 1.0, 0.0, 0.0, 0.0, 1.0]",,0.0465363152325,-0.0372705087066,0.0135547183454,"[1.2184696791468346e-07, 0.0, 0.0, 0.0, 1.2184696791468346e-07, 0.0, 0.0, 0.0, 1.2184696791468346e-07]",,-0.2745862,0.2941995,10.7088618,"[8.999999999999999e-08, 0.0, 0.0, 0.0, 8.999999999999999e-08, 0.0, 0.0, 0.0, 8.999999999999999e-08]"
1579257278256618594,,1043,,1579257278,256491965,"""base_link""",,0.000750078418561,0.00113749862425,0.547598984387,-0.836739801717,"[1.0, 0.0, 0.0, 0.0, 1.0, 0.0, 0.0, 0.0, 1.0]",,0.0470107644796,-0.0435197204351,-0.0960846841335,"[1.2184696791468346e-07, 0.0, 0.0, 0.0, 1.2184696791468346e-07, 0.0, 0.0, 0.0, 1.2184696791468346e-07]",,-0.61781895,0.1372931,10.26756255,"[8.999999999999999e-08, 0.0, 0.0, 0.0, 8.999999999999999e-08, 0.0, 0.0, 0.0, 8.999999999999999e-08]"
1579257278499740843,,1044,,1579257278,499590160,"""base_link""",,-0.000610020858588,-0.0057285537672,0.544063913869,-0.839023997971,"[1.0, 0.0, 0.0, 0.0, 1.0, 0.0, 0.0, 0.0, 1.0]",,-0.0583706907928,0.0538067109883,0.0829538553953,"[1.2184696791468346e-07, 0.0, 0.0, 0.0, 1.2184696791468346e-07, 0.0, 0.0, 0.0, 1.2184696791468346e-07]",,-0.89240515,0.14709975,10.3165958,"[8.999999999999999e-08, 0.0, 0.0, 0.0, 8.999999999999999e-08, 0.0, 0.0, 0.0, 8.999999999999999e-08]"
1579257278769350462,,1045,,1579257278,769028862,"""base_link""",,0.00914069186228,-0.00301875532909,0.537338946972,-0.843311443617,"[1.0, 0.0, 0.0, 0.0, 1.0, 0.0, 0.0, 0.0, 1.0]",,-0.174597546458,-0.0552544593811,0.0527920685709,"[1.2184696791468346e-07, 0.0, 0.0, 0.0, 1.2184696791468346e-07, 0.0, 0.0, 0.0, 1.2184696791468346e-07]",,-0.34323275,0.1569064,9.5712904,"[8.999999999999999e-08, 0.0, 0.0, 0.0, 8.999999999999999e-08, 0.0, 0.0, 0.0, 8.999999999999999e-08]"
