rosbagTimestamp,header,seq,stamp,secs,nsecs,frame_id,orientation,x,y,z,w,orientation_covariance,angular_velocity,x,y,z,angular_velocity_covariance,linear_acceleration,x,y,z,linear_acceleration_covariance
1574069785650187121,,52,,1574069785,649981814,"""base_link""",,-0.00762118484202,-0.00468710425595,-0.234685298668,-0.972030225448,"[1.0, 0.0, 0.0, 0.0, 1.0, 0.0, 0.0, 0.0, 1.0]",,0.00021386629669,0.000151484040543,0.00200961623341,"[1.2184696791468346e-07, 0.0, 0.0, 0.0, 1.2184696791468346e-07, 0.0, 0.0, 0.0, 1.2184696791468346e-07]",,-0.10787315,0.08825985,9.80665,"[8.999999999999999e-08, 0.0, 0.0, 0.0, 8.999999999999999e-08, 0.0, 0.0, 0.0, 8.999999999999999e-08]"
1574069785870420846,,53,,1574069785,870282016,"""base_link""",,-0.00784475057036,-0.00450288658007,-0.234648046319,-0.972038311107,"[1.0, 0.0, 0.0, 0.0, 1.0, 0.0, 0.0, 0.0, 1.0]",,-0.00118736294098,-0.000857609207742,-0.00125597196165,"[1.2184696791468346e-07, 0.0, 0.0, 0.0, 1.2184696791468346e-07, 0.0, 0.0, 0.0, 1.2184696791468346e-07]",,-0.10787315,0.06864655,9.77723005,"[8.999999999999999e-08, 0.0, 0.0, 0.0, 8.999999999999999e-08, 0.0, 0.0, 0.0, 8.999999999999999e-08]"
1574069786111331180,,54,,1574069786,111150187,"""base_link""",,-0.00812040129026,-0.0042727984564,-0.234578753277,-0.972053810644,"[1.0, 0.0, 0.0, 0.0, 1.0, 0.0, 0.0, 0.0, 1.0]",,0.00171853485517,-0.00154274713714,-0.0011252167169,"[1.2184696791468346e-07, 0.0, 0.0, 0.0, 1.2184696791468346e-07, 0.0, 0.0, 0.0, 1.2184696791468346e-07]",,-0.10787315,0.0784532,9.77723005,"[8.999999999999999e-08, 0.0, 0.0, 0.0, 8.999999999999999e-08, 0.0, 0.0, 0.0, 8.999999999999999e-08]"
1574069786357875974,,55,,1574069786,357591266,"""base_link""",,-0.00840423157,-0.00401012163431,-0.234530372136,-0.972064191482,"[1.0, 0.0, 0.0, 0.0, 1.0, 0.0, 0.0, 0.0, 1.0]",,0.000330002105329,0.000270217075013,0.00153093470726,"[1.2184696791468346e-07, 0.0, 0.0, 0.0, 1.2184696791468346e-07, 0.0, 0.0, 0.0, 1.2184696791468346e-07]",,-0.1176798,0.06864655,9.7870367,"[8.999999999999999e-08, 0.0, 0.0, 0.0, 8.999999999999999e-08, 0.0, 0.0, 0.0, 8.999999999999999e-08]"
1574069786593603901,,56,,1574069786,593430966,"""base_link""",,-0.00848870438633,-0.0038940964752,-0.234552424653,-0.972058608315,"[1.0, 0.0, 0.0, 0.0, 1.0, 0.0, 0.0, 0.0, 1.0]",,0.000994224566966,-0.000740421877708,-0.00359525019303,"[1.2184696791468346e-07, 0.0, 0.0, 0.0, 1.2184696791468346e-07, 0.0, 0.0, 0.0, 1.2184696791468346e-07]",,-0.0980665,0.0784532,9.77723005,"[8.999999999999999e-08, 0.0, 0.0, 0.0, 8.999999999999999e-08, 0.0, 0.0, 0.0, 8.999999999999999e-08]"
1574069786846724364,,57,,1574069786,846301184,"""base_link""",,-0.00841163517399,-0.00383170561874,-0.234527380689,-0.972065568845,"[1.0, 0.0, 0.0, 0.0, 1.0, 0.0, 0.0, 0.0, 1.0]",,0.000542726251297,-0.00027768232394,-0.000889684772119,"[1.2184696791468346e-07, 0.0, 0.0, 0.0, 1.2184696791468346e-07, 0.0, 0.0, 0.0, 1.2184696791468346e-07]",,-0.10787315,0.0784532,9.7870367,"[8.999999999999999e-08, 0.0, 0.0, 0.0, 8.999999999999999e-08, 0.0, 0.0, 0.0, 8.999999999999999e-08]"
1574069787081868451,,58,,1574069787,81639253,"""base_link""",,-0.00825910729944,-0.00383209051658,-0.234504787148,-0.97207232603,"[1.0, 0.0, 0.0, 0.0, 1.0, 0.0, 0.0, 0.0, 1.0]",,7.65395816416e-06,-0.000120354408864,-0.000310545903631,"[1.2184696791468346e-07, 0.0, 0.0, 0.0, 1.2184696791468346e-07, 0.0, 0.0, 0.0, 1.2184696791468346e-07]",,-0.0980665,0.08825985,9.77723005,"[8.999999999999999e-08, 0.0, 0.0, 0.0, 8.999999999999999e-08, 0.0, 0.0, 0.0, 8.999999999999999e-08]"
1574069787320683078,,59,,1574069787,320352888,"""base_link""",,-0.00813195429701,-0.00378735645852,-0.234542563664,-0.972064459324,"[1.0, 0.0, 0.0, 0.0, 1.0, 0.0, 0.0, 0.0, 1.0]",,-0.00145099288784,0.00115173927043,-0.000195300322957,"[1.2184696791468346e-07, 0.0, 0.0, 0.0, 1.2184696791468346e-07, 0.0, 0.0, 0.0, 1.2184696791468346e-07]",,-0.10787315,0.0784532,9.7870367,"[8.999999999999999e-08, 0.0, 0.0, 0.0, 8.999999999999999e-08, 0.0, 0.0, 0.0, 8.999999999999999e-08]"
1574069787559458707,,60,,1574069787,559251095,"""base_link""",,-0.00816699775454,-0.00369788800433,-0.234511614253,-0.972071977043,"[1.0, 0.0, 0.0, 0.0, 1.0, 0.0, 0.0, 0.0, 1.0]",,-0.000282414956018,0.000469061313197,0.000168265542015,"[1.2184696791468346e-07, 0.0, 0.0, 0.0, 1.2184696791468346e-07, 0.0, 0.0, 0.0, 1.2184696791468346e-07]",,-0.10787315,0.08825985,9.77723005,"[8.999999999999999e-08, 0.0, 0.0, 0.0, 8.999999999999999e-08, 0.0, 0.0, 0.0, 8.999999999999999e-08]"
1574069787811837823,,61,,1574069787,811567596,"""base_link""",,-0.0083858521853,-0.00361989864289,-0.234486903425,-0.972076368368,"[1.0, 0.0, 0.0, 0.0, 1.0, 0.0, 0.0, 0.0, 1.0]",,0.000588051683735,0.000968357431702,-0.000151683343574,"[1.2184696791468346e-07, 0.0, 0.0, 0.0, 1.2184696791468346e-07, 0.0, 0.0, 0.0, 1.2184696791468346e-07]",,-0.10787315,0.06864655,9.79684335,"[8.999999999999999e-08, 0.0, 0.0, 0.0, 8.999999999999999e-08, 0.0, 0.0, 0.0, 8.999999999999999e-08]"
1574069788045236412,,62,,1574069788,45061602,"""base_link""",,-0.00854835033375,-0.0035275356847,-0.234472696634,-0.972078719411,"[1.0, 0.0, 0.0, 0.0, 1.0, 0.0, 0.0, 0.0, 1.0]",,0.000726824160665,0.00072021887172,-0.00141322542913,"[1.2184696791468346e-07, 0.0, 0.0, 0.0, 1.2184696791468346e-07, 0.0, 0.0, 0.0, 1.2184696791468346e-07]",,-0.0980665,0.0980665,9.7870367,"[8.999999999999999e-08, 0.0, 0.0, 0.0, 8.999999999999999e-08, 0.0, 0.0, 0.0, 8.999999999999999e-08]"
1574069788281062314,,63,,1574069788,280684145,"""base_link""",,-0.00849511963175,-0.00350270244315,-0.234469065859,-0.97208015162,"[1.0, 0.0, 0.0, 0.0, 1.0, 0.0, 0.0, 0.0, 1.0]",,-0.000581290281843,0.00172781141009,0.000447861268185,"[1.2184696791468346e-07, 0.0, 0.0, 0.0, 1.2184696791468346e-07, 0.0, 0.0, 0.0, 1.2184696791468346e-07]",,-0.10787315,0.0784532,9.7870367,"[8.999999999999999e-08, 0.0, 0.0, 0.0, 8.999999999999999e-08, 0.0, 0.0, 0.0, 8.999999999999999e-08]"
1574069788523271652,,64,,1574069788,523066866,"""base_link""",,-0.0082645899616,-0.00350230774711,-0.234504769373,-0.972073527844,"[1.0, 0.0, 0.0, 0.0, 1.0, 0.0, 0.0, 0.0, 1.0]",,-0.00172176631168,0.00150987983216,0.000671123387292,"[1.2184696791468346e-07, 0.0, 0.0, 0.0, 1.2184696791468346e-07, 0.0, 0.0, 0.0, 1.2184696791468346e-07]",,-0.10787315,0.0784532,9.7870367,"[8.999999999999999e-08, 0.0, 0.0, 0.0, 8.999999999999999e-08, 0.0, 0.0, 0.0, 8.999999999999999e-08]"
1574069788762399139,,65,,1574069788,762052190,"""base_link""",,-0.00812328660595,-0.00348570895163,-0.234479732115,-0.972080818284,"[1.0, 0.0, 0.0, 0.0, 1.0, 0.0, 0.0, 0.0, 1.0]",,-0.000181803712621,-0.00016673564096,-0.00195859721862,"[1.2184696791468346e-07, 0.0, 0.0, 0.0, 1.2184696791468346e-07, 0.0, 0.0, 0.0, 1.2184696791468346e-07]",,-0.10787315,0.08825985,9.81645665,"[8.999999999999999e-08, 0.0, 0.0, 0.0, 8.999999999999999e-08, 0.0, 0.0, 0.0, 8.999999999999999e-08]"
1574069788994659111,,66,,1574069788,994517044,"""base_link""",,-0.00802101956136,-0.00342572050478,-0.234410079542,-0.972098679298,"[1.0, 0.0, 0.0, 0.0, 1.0, 0.0, 0.0, 0.0, 1.0]",,0.000948657281697,-0.00102748442441,0.000799049274065,"[1.2184696791468346e-07, 0.0, 0.0, 0.0, 1.2184696791468346e-07, 0.0, 0.0, 0.0, 1.2184696791468346e-07]",,-0.10787315,0.0784532,9.79684335,"[8.999999999999999e-08, 0.0, 0.0, 0.0, 8.999999999999999e-08, 0.0, 0.0, 0.0, 8.999999999999999e-08]"
1574069789240522351,,67,,1574069789,240143575,"""base_link""",,-0.00793956671215,-0.00342457221577,-0.234367084072,-0.972109718853,"[1.0, 0.0, 0.0, 0.0, 1.0, 0.0, 0.0, 0.0, 1.0]",,-0.000276575534372,0.000935694144573,-0.000565309950616,"[1.2184696791468346e-07, 0.0, 0.0, 0.0, 1.2184696791468346e-07, 0.0, 0.0, 0.0, 1.2184696791468346e-07]",,-0.0980665,0.0784532,9.7870367,"[8.999999999999999e-08, 0.0, 0.0, 0.0, 8.999999999999999e-08, 0.0, 0.0, 0.0, 8.999999999999999e-08]"
1574069789470375398,,68,,1574069789,470184685,"""base_link""",,-0.0079684654531,-0.00342358995051,-0.234343992724,-0.972115052689,"[1.0, 0.0, 0.0, 0.0, 1.0, 0.0, 0.0, 0.0, 1.0]",,-0.000882610329427,-0.000706063234247,-0.00273140566424,"[1.2184696791468346e-07, 0.0, 0.0, 0.0, 1.2184696791468346e-07, 0.0, 0.0, 0.0, 1.2184696791468346e-07]",,-0.10787315,0.06864655,9.80665,"[8.999999999999999e-08, 0.0, 0.0, 0.0, 8.999999999999999e-08, 0.0, 0.0, 0.0, 8.999999999999999e-08]"
1574069789712569680,,69,,1574069789,712243078,"""base_link""",,-0.00803530119973,-0.00345038720001,-0.234341745308,-0.972114949566,"[1.0, 0.0, 0.0, 0.0, 1.0, 0.0, 0.0, 0.0, 1.0]",,0.000916902616154,0.000218247179873,0.00149317726027,"[1.2184696791468346e-07, 0.0, 0.0, 0.0, 1.2184696791468346e-07, 0.0, 0.0, 0.0, 1.2184696791468346e-07]",,-0.10787315,0.0784532,9.77723005,"[8.999999999999999e-08, 0.0, 0.0, 0.0, 8.999999999999999e-08, 0.0, 0.0, 0.0, 8.999999999999999e-08]"
1574069789955359438,,70,,1574069789,955134886,"""base_link""",,-0.00804206308249,-0.00351291209473,-0.234355292835,-0.972111403796,"[1.0, 0.0, 0.0, 0.0, 1.0, 0.0, 0.0, 0.0, 1.0]",,0.00103902374394,0.000834432488773,-0.000454979657661,"[1.2184696791468346e-07, 0.0, 0.0, 0.0, 1.2184696791468346e-07, 0.0, 0.0, 0.0, 1.2184696791468346e-07]",,-0.08825985,0.0784532,9.77723005,"[8.999999999999999e-08, 0.0, 0.0, 0.0, 8.999999999999999e-08, 0.0, 0.0, 0.0, 8.999999999999999e-08]"
1574069790193296424,,71,,1574069790,193078825,"""base_link""",,-0.00805416003972,-0.00345665375328,-0.234282440288,-0.97212906562,"[1.0, 0.0, 0.0, 0.0, 1.0, 0.0, 0.0, 0.0, 1.0]",,-0.00042507762555,0.000855638529174,-0.00212119240314,"[1.2184696791468346e-07, 0.0, 0.0, 0.0, 1.2184696791468346e-07, 0.0, 0.0, 0.0, 1.2184696791468346e-07]",,-0.0980665,0.08825985,9.7870367,"[8.999999999999999e-08, 0.0, 0.0, 0.0, 8.999999999999999e-08, 0.0, 0.0, 0.0, 8.999999999999999e-08]"
1574069790450097624,,72,,1574069790,449777341,"""base_link""",,-0.00807725577618,-0.00344693641684,-0.234232549537,-0.972140930784,"[1.0, 0.0, 0.0, 0.0, 1.0, 0.0, 0.0, 0.0, 1.0]",,0.00195032777265,0.00108095898759,-0.00103707797825,"[1.2184696791468346e-07, 0.0, 0.0, 0.0, 1.2184696791468346e-07, 0.0, 0.0, 0.0, 1.2184696791468346e-07]",,-0.0980665,0.08825985,9.79684335,"[8.999999999999999e-08, 0.0, 0.0, 0.0, 8.999999999999999e-08, 0.0, 0.0, 0.0, 8.999999999999999e-08]"
1574069790690338751,,73,,1574069790,690191718,"""base_link""",,-0.00800928122994,-0.00351224533395,-0.234238058332,-0.972139932096,"[1.0, 0.0, 0.0, 0.0, 1.0, 0.0, 0.0, 0.0, 1.0]",,-4.18709823862e-05,0.000296873360639,-0.000136186135933,"[1.2184696791468346e-07, 0.0, 0.0, 0.0, 1.2184696791468346e-07, 0.0, 0.0, 0.0, 1.2184696791468346e-07]",,-0.10787315,0.06864655,9.79684335,"[8.999999999999999e-08, 0.0, 0.0, 0.0, 8.999999999999999e-08, 0.0, 0.0, 0.0, 8.999999999999999e-08]"
1574069790916177520,,74,,1574069790,915813352,"""base_link""",,-0.00794749619645,-0.00354084768992,-0.23423057683,-0.972142138054,"[1.0, 0.0, 0.0, 0.0, 1.0, 0.0, 0.0, 0.0, 1.0]",,-0.000153531727847,0.00121139339171,0.000580035266466,"[1.2184696791468346e-07, 0.0, 0.0, 0.0, 1.2184696791468346e-07, 0.0, 0.0, 0.0, 1.2184696791468346e-07]",,-0.0980665,0.0784532,9.80665,"[8.999999999999999e-08, 0.0, 0.0, 0.0, 8.999999999999999e-08, 0.0, 0.0, 0.0, 8.999999999999999e-08]"
1574069791170105852,,75,,1574069791,169881942,"""base_link""",,-0.00781388878349,-0.00354939568599,-0.234218229502,-0.972146164885,"[1.0, 0.0, 0.0, 0.0, 1.0, 0.0, 0.0, 0.0, 1.0]",,0.00106366048567,-0.00125231337734,0.00185896316543,"[1.2184696791468346e-07, 0.0, 0.0, 0.0, 1.2184696791468346e-07, 0.0, 0.0, 0.0, 1.2184696791468346e-07]",,-0.10787315,0.08825985,9.7870367,"[8.999999999999999e-08, 0.0, 0.0, 0.0, 8.999999999999999e-08, 0.0, 0.0, 0.0, 8.999999999999999e-08]"
1574069791406723651,,76,,1574069791,406362985,"""base_link""",,-0.00770449882175,-0.00354860280753,-0.23425803222,-0.972137450393,"[1.0, 0.0, 0.0, 0.0, 1.0, 0.0, 0.0, 0.0, 1.0]",,-0.00146125559695,0.000176354893483,0.00130972790066,"[1.2184696791468346e-07, 0.0, 0.0, 0.0, 1.2184696791468346e-07, 0.0, 0.0, 0.0, 1.2184696791468346e-07]",,-0.1176798,0.0784532,9.79684335,"[8.999999999999999e-08, 0.0, 0.0, 0.0, 8.999999999999999e-08, 0.0, 0.0, 0.0, 8.999999999999999e-08]"
1574069791650039377,,77,,1574069791,649696338,"""base_link""",,-0.00772775838844,-0.00358798500251,-0.234247788523,-0.972139589609,"[1.0, 0.0, 0.0, 0.0, 1.0, 0.0, 0.0, 0.0, 1.0]",,0.00131636532024,-1.78325281013e-05,0.000463185249828,"[1.2184696791468346e-07, 0.0, 0.0, 0.0, 1.2184696791468346e-07, 0.0, 0.0, 0.0, 1.2184696791468346e-07]",,-0.10787315,0.08825985,9.7870367,"[8.999999999999999e-08, 0.0, 0.0, 0.0, 8.999999999999999e-08, 0.0, 0.0, 0.0, 8.999999999999999e-08]"
1574069791871121381,,78,,1574069791,870906459,"""base_link""",,-0.00777064253799,-0.00362070393617,-0.234299287822,-0.972126715683,"[1.0, 0.0, 0.0, 0.0, 1.0, 0.0, 0.0, 0.0, 1.0]",,0.000640070298687,0.000718794763088,0.000285764806904,"[1.2184696791468346e-07, 0.0, 0.0, 0.0, 1.2184696791468346e-07, 0.0, 0.0, 0.0, 1.2184696791468346e-07]",,-0.0980665,0.0980665,9.7674234,"[8.999999999999999e-08, 0.0, 0.0, 0.0, 8.999999999999999e-08, 0.0, 0.0, 0.0, 8.999999999999999e-08]"
1574069792117958776,,79,,1574069792,117773345,"""base_link""",,-0.00787661796634,-0.00363575091728,-0.234295686148,-0.972126674697,"[1.0, 0.0, 0.0, 0.0, 1.0, 0.0, 0.0, 0.0, 1.0]",,-0.00182315474376,0.000939098652452,0.00029731343966,"[1.2184696791468346e-07, 0.0, 0.0, 0.0, 1.2184696791468346e-07, 0.0, 0.0, 0.0, 1.2184696791468346e-07]",,-0.0980665,0.0784532,9.79684335,"[8.999999999999999e-08, 0.0, 0.0, 0.0, 8.999999999999999e-08, 0.0, 0.0, 0.0, 8.999999999999999e-08]"
1574069792365219046,,80,,1574069792,364917188,"""base_link""",,-0.00794548163987,-0.0036479243209,-0.23429448426,-0.972126358358,"[1.0, 0.0, 0.0, 0.0, 1.0, 0.0, 0.0, 0.0, 1.0]",,0.000720425276086,-0.00064763642149,0.000284828827716,"[1.2184696791468346e-07, 0.0, 0.0, 0.0, 1.2184696791468346e-07, 0.0, 0.0, 0.0, 1.2184696791468346e-07]",,-0.10787315,0.0784532,9.79684335,"[8.999999999999999e-08, 0.0, 0.0, 0.0, 8.999999999999999e-08, 0.0, 0.0, 0.0, 8.999999999999999e-08]"
1574069792595362189,,81,,1574069792,595084629,"""base_link""",,-0.00800572528969,-0.00369625721243,-0.234350321613,-0.972112222331,"[1.0, 0.0, 0.0, 0.0, 1.0, 0.0, 0.0, 0.0, 1.0]",,-0.000831742654555,-0.00026354714646,-0.000866975809913,"[1.2184696791468346e-07, 0.0, 0.0, 0.0, 1.2184696791468346e-07, 0.0, 0.0, 0.0, 1.2184696791468346e-07]",,-0.0980665,0.0784532,9.7870367,"[8.999999999999999e-08, 0.0, 0.0, 0.0, 8.999999999999999e-08, 0.0, 0.0, 0.0, 8.999999999999999e-08]"
1574069792847018096,,82,,1574069792,846661337,"""base_link""",,-0.00808970757858,-0.00372429680689,-0.234308031591,-0.972121614088,"[1.0, 0.0, 0.0, 0.0, 1.0, 0.0, 0.0, 0.0, 1.0]",,-0.000228437362239,-0.000416706869146,1.54057051986e-05,"[1.2184696791468346e-07, 0.0, 0.0, 0.0, 1.2184696791468346e-07, 0.0, 0.0, 0.0, 1.2184696791468346e-07]",,-0.10787315,0.0784532,9.7870367,"[8.999999999999999e-08, 0.0, 0.0, 0.0, 8.999999999999999e-08, 0.0, 0.0, 0.0, 8.999999999999999e-08]"
1574069793097637304,,83,,1574069793,97383737,"""base_link""",,-0.00813311152656,-0.00369442043082,-0.234315435934,-0.972119581244,"[1.0, 0.0, 0.0, 0.0, 1.0, 0.0, 0.0, 0.0, 1.0]",,-0.000579910876695,0.000450444960734,0.00128037075046,"[1.2184696791468346e-07, 0.0, 0.0, 0.0, 1.2184696791468346e-07, 0.0, 0.0, 0.0, 1.2184696791468346e-07]",,-0.0980665,0.08825985,9.7870367,"[8.999999999999999e-08, 0.0, 0.0, 0.0, 8.999999999999999e-08, 0.0, 0.0, 0.0, 8.999999999999999e-08]"
1574069793321165874,,84,,1574069793,320792199,"""base_link""",,-0.00811001742792,-0.00375135581999,-0.234292096242,-0.972125181541,"[1.0, 0.0, 0.0, 0.0, 1.0, 0.0, 0.0, 0.0, 1.0]",,-0.000999859999865,0.00206149555743,-0.000209145480767,"[1.2184696791468346e-07, 0.0, 0.0, 0.0, 1.2184696791468346e-07, 0.0, 0.0, 0.0, 1.2184696791468346e-07]",,-0.0980665,0.0784532,9.7870367,"[8.999999999999999e-08, 0.0, 0.0, 0.0, 8.999999999999999e-08, 0.0, 0.0, 0.0, 8.999999999999999e-08]"
1574069793557089302,,85,,1574069793,556934787,"""base_link""",,-0.00808366595217,-0.0038448327718,-0.234283941494,-0.97212700115,"[1.0, 0.0, 0.0, 0.0, 1.0, 0.0, 0.0, 0.0, 1.0]",,0.00209370441735,-0.00191223365255,0.000795670668595,"[1.2184696791468346e-07, 0.0, 0.0, 0.0, 1.2184696791468346e-07, 0.0, 0.0, 0.0, 1.2184696791468346e-07]",,-0.10787315,0.08825985,9.7870367,"[8.999999999999999e-08, 0.0, 0.0, 0.0, 8.999999999999999e-08, 0.0, 0.0, 0.0, 8.999999999999999e-08]"
1574069793798004761,,86,,1574069793,797641083,"""base_link""",,-0.00816495802619,-0.00388108706011,-0.234311678081,-0.972119492726,"[1.0, 0.0, 0.0, 0.0, 1.0, 0.0, 0.0, 0.0, 1.0]",,-0.000292300421279,0.000900534330867,-0.000801227870397,"[1.2184696791468346e-07, 0.0, 0.0, 0.0, 1.2184696791468346e-07, 0.0, 0.0, 0.0, 1.2184696791468346e-07]",,-0.10787315,0.0784532,9.7870367,"[8.999999999999999e-08, 0.0, 0.0, 0.0, 8.999999999999999e-08, 0.0, 0.0, 0.0, 8.999999999999999e-08]"
1574069794076278301,,87,,1574069794,76140189,"""base_link""",,-0.00838500056766,-0.00384707158761,-0.234311191108,-0.972117872239,"[1.0, 0.0, 0.0, 0.0, 1.0, 0.0, 0.0, 0.0, 1.0]",,-0.000928858295083,-0.00220762402751,-0.000402522739023,"[1.2184696791468346e-07, 0.0, 0.0, 0.0, 1.2184696791468346e-07, 0.0, 0.0, 0.0, 1.2184696791468346e-07]",,-0.10787315,0.0784532,9.77723005,"[8.999999999999999e-08, 0.0, 0.0, 0.0, 8.999999999999999e-08, 0.0, 0.0, 0.0, 8.999999999999999e-08]"
1574069794382658092,,88,,1574069794,382524910,"""base_link""",,-0.00849732124295,-0.00382429922669,-0.234254974259,-0.972130535115,"[1.0, 0.0, 0.0, 0.0, 1.0, 0.0, 0.0, 0.0, 1.0]",,-0.000792316743173,0.0011098140385,-0.000107679516077,"[1.2184696791468346e-07, 0.0, 0.0, 0.0, 1.2184696791468346e-07, 0.0, 0.0, 0.0, 1.2184696791468346e-07]",,-0.1176798,0.0784532,9.7870367,"[8.999999999999999e-08, 0.0, 0.0, 0.0, 8.999999999999999e-08, 0.0, 0.0, 0.0, 8.999999999999999e-08]"
1574069794638985817,,89,,1574069794,638662335,"""base_link""",,-0.00838761279655,-0.00386677440161,-0.234259013419,-0.972130346527,"[1.0, 0.0, 0.0, 0.0, 1.0, 0.0, 0.0, 0.0, 1.0]",,-0.00123087735847,-0.000205838179681,-0.000954479852226,"[1.2184696791468346e-07, 0.0, 0.0, 0.0, 1.2184696791468346e-07, 0.0, 0.0, 0.0, 1.2184696791468346e-07]",,-0.0980665,0.08825985,9.7870367,"[8.999999999999999e-08, 0.0, 0.0, 0.0, 8.999999999999999e-08, 0.0, 0.0, 0.0, 8.999999999999999e-08]"
1574069794932266324,,90,,1574069794,931973708,"""base_link""",,-0.00824044099266,-0.00393925290673,-0.234299279492,-0.972121610216,"[1.0, 0.0, 0.0, 0.0, 1.0, 0.0, 0.0, 0.0, 1.0]",,-0.00057814019965,-0.000607386231422,-1.45555241033e-05,"[1.2184696791468346e-07, 0.0, 0.0, 0.0, 1.2184696791468346e-07, 0.0, 0.0, 0.0, 1.2184696791468346e-07]",,-0.10787315,0.08825985,9.81645665,"[8.999999999999999e-08, 0.0, 0.0, 0.0, 8.999999999999999e-08, 0.0, 0.0, 0.0, 8.999999999999999e-08]"
1574069795211098517,,91,,1574069795,210738060,"""base_link""",,-0.00806705025041,-0.00406808238623,-0.23433790474,-0.97211322376,"[1.0, 0.0, 0.0, 0.0, 1.0, 0.0, 0.0, 0.0, 1.0]",,0.000540000735782,0.00124235707335,-0.000736733200029,"[1.2184696791468346e-07, 0.0, 0.0, 0.0, 1.2184696791468346e-07, 0.0, 0.0, 0.0, 1.2184696791468346e-07]",,-0.0980665,0.0980665,9.7674234,"[8.999999999999999e-08, 0.0, 0.0, 0.0, 8.999999999999999e-08, 0.0, 0.0, 0.0, 8.999999999999999e-08]"
1574069795490800170,,92,,1574069795,490550880,"""base_link""",,-0.00793514420745,-0.00412817096484,-0.234344465149,-0.972112474637,"[1.0, 0.0, 0.0, 0.0, 1.0, 0.0, 0.0, 0.0, 1.0]",,-0.00156057765707,0.000951140420511,0.000411608838476,"[1.2184696791468346e-07, 0.0, 0.0, 0.0, 1.2184696791468346e-07, 0.0, 0.0, 0.0, 1.2184696791468346e-07]",,-0.0980665,0.0784532,9.7870367,"[8.999999999999999e-08, 0.0, 0.0, 0.0, 8.999999999999999e-08, 0.0, 0.0, 0.0, 8.999999999999999e-08]"
1574069795807222509,,93,,1574069795,806884529,"""base_link""",,-0.00798768196371,-0.00413352352784,-0.234398376508,-0.972099023768,"[1.0, 0.0, 0.0, 0.0, 1.0, 0.0, 0.0, 0.0, 1.0]",,0.00380417238921,-0.00768542010337,0.00272983917966,"[1.2184696791468346e-07, 0.0, 0.0, 0.0, 1.2184696791468346e-07, 0.0, 0.0, 0.0, 1.2184696791468346e-07]",,-0.10787315,0.08825985,9.77723005,"[8.999999999999999e-08, 0.0, 0.0, 0.0, 8.999999999999999e-08, 0.0, 0.0, 0.0, 8.999999999999999e-08]"
1574069796116124287,,94,,1574069796,115723120,"""base_link""",,-0.00807631119516,-0.00409754759836,-0.234541683421,-0.972063877551,"[1.0, 0.0, 0.0, 0.0, 1.0, 0.0, 0.0, 0.0, 1.0]",,0.00327106867917,0.00174140161835,0.000386318657547,"[1.2184696791468346e-07, 0.0, 0.0, 0.0, 1.2184696791468346e-07, 0.0, 0.0, 0.0, 1.2184696791468346e-07]",,-0.08825985,0.0392266,9.7870367,"[8.999999999999999e-08, 0.0, 0.0, 0.0, 8.999999999999999e-08, 0.0, 0.0, 0.0, 8.999999999999999e-08]"
1574069796392947392,,95,,1574069796,392817116,"""base_link""",,-0.00821965153497,-0.00410197819542,-0.234523818229,-0.972066967748,"[1.0, 0.0, 0.0, 0.0, 1.0, 0.0, 0.0, 0.0, 1.0]",,0.00140874530189,-0.000189952203073,0.00145247834735,"[1.2184696791468346e-07, 0.0, 0.0, 0.0, 1.2184696791468346e-07, 0.0, 0.0, 0.0, 1.2184696791468346e-07]",,-0.10787315,0.0784532,9.77723005,"[8.999999999999999e-08, 0.0, 0.0, 0.0, 8.999999999999999e-08, 0.0, 0.0, 0.0, 8.999999999999999e-08]"
1574069796695881708,,96,,1574069796,695480776,"""base_link""",,-0.00848567865496,-0.00409781294048,-0.234568054864,-0.972054025672,"[1.0, 0.0, 0.0, 0.0, 1.0, 0.0, 0.0, 0.0, 1.0]",,0.00200912402943,0.00141265883576,0.000417216680944,"[1.2184696791468346e-07, 0.0, 0.0, 0.0, 1.2184696791468346e-07, 0.0, 0.0, 0.0, 1.2184696791468346e-07]",,-0.14709975,0.0784532,9.7870367,"[8.999999999999999e-08, 0.0, 0.0, 0.0, 8.999999999999999e-08, 0.0, 0.0, 0.0, 8.999999999999999e-08]"
1574069796985414043,,97,,1574069796,985211853,"""base_link""",,-0.00866286144734,-0.00414453297768,-0.234649426552,-0.97203262512,"[1.0, 0.0, 0.0, 0.0, 1.0, 0.0, 0.0, 0.0, 1.0]",,-4.40937583335e-05,0.00207946123555,7.69854523241e-06,"[1.2184696791468346e-07, 0.0, 0.0, 0.0, 1.2184696791468346e-07, 0.0, 0.0, 0.0, 1.2184696791468346e-07]",,-0.0980665,0.08825985,9.75761675,"[8.999999999999999e-08, 0.0, 0.0, 0.0, 8.999999999999999e-08, 0.0, 0.0, 0.0, 8.999999999999999e-08]"
1574069797293116516,,98,,1574069797,292831381,"""base_link""",,-0.00886091478134,-0.00407030620033,-0.234715097515,-0.972015298128,"[1.0, 0.0, 0.0, 0.0, 1.0, 0.0, 0.0, 0.0, 1.0]",,0.000639077741653,0.0006681001978,-8.0180936493e-05,"[1.2184696791468346e-07, 0.0, 0.0, 0.0, 1.2184696791468346e-07, 0.0, 0.0, 0.0, 1.2184696791468346e-07]",,-0.10787315,0.08825985,9.7870367,"[8.999999999999999e-08, 0.0, 0.0, 0.0, 8.999999999999999e-08, 0.0, 0.0, 0.0, 8.999999999999999e-08]"
1574069797523381082,,99,,1574069797,523215202,"""base_link""",,-0.00881692820427,-0.00397786254477,-0.234753442839,-0.972006820687,"[1.0, 0.0, 0.0, 0.0, 1.0, 0.0, 0.0, 0.0, 1.0]",,0.00105055840686,0.000666803331114,0.000281528802589,"[1.2184696791468346e-07, 0.0, 0.0, 0.0, 1.2184696791468346e-07, 0.0, 0.0, 0.0, 1.2184696791468346e-07]",,-0.14709975,0.0784532,9.79684335,"[8.999999999999999e-08, 0.0, 0.0, 0.0, 8.999999999999999e-08, 0.0, 0.0, 0.0, 8.999999999999999e-08]"
1574069797829802590,,100,,1574069797,829549806,"""base_link""",,-0.00875536017927,-0.00387531475499,-0.234768729061,-0.972004099507,"[1.0, 0.0, 0.0, 0.0, 1.0, 0.0, 0.0, 0.0, 1.0]",,-0.000354868534487,-0.000745704281144,-0.000627126486506,"[1.2184696791468346e-07, 0.0, 0.0, 0.0, 1.2184696791468346e-07, 0.0, 0.0, 0.0, 1.2184696791468346e-07]",,-0.0980665,0.0980665,9.77723005,"[8.999999999999999e-08, 0.0, 0.0, 0.0, 8.999999999999999e-08, 0.0, 0.0, 0.0, 8.999999999999999e-08]"
1574069798159047469,,101,,1574069798,158713375,"""base_link""",,-0.00866059265596,-0.00392433044367,-0.234847002443,-0.971985843111,"[1.0, 0.0, 0.0, 0.0, 1.0, 0.0, 0.0, 0.0, 1.0]",,-0.000325194792822,-0.000910641101655,0.00125217647292,"[1.2184696791468346e-07, 0.0, 0.0, 0.0, 1.2184696791468346e-07, 0.0, 0.0, 0.0, 1.2184696791468346e-07]",,-0.10787315,0.0784532,9.79684335,"[8.999999999999999e-08, 0.0, 0.0, 0.0, 8.999999999999999e-08, 0.0, 0.0, 0.0, 8.999999999999999e-08]"
1574069798447058883,,102,,1574069798,446852570,"""base_link""",,-0.00860816875625,-0.00404082401923,-0.234969892689,-0.971956131058,"[1.0, 0.0, 0.0, 0.0, 1.0, 0.0, 0.0, 0.0, 1.0]",,-1.03440252133e-05,-0.0011890756432,0.000332094496116,"[1.2184696791468346e-07, 0.0, 0.0, 0.0, 1.2184696791468346e-07, 0.0, 0.0, 0.0, 1.2184696791468346e-07]",,-0.1176798,0.0784532,9.81645665,"[8.999999999999999e-08, 0.0, 0.0, 0.0, 8.999999999999999e-08, 0.0, 0.0, 0.0, 8.999999999999999e-08]"
1574069798723390219,,103,,1574069798,723057136,"""base_link""",,-0.00842046303949,-0.00423146703027,-0.235043377577,-0.971939196219,"[1.0, 0.0, 0.0, 0.0, 1.0, 0.0, 0.0, 0.0, 1.0]",,0.000118657306302,-0.00219514314085,-0.000908737652935,"[1.2184696791468346e-07, 0.0, 0.0, 0.0, 1.2184696791468346e-07, 0.0, 0.0, 0.0, 1.2184696791468346e-07]",,-0.10787315,0.08825985,9.7870367,"[8.999999999999999e-08, 0.0, 0.0, 0.0, 8.999999999999999e-08, 0.0, 0.0, 0.0, 8.999999999999999e-08]"
1574069799049590322,,104,,1574069799,49201001,"""base_link""",,-0.00825616599358,-0.00441202566608,-0.235179817924,-0.971906797483,"[1.0, 0.0, 0.0, 0.0, 1.0, 0.0, 0.0, 0.0, 1.0]",,-9.4877614174e-05,-1.91828294192e-05,0.000747183454223,"[1.2184696791468346e-07, 0.0, 0.0, 0.0, 1.2184696791468346e-07, 0.0, 0.0, 0.0, 1.2184696791468346e-07]",,-0.12748645,0.06864655,9.7674234,"[8.999999999999999e-08, 0.0, 0.0, 0.0, 8.999999999999999e-08, 0.0, 0.0, 0.0, 8.999999999999999e-08]"
1574069799332179355,,105,,1574069799,331958458,"""base_link""",,-0.0081703927239,-0.00457323554892,-0.235230739316,-0.971894453879,"[1.0, 0.0, 0.0, 0.0, 1.0, 0.0, 0.0, 0.0, 1.0]",,-0.000209095655009,-0.00118734966964,-0.000223159673624,"[1.2184696791468346e-07, 0.0, 0.0, 0.0, 1.2184696791468346e-07, 0.0, 0.0, 0.0, 1.2184696791468346e-07]",,-0.0980665,0.06864655,9.80665,"[8.999999999999999e-08, 0.0, 0.0, 0.0, 8.999999999999999e-08, 0.0, 0.0, 0.0, 8.999999999999999e-08]"
1574069799610258899,,106,,1574069799,609891102,"""base_link""",,-0.00798797470978,-0.00461803117659,-0.23532988402,-0.971871756836,"[1.0, 0.0, 0.0, 0.0, 1.0, 0.0, 0.0, 0.0, 1.0]",,-0.00130731461104,-0.00237041106448,-1.23078934848e-05,"[1.2184696791468346e-07, 0.0, 0.0, 0.0, 1.2184696791468346e-07, 0.0, 0.0, 0.0, 1.2184696791468346e-07]",,-0.08825985,0.06864655,9.7870367,"[8.999999999999999e-08, 0.0, 0.0, 0.0, 8.999999999999999e-08, 0.0, 0.0, 0.0, 8.999999999999999e-08]"
1574069799885637921,,107,,1574069799,885433709,"""base_link""",,-0.0078335845129,-0.00446332993932,-0.235476655408,-0.971838185295,"[1.0, 0.0, 0.0, 0.0, 1.0, 0.0, 0.0, 0.0, 1.0]",,-0.000695282360539,-0.0233366433531,-0.00225289491937,"[1.2184696791468346e-07, 0.0, 0.0, 0.0, 1.2184696791468346e-07, 0.0, 0.0, 0.0, 1.2184696791468346e-07]",,-0.0784532,0.10787315,9.8262633,"[8.999999999999999e-08, 0.0, 0.0, 0.0, 8.999999999999999e-08, 0.0, 0.0, 0.0, 8.999999999999999e-08]"
1574069800209115482,,108,,1574069800,208718180,"""base_link""",,-0.00723053304562,-0.00648044408705,-0.235594279321,-0.971802993815,"[1.0, 0.0, 0.0, 0.0, 1.0, 0.0, 0.0, 0.0, 1.0]",,0.00687706749886,0.0296885948628,-0.0285969804972,"[1.2184696791468346e-07, 0.0, 0.0, 0.0, 1.2184696791468346e-07, 0.0, 0.0, 0.0, 1.2184696791468346e-07]",,-0.2157463,0.1765197,9.7870367,"[8.999999999999999e-08, 0.0, 0.0, 0.0, 8.999999999999999e-08, 0.0, 0.0, 0.0, 8.999999999999999e-08]"
1574069800505779292,,109,,1574069800,505433428,"""base_link""",,-0.00738295566395,-0.00539757728895,-0.235701508935,-0.971782463729,"[1.0, 0.0, 0.0, 0.0, 1.0, 0.0, 0.0, 0.0, 1.0]",,-0.00295173749328,-0.0315455123782,0.0149953812361,"[1.2184696791468346e-07, 0.0, 0.0, 0.0, 1.2184696791468346e-07, 0.0, 0.0, 0.0, 1.2184696791468346e-07]",,-0.16671305,0.0784532,9.77723005,"[8.999999999999999e-08, 0.0, 0.0, 0.0, 8.999999999999999e-08, 0.0, 0.0, 0.0, 8.999999999999999e-08]"
1574069800809429838,,110,,1574069800,809229808,"""base_link""",,-0.00748802908976,-0.00463270506069,-0.235464633318,-0.971843029465,"[1.0, 0.0, 0.0, 0.0, 1.0, 0.0, 0.0, 0.0, 1.0]",,-0.00306148361415,-0.0524597689509,0.00620043184608,"[1.2184696791468346e-07, 0.0, 0.0, 0.0, 1.2184696791468346e-07, 0.0, 0.0, 0.0, 1.2184696791468346e-07]",,-0.0980665,-0.0392266,9.7478101,"[8.999999999999999e-08, 0.0, 0.0, 0.0, 8.999999999999999e-08, 0.0, 0.0, 0.0, 8.999999999999999e-08]"
1574069801088668628,,111,,1574069801,88289575,"""base_link""",,-0.00775700069821,-0.00330421623025,-0.235321511273,-0.971881009912,"[1.0, 0.0, 0.0, 0.0, 1.0, 0.0, 0.0, 0.0, 1.0]",,0.00482231192291,-0.0347141884267,0.00854694005102,"[1.2184696791468346e-07, 0.0, 0.0, 0.0, 1.2184696791468346e-07, 0.0, 0.0, 0.0, 1.2184696791468346e-07]",,-0.10787315,0.0392266,9.79684335,"[8.999999999999999e-08, 0.0, 0.0, 0.0, 8.999999999999999e-08, 0.0, 0.0, 0.0, 8.999999999999999e-08]"
1574069801352707852,,112,,1574069801,352562690,"""base_link""",,-0.00754536638174,-0.00364996128693,-0.235185979283,-0.971914245383,"[1.0, 0.0, 0.0, 0.0, 1.0, 0.0, 0.0, 0.0, 1.0]",,-0.0168127603829,0.0222526807338,-0.00444934424013,"[1.2184696791468346e-07, 0.0, 0.0, 0.0, 1.2184696791468346e-07, 0.0, 0.0, 0.0, 1.2184696791468346e-07]",,0.1176798,0.06864655,9.7870367,"[8.999999999999999e-08, 0.0, 0.0, 0.0, 8.999999999999999e-08, 0.0, 0.0, 0.0, 8.999999999999999e-08]"
1574069801661154281,,113,,1574069801,660799363,"""base_link""",,-0.00729700413177,-0.00441727481496,-0.235295705759,-0.971886398848,"[1.0, 0.0, 0.0, 0.0, 1.0, 0.0, 0.0, 0.0, 1.0]",,-0.0154909230769,0.0128838084638,-0.0198546797037,"[1.2184696791468346e-07, 0.0, 0.0, 0.0, 1.2184696791468346e-07, 0.0, 0.0, 0.0, 1.2184696791468346e-07]",,-0.08825985,0.08825985,9.7674234,"[8.999999999999999e-08, 0.0, 0.0, 0.0, 8.999999999999999e-08, 0.0, 0.0, 0.0, 8.999999999999999e-08]"
1574069801948878375,,114,,1574069801,948711572,"""base_link""",,-0.00640620720717,-0.00862619536697,-0.235091916041,-0.971913751459,"[1.0, 0.0, 0.0, 0.0, 1.0, 0.0, 0.0, 0.0, 1.0]",,-0.000583740649745,-0.00784019567072,-0.0239443778992,"[1.2184696791468346e-07, 0.0, 0.0, 0.0, 1.2184696791468346e-07, 0.0, 0.0, 0.0, 1.2184696791468346e-07]",,-0.14709975,0.0392266,9.77723005,"[8.999999999999999e-08, 0.0, 0.0, 0.0, 8.999999999999999e-08, 0.0, 0.0, 0.0, 8.999999999999999e-08]"
1574069802240489828,,115,,1574069802,240339387,"""base_link""",,-0.00626771766078,-0.0081829010016,-0.234293348008,-0.972111301717,"[1.0, 0.0, 0.0, 0.0, 1.0, 0.0, 0.0, 0.0, 1.0]",,0.00237194309011,-0.0156377758831,0.0100641744211,"[1.2184696791468346e-07, 0.0, 0.0, 0.0, 1.2184696791468346e-07, 0.0, 0.0, 0.0, 1.2184696791468346e-07]",,-0.1569064,0.02941995,9.77723005,"[8.999999999999999e-08, 0.0, 0.0, 0.0, 8.999999999999999e-08, 0.0, 0.0, 0.0, 8.999999999999999e-08]"
1574069802513676847,,116,,1574069802,513412503,"""base_link""",,-0.00606674699867,-0.00882763160455,-0.234577059018,-0.972038513066,"[1.0, 0.0, 0.0, 0.0, 1.0, 0.0, 0.0, 0.0, 1.0]",,0.00560035835952,0.0252011213452,-0.000601647654548,"[1.2184696791468346e-07, 0.0, 0.0, 0.0, 1.2184696791468346e-07, 0.0, 0.0, 0.0, 1.2184696791468346e-07]",,-0.1176798,0.0980665,9.7870367,"[8.999999999999999e-08, 0.0, 0.0, 0.0, 8.999999999999999e-08, 0.0, 0.0, 0.0, 8.999999999999999e-08]"
1574069802796422684,,117,,1574069802,796236147,"""base_link""",,-0.00609945919659,-0.00782076546417,-0.234535701739,-0.972056910286,"[1.0, 0.0, 0.0, 0.0, 1.0, 0.0, 0.0, 0.0, 1.0]",,0.000122180907056,-0.0164514798671,0.00896335579455,"[1.2184696791468346e-07, 0.0, 0.0, 0.0, 1.2184696791468346e-07, 0.0, 0.0, 0.0, 1.2184696791468346e-07]",,-0.3138128,0.08825985,9.77723005,"[8.999999999999999e-08, 0.0, 0.0, 0.0, 8.999999999999999e-08, 0.0, 0.0, 0.0, 8.999999999999999e-08]"
1574069803110513848,,118,,1574069803,110191419,"""base_link""",,-0.00591697391761,-0.00790394286434,-0.235076152337,-0.971926807794,"[1.0, 0.0, 0.0, 0.0, 1.0, 0.0, 0.0, 0.0, 1.0]",,-0.00115307571832,-0.0138644520193,0.0159925427288,"[1.2184696791468346e-07, 0.0, 0.0, 0.0, 1.2184696791468346e-07, 0.0, 0.0, 0.0, 1.2184696791468346e-07]",,-0.3138128,0.0784532,9.7870367,"[8.999999999999999e-08, 0.0, 0.0, 0.0, 8.999999999999999e-08, 0.0, 0.0, 0.0, 8.999999999999999e-08]"
1574069803398584272,,119,,1574069803,398358124,"""base_link""",,-0.00550313922877,-0.00806869710608,-0.235202170979,-0.971897397029,"[1.0, 0.0, 0.0, 0.0, 1.0, 0.0, 0.0, 0.0, 1.0]",,0.000275690865237,0.00950324349105,-0.0140387117863,"[1.2184696791468346e-07, 0.0, 0.0, 0.0, 1.2184696791468346e-07, 0.0, 0.0, 0.0, 1.2184696791468346e-07]",,-0.0980665,0.06864655,9.80665,"[8.999999999999999e-08, 0.0, 0.0, 0.0, 8.999999999999999e-08, 0.0, 0.0, 0.0, 8.999999999999999e-08]"
1574069803653269250,,120,,1574069803,652896995,"""base_link""",,-0.00580709052264,-0.00669650920228,-0.235010319318,-0.971952459886,"[1.0, 0.0, 0.0, 0.0, 1.0, 0.0, 0.0, 0.0, 1.0]",,0.00200820225291,-0.0135776260868,0.0204603318125,"[1.2184696791468346e-07, 0.0, 0.0, 0.0, 1.2184696791468346e-07, 0.0, 0.0, 0.0, 1.2184696791468346e-07]",,-0.1765197,0.0980665,9.7674234,"[8.999999999999999e-08, 0.0, 0.0, 0.0, 8.999999999999999e-08, 0.0, 0.0, 0.0, 8.999999999999999e-08]"
1574069803935749095,,121,,1574069803,935470045,"""base_link""",,-0.00577436108685,-0.00755526764448,-0.235082262431,-0.971928960663,"[1.0, 0.0, 0.0, 0.0, 1.0, 0.0, 0.0, 0.0, 1.0]",,0.0061507942155,0.00137215072755,0.0139072528109,"[1.2184696791468346e-07, 0.0, 0.0, 0.0, 1.2184696791468346e-07, 0.0, 0.0, 0.0, 1.2184696791468346e-07]",,-0.0980665,0.08825985,9.80665,"[8.999999999999999e-08, 0.0, 0.0, 0.0, 8.999999999999999e-08, 0.0, 0.0, 0.0, 8.999999999999999e-08]"
1574069804237491619,,122,,1574069804,234835746,"""base_link""",,-0.00589643748489,-0.00891169218152,-0.235730081454,-0.971759817272,"[1.0, 0.0, 0.0, 0.0, 1.0, 0.0, 0.0, 0.0, 1.0]",,0.00512327998877,0.0241079926491,0.0165629219264,"[1.2184696791468346e-07, 0.0, 0.0, 0.0, 1.2184696791468346e-07, 0.0, 0.0, 0.0, 1.2184696791468346e-07]",,-0.3334261,0.1372931,9.75761675,"[8.999999999999999e-08, 0.0, 0.0, 0.0, 8.999999999999999e-08, 0.0, 0.0, 0.0, 8.999999999999999e-08]"
1574069804555619172,,123,,1574069804,555268489,"""base_link""",,-0.0061245597249,-0.00860655103869,-0.235574901442,-0.971798787228,"[1.0, 0.0, 0.0, 0.0, 1.0, 0.0, 0.0, 0.0, 1.0]",,-0.00280012749135,0.00251204590313,0.000103666796349,"[1.2184696791468346e-07, 0.0, 0.0, 0.0, 1.2184696791468346e-07, 0.0, 0.0, 0.0, 1.2184696791468346e-07]",,-0.1372931,0.1176798,9.7870367,"[8.999999999999999e-08, 0.0, 0.0, 0.0, 8.999999999999999e-08, 0.0, 0.0, 0.0, 8.999999999999999e-08]"
1574069804832720331,,124,,1574069804,832479528,"""base_link""",,-0.00673175470366,-0.00801501526684,-0.236667482263,-0.971534325615,"[1.0, 0.0, 0.0, 0.0, 1.0, 0.0, 0.0, 0.0, 1.0]",,-0.00408715382218,-0.0268238913268,0.00312630040571,"[1.2184696791468346e-07, 0.0, 0.0, 0.0, 1.2184696791468346e-07, 0.0, 0.0, 0.0, 1.2184696791468346e-07]",,-0.32361945,0.0392266,9.7870367,"[8.999999999999999e-08, 0.0, 0.0, 0.0, 8.999999999999999e-08, 0.0, 0.0, 0.0, 8.999999999999999e-08]"
1574069805092381472,,125,,1574069805,92087528,"""base_link""",,-0.0066178505604,-0.00899101002759,-0.236387519772,-0.971594723271,"[1.0, 0.0, 0.0, 0.0, 1.0, 0.0, 0.0, 0.0, 1.0]",,0.0124451220036,0.0156845413148,0.00217716768384,"[1.2184696791468346e-07, 0.0, 0.0, 0.0, 1.2184696791468346e-07, 0.0, 0.0, 0.0, 1.2184696791468346e-07]",,-0.22555295,0.10787315,9.83606995,"[8.999999999999999e-08, 0.0, 0.0, 0.0, 8.999999999999999e-08, 0.0, 0.0, 0.0, 8.999999999999999e-08]"
1574069805384883179,,126,,1574069805,384725130,"""base_link""",,-0.00710323858945,-0.00890292836062,-0.236709774306,-0.97151364613,"[1.0, 0.0, 0.0, 0.0, 1.0, 0.0, 0.0, 0.0, 1.0]",,0.00377656635828,0.0106171984226,-0.00148000335321,"[1.2184696791468346e-07, 0.0, 0.0, 0.0, 1.2184696791468346e-07, 0.0, 0.0, 0.0, 1.2184696791468346e-07]",,-0.34323275,0.12748645,9.77723005,"[8.999999999999999e-08, 0.0, 0.0, 0.0, 8.999999999999999e-08, 0.0, 0.0, 0.0, 8.999999999999999e-08]"
1574069805680230461,,127,,1574069805,679842920,"""base_link""",,-0.00671225297086,-0.00743441634533,-0.236773043685,-0.971513356006,"[1.0, 0.0, 0.0, 0.0, 1.0, 0.0, 0.0, 0.0, 1.0]",,-0.0147508867085,-0.0529981926084,0.0432033874094,"[1.2184696791468346e-07, 0.0, 0.0, 0.0, 1.2184696791468346e-07, 0.0, 0.0, 0.0, 1.2184696791468346e-07]",,-0.26477955,0.1372931,9.7870367,"[8.999999999999999e-08, 0.0, 0.0, 0.0, 8.999999999999999e-08, 0.0, 0.0, 0.0, 8.999999999999999e-08]"
1574069805995890503,,128,,1574069805,995582960,"""base_link""",,-0.000415564429263,-0.0225683803407,-0.228243198825,-0.973342456541,"[1.0, 0.0, 0.0, 0.0, 1.0, 0.0, 0.0, 0.0, 1.0]",,0.144301831722,-0.00489750411361,-0.0958224907517,"[1.2184696791468346e-07, 0.0, 0.0, 0.0, 1.2184696791468346e-07, 0.0, 0.0, 0.0, 1.2184696791468346e-07]",,-0.4707192,-0.30400615,9.85568325,"[8.999999999999999e-08, 0.0, 0.0, 0.0, 8.999999999999999e-08, 0.0, 0.0, 0.0, 8.999999999999999e-08]"
1574069806307733704,,129,,1574069806,307628348,"""base_link""",,-0.00867545386127,-0.000239199076288,-0.21668628344,-0.976202711455,"[1.0, 0.0, 0.0, 0.0, 1.0, 0.0, 0.0, 0.0, 1.0]",,-0.0831451117992,0.092100597918,0.0340990051627,"[1.2184696791468346e-07, 0.0, 0.0, 0.0, 1.2184696791468346e-07, 0.0, 0.0, 0.0, 1.2184696791468346e-07]",,0.06864655,-0.02941995,9.7870367,"[8.999999999999999e-08, 0.0, 0.0, 0.0, 8.999999999999999e-08, 0.0, 0.0, 0.0, 8.999999999999999e-08]"
1574069806592125844,,130,,1574069806,591834183,"""base_link""",,-0.0023350281109,-0.000506116273326,-0.216192741563,-0.976347781267,"[1.0, 0.0, 0.0, 0.0, 1.0, 0.0, 0.0, 0.0, 1.0]",,-0.0046737510711,-0.0528400167823,-0.0196600575,"[1.2184696791468346e-07, 0.0, 0.0, 0.0, 1.2184696791468346e-07, 0.0, 0.0, 0.0, 1.2184696791468346e-07]",,0.02941995,0.00980665,10.2773692,"[8.999999999999999e-08, 0.0, 0.0, 0.0, 8.999999999999999e-08, 0.0, 0.0, 0.0, 8.999999999999999e-08]"
1574069806872243836,,131,,1574069806,872079809,"""base_link""",,-0.00195619016172,-0.00313568650636,-0.21628155972,-0.976324038276,"[1.0, 0.0, 0.0, 0.0, 1.0, 0.0, 0.0, 0.0, 1.0]",,-0.0207966696471,-0.0425681881607,-0.013008357957,"[1.2184696791468346e-07, 0.0, 0.0, 0.0, 1.2184696791468346e-07, 0.0, 0.0, 0.0, 1.2184696791468346e-07]",,0.0784532,-0.06864655,9.7478101,"[8.999999999999999e-08, 0.0, 0.0, 0.0, 8.999999999999999e-08, 0.0, 0.0, 0.0, 8.999999999999999e-08]"
1574069807177888371,,132,,1574069807,177527957,"""base_link""",,-0.00433311394222,-0.00379123171675,-0.213430078822,-0.976941375999,"[1.0, 0.0, 0.0, 0.0, 1.0, 0.0, 0.0, 0.0, 1.0]",,-0.0105510270223,0.130515277386,-0.030127517879,"[1.2184696791468346e-07, 0.0, 0.0, 0.0, 1.2184696791468346e-07, 0.0, 0.0, 0.0, 1.2184696791468346e-07]",,-0.2549729,0.06864655,10.22833595,"[8.999999999999999e-08, 0.0, 0.0, 0.0, 8.999999999999999e-08, 0.0, 0.0, 0.0, 8.999999999999999e-08]"
1574069807522739802,,133,,1574069807,522402741,"""base_link""",,0.00249119029115,-0.00268433278608,-0.217615967559,-0.976027601552,"[1.0, 0.0, 0.0, 0.0, 1.0, 0.0, 0.0, 0.0, 1.0]",,-0.0450218617916,-0.0177881252021,0.0498888492584,"[1.2184696791468346e-07, 0.0, 0.0, 0.0, 1.2184696791468346e-07, 0.0, 0.0, 0.0, 1.2184696791468346e-07]",,-0.0196133,0.04903325,9.7674234,"[8.999999999999999e-08, 0.0, 0.0, 0.0, 8.999999999999999e-08, 0.0, 0.0, 0.0, 8.999999999999999e-08]"
1574069807812913632,,134,,1574069807,812763730,"""base_link""",,0.000795174595476,0.00204736141789,-0.21681060168,-0.976211216391,"[1.0, 0.0, 0.0, 0.0, 1.0, 0.0, 0.0, 0.0, 1.0]",,-0.00329160224646,-0.028565922752,-0.0168145932257,"[1.2184696791468346e-07, 0.0, 0.0, 0.0, 1.2184696791468346e-07, 0.0, 0.0, 0.0, 1.2184696791468346e-07]",,-0.1372931,-0.0980665,9.7085835,"[8.999999999999999e-08, 0.0, 0.0, 0.0, 8.999999999999999e-08, 0.0, 0.0, 0.0, 8.999999999999999e-08]"
1574069808152476915,,135,,1574069808,152085334,"""base_link""",,7.10764097557e-06,0.00767599386885,-0.212299931409,-0.977174405207,"[1.0, 0.0, 0.0, 0.0, 1.0, 0.0, 0.0, 0.0, 1.0]",,-0.0423498600721,-0.126100823283,-0.110028736293,"[1.2184696791468346e-07, 0.0, 0.0, 0.0, 1.2184696791468346e-07, 0.0, 0.0, 0.0, 1.2184696791468346e-07]",,0.08825985,-0.12748645,9.52225715,"[8.999999999999999e-08, 0.0, 0.0, 0.0, 8.999999999999999e-08, 0.0, 0.0, 0.0, 8.999999999999999e-08]"
1574069808388079827,,136,,1574069808,387921787,"""base_link""",,-0.00298468246807,0.0138648894747,-0.190941299098,-0.981498994808,"[1.0, 0.0, 0.0, 0.0, 1.0, 0.0, 0.0, 0.0, 1.0]",,-0.00257120281458,0.0527343004942,-0.276937633753,"[1.2184696791468346e-07, 0.0, 0.0, 0.0, 1.2184696791468346e-07, 0.0, 0.0, 0.0, 1.2184696791468346e-07]",,0.1765197,-0.0392266,9.4536106,"[8.999999999999999e-08, 0.0, 0.0, 0.0, 8.999999999999999e-08, 0.0, 0.0, 0.0, 8.999999999999999e-08]"
1574069808692993352,,137,,1574069808,692704672,"""base_link""",,-0.00463672204223,0.0112583239413,-0.153434960862,-0.98808373316,"[1.0, 0.0, 0.0, 0.0, 1.0, 0.0, 0.0, 0.0, 1.0]",,-0.00854773726314,-0.0259298626333,-0.101982496679,"[1.2184696791468346e-07, 0.0, 0.0, 0.0, 1.2184696791468346e-07, 0.0, 0.0, 0.0, 1.2184696791468346e-07]",,0.1569064,-0.12748645,9.71839015,"[8.999999999999999e-08, 0.0, 0.0, 0.0, 8.999999999999999e-08, 0.0, 0.0, 0.0, 8.999999999999999e-08]"
1574069808972159582,,138,,1574069808,971936339,"""base_link""",,-0.00663398689846,0.0121879423922,-0.149507138633,-0.988663269155,"[1.0, 0.0, 0.0, 0.0, 1.0, 0.0, 0.0, 0.0, 1.0]",,0.0397902131081,-0.0202097669244,0.0291482117027,"[1.2184696791468346e-07, 0.0, 0.0, 0.0, 1.2184696791468346e-07, 0.0, 0.0, 0.0, 1.2184696791468346e-07]",,0.3334261,-0.04903325,9.93413645,"[8.999999999999999e-08, 0.0, 0.0, 0.0, 8.999999999999999e-08, 0.0, 0.0, 0.0, 8.999999999999999e-08]"
1574069809352039531,,139,,1574069809,351885420,"""base_link""",,-0.00684176884398,0.0258494117212,-0.170589705732,-0.98497926395,"[1.0, 0.0, 0.0, 0.0, 1.0, 0.0, 0.0, 0.0, 1.0]",,0.00259211612865,-0.103670373559,0.10060146451,"[1.2184696791468346e-07, 0.0, 0.0, 0.0, 1.2184696791468346e-07, 0.0, 0.0, 0.0, 1.2184696791468346e-07]",,0.38245935,-0.2157463,9.6497436,"[8.999999999999999e-08, 0.0, 0.0, 0.0, 8.999999999999999e-08, 0.0, 0.0, 0.0, 8.999999999999999e-08]"
1574069809646998888,,140,,1574069809,646662384,"""base_link""",,-0.0100569261726,0.0310829873938,-0.180569227845,-0.983019562413,"[1.0, 0.0, 0.0, 0.0, 1.0, 0.0, 0.0, 0.0, 1.0]",,0.001985557843,-0.0527129024267,-0.00533645274118,"[1.2184696791468346e-07, 0.0, 0.0, 0.0, 1.2184696791468346e-07, 0.0, 0.0, 0.0, 1.2184696791468346e-07]",,0.44129925,0.24516625,9.8262633,"[8.999999999999999e-08, 0.0, 0.0, 0.0, 8.999999999999999e-08, 0.0, 0.0, 0.0, 8.999999999999999e-08]"
1574069809866364242,,141,,1574069809,866230518,"""base_link""",,-0.0146341874351,0.0317435772785,-0.175316134059,-0.983891477247,"[1.0, 0.0, 0.0, 0.0, 1.0, 0.0, 0.0, 0.0, 1.0]",,0.00542880548164,0.0557189062238,-0.0829905644059,"[1.2184696791468346e-07, 0.0, 0.0, 0.0, 1.2184696791468346e-07, 0.0, 0.0, 0.0, 1.2184696791468346e-07]",,0.63743225,0.12748645,9.67916355,"[8.999999999999999e-08, 0.0, 0.0, 0.0, 8.999999999999999e-08, 0.0, 0.0, 0.0, 8.999999999999999e-08]"
1574069810137276359,,142,,1574069810,136858900,"""base_link""",,-0.0145315461435,0.0368866660026,-0.174914669113,-0.983785071328,"[1.0, 0.0, 0.0, 0.0, 1.0, 0.0, 0.0, 0.0, 1.0]",,-0.0458155311644,-0.0384311676025,-0.0371612757444,"[1.2184696791468346e-07, 0.0, 0.0, 0.0, 1.2184696791468346e-07, 0.0, 0.0, 0.0, 1.2184696791468346e-07]",,0.48052585,0.06864655,9.6889702,"[8.999999999999999e-08, 0.0, 0.0, 0.0, 8.999999999999999e-08, 0.0, 0.0, 0.0, 8.999999999999999e-08]"
1574069810412030635,,143,,1574069810,411823015,"""base_link""",,-0.014220742593,0.0385663264167,-0.159592257562,-0.986326883073,"[1.0, 0.0, 0.0, 0.0, 1.0, 0.0, 0.0, 0.0, 1.0]",,0.0553152859211,-0.0469524487853,-0.0224471203983,"[1.2184696791468346e-07, 0.0, 0.0, 0.0, 1.2184696791468346e-07, 0.0, 0.0, 0.0, 1.2184696791468346e-07]",,0.71588545,-0.1569064,9.62032365,"[8.999999999999999e-08, 0.0, 0.0, 0.0, 8.999999999999999e-08, 0.0, 0.0, 0.0, 8.999999999999999e-08]"
1574069810692452232,,144,,1574069810,692164490,"""base_link""",,-0.0138986922484,0.0363527403308,-0.160011607019,-0.986347601124,"[1.0, 0.0, 0.0, 0.0, 1.0, 0.0, 0.0, 0.0, 1.0]",,0.0162865631282,0.033091250807,0.072562083602,"[1.2184696791468346e-07, 0.0, 0.0, 0.0, 1.2184696791468346e-07, 0.0, 0.0, 0.0, 1.2184696791468346e-07]",,0.8825985,0.14709975,9.9047165,"[8.999999999999999e-08, 0.0, 0.0, 0.0, 8.999999999999999e-08, 0.0, 0.0, 0.0, 8.999999999999999e-08]"
1574069811002385138,,145,,1574069811,2129737,"""base_link""",,-0.0142562330079,0.0425979633556,-0.173919241051,-0.983734858044,"[1.0, 0.0, 0.0, 0.0, 1.0, 0.0, 0.0, 0.0, 1.0]",,-0.0243104435503,0.0183556340635,0.135949999094,"[1.2184696791468346e-07, 0.0, 0.0, 0.0, 1.2184696791468346e-07, 0.0, 0.0, 0.0, 1.2184696791468346e-07]",,0.9414384,0.04903325,9.83606995,"[8.999999999999999e-08, 0.0, 0.0, 0.0, 8.999999999999999e-08, 0.0, 0.0, 0.0, 8.999999999999999e-08]"
1574069811273194183,,146,,1574069811,272787518,"""base_link""",,-0.0126668601638,0.0346045868953,-0.190720482005,-0.980952481501,"[1.0, 0.0, 0.0, 0.0, 1.0, 0.0, 0.0, 0.0, 1.0]",,0.0272724982351,0.0365191400051,0.0518628619611,"[1.2184696791468346e-07, 0.0, 0.0, 0.0, 1.2184696791468346e-07, 0.0, 0.0, 0.0, 1.2184696791468346e-07]",,0.6472389,0.04903325,9.8851032,"[8.999999999999999e-08, 0.0, 0.0, 0.0, 8.999999999999999e-08, 0.0, 0.0, 0.0, 8.999999999999999e-08]"
1574069811529483186,,147,,1574069811,529317367,"""base_link""",,-0.0149811008729,0.0251458070382,-0.195751427894,-0.980216625794,"[1.0, 0.0, 0.0, 0.0, 1.0, 0.0, 0.0, 0.0, 1.0]",,0.0697476267815,0.050803091377,0.0462461002171,"[1.2184696791468346e-07, 0.0, 0.0, 0.0, 1.2184696791468346e-07, 0.0, 0.0, 0.0, 1.2184696791468346e-07]",,0.50013915,-0.0392266,9.7281968,"[8.999999999999999e-08, 0.0, 0.0, 0.0, 8.999999999999999e-08, 0.0, 0.0, 0.0, 8.999999999999999e-08]"
1574069811818486298,,148,,1574069811,818121131,"""base_link""",,-0.013131670821,0.0177979686856,-0.193617993517,-0.980827642412,"[1.0, 0.0, 0.0, 0.0, 1.0, 0.0, 0.0, 0.0, 1.0]",,-0.0393655449152,0.082159563899,-0.0346578918397,"[1.2184696791468346e-07, 0.0, 0.0, 0.0, 1.2184696791468346e-07, 0.0, 0.0, 0.0, 1.2184696791468346e-07]",,0.57859235,0.2157463,10.002783,"[8.999999999999999e-08, 0.0, 0.0, 0.0, 8.999999999999999e-08, 0.0, 0.0, 0.0, 8.999999999999999e-08]"
1574069812135760473,,149,,1574069812,135393688,"""base_link""",,-0.00812753412629,0.00265540249957,-0.195413588385,-0.980683650063,"[1.0, 0.0, 0.0, 0.0, 1.0, 0.0, 0.0, 0.0, 1.0]",,0.0103406934068,0.144869580865,0.020294662565,"[1.2184696791468346e-07, 0.0, 0.0, 0.0, 1.2184696791468346e-07, 0.0, 0.0, 0.0, 1.2184696791468346e-07]",,0.28439285,0.0196133,9.91452315,"[8.999999999999999e-08, 0.0, 0.0, 0.0, 8.999999999999999e-08, 0.0, 0.0, 0.0, 8.999999999999999e-08]"
1574069812472291972,,150,,1574069812,472102650,"""base_link""",,-0.00300778145486,-0.014804584543,-0.199403376639,-0.979801036391,"[1.0, 0.0, 0.0, 0.0, 1.0, 0.0, 0.0, 0.0, 1.0]",,-0.0758405998349,0.0591686852276,0.0268971472979,"[1.2184696791468346e-07, 0.0, 0.0, 0.0, 1.2184696791468346e-07, 0.0, 0.0, 0.0, 1.2184696791468346e-07]",,-0.196133,0.1765197,9.89490985,"[8.999999999999999e-08, 0.0, 0.0, 0.0, 8.999999999999999e-08, 0.0, 0.0, 0.0, 8.999999999999999e-08]"
1574069812770129583,,151,,1574069812,769760338,"""base_link""",,0.002050097347,-0.011277202344,-0.205084214257,-0.978677212809,"[1.0, 0.0, 0.0, 0.0, 1.0, 0.0, 0.0, 0.0, 1.0]",,0.0214498918504,-0.0685276910663,0.0470341965556,"[1.2184696791468346e-07, 0.0, 0.0, 0.0, 1.2184696791468346e-07, 0.0, 0.0, 0.0, 1.2184696791468346e-07]",,-0.26477955,-0.08825985,9.56148375,"[8.999999999999999e-08, 0.0, 0.0, 0.0, 8.999999999999999e-08, 0.0, 0.0, 0.0, 8.999999999999999e-08]"
1574069813047801857,,152,,1574069813,47649868,"""base_link""",,0.00348776286888,-0.0124084341498,-0.204319669974,-0.978819359603,"[1.0, 0.0, 0.0, 0.0, 1.0, 0.0, 0.0, 0.0, 1.0]",,-0.0195979103446,0.107356414199,-0.0229373071343,"[1.2184696791468346e-07, 0.0, 0.0, 0.0, 1.2184696791468346e-07, 0.0, 0.0, 0.0, 1.2184696791468346e-07]",,-0.36284605,-0.0392266,9.85568325,"[8.999999999999999e-08, 0.0, 0.0, 0.0, 8.999999999999999e-08, 0.0, 0.0, 0.0, 8.999999999999999e-08]"
1574069813353395207,,153,,1574069813,352977805,"""base_link""",,0.0203650120104,-0.0224120111557,-0.196632048949,-0.980009594528,"[1.0, 0.0, 0.0, 0.0, 1.0, 0.0, 0.0, 0.0, 1.0]",,-0.129365384579,-0.0370858348906,0.023513359949,"[1.2184696791468346e-07, 0.0, 0.0, 0.0, 1.2184696791468346e-07, 0.0, 0.0, 0.0, 1.2184696791468346e-07]",,-0.32361945,-0.1569064,9.97336305,"[8.999999999999999e-08, 0.0, 0.0, 0.0, 8.999999999999999e-08, 0.0, 0.0, 0.0, 8.999999999999999e-08]"
1574069813640179279,,154,,1574069813,640010616,"""base_link""",,0.0160675815809,0.00292289438568,-0.206373818014,-0.978336923942,"[1.0, 0.0, 0.0, 0.0, 1.0, 0.0, 0.0, 0.0, 1.0]",,-0.00317787751555,-0.0798538401723,-0.0203172769397,"[1.2184696791468346e-07, 0.0, 0.0, 0.0, 1.2184696791468346e-07, 0.0, 0.0, 0.0, 1.2184696791468346e-07]",,0.30400615,-0.38245935,9.4928372,"[8.999999999999999e-08, 0.0, 0.0, 0.0, 8.999999999999999e-08, 0.0, 0.0, 0.0, 8.999999999999999e-08]"
1574069813967461423,,155,,1574069813,967282188,"""base_link""",,0.0294254576876,0.00760221688974,-0.197891757225,-0.979752622431,"[1.0, 0.0, 0.0, 0.0, 1.0, 0.0, 0.0, 0.0, 1.0]",,0.0508975237608,-0.0255421381444,-0.123468481004,"[1.2184696791468346e-07, 0.0, 0.0, 0.0, 1.2184696791468346e-07, 0.0, 0.0, 0.0, 1.2184696791468346e-07]",,-0.0784532,-0.65704555,9.4536106,"[8.999999999999999e-08, 0.0, 0.0, 0.0, 8.999999999999999e-08, 0.0, 0.0, 0.0, 8.999999999999999e-08]"
1574069814272735293,,156,,1574069814,272391642,"""base_link""",,0.0333627941662,-0.01681226374,-0.183327228819,-0.982341793332,"[1.0, 0.0, 0.0, 0.0, 1.0, 0.0, 0.0, 0.0, 1.0]",,-0.0269985254854,0.0879091694951,-0.0518785119057,"[1.2184696791468346e-07, 0.0, 0.0, 0.0, 1.2184696791468346e-07, 0.0, 0.0, 0.0, 1.2184696791468346e-07]",,-0.3726527,-0.57859235,10.2773692,"[8.999999999999999e-08, 0.0, 0.0, 0.0, 8.999999999999999e-08, 0.0, 0.0, 0.0, 8.999999999999999e-08]"
1574069814552524482,,157,,1574069814,552303163,"""base_link""",,0.0200849681712,-0.0171227279767,-0.176941698549,-0.983867390228,"[1.0, 0.0, 0.0, 0.0, 1.0, 0.0, 0.0, 0.0, 1.0]",,0.136506795883,-0.027940781787,0.0726675763726,"[1.2184696791468346e-07, 0.0, 0.0, 0.0, 1.2184696791468346e-07, 0.0, 0.0, 0.0, 1.2184696791468346e-07]",,-0.71588545,-0.61781895,9.56148375,"[8.999999999999999e-08, 0.0, 0.0, 0.0, 8.999999999999999e-08, 0.0, 0.0, 0.0, 8.999999999999999e-08]"
1574069814867426838,,158,,1574069814,867133376,"""base_link""",,0.00162205822928,-0.0488724073163,-0.170677755376,-0.984112778369,"[1.0, 0.0, 0.0, 0.0, 1.0, 0.0, 0.0, 0.0, 1.0]",,0.0317698791623,0.135192677379,-0.375049710274,"[1.2184696791468346e-07, 0.0, 0.0, 0.0, 1.2184696791468346e-07, 0.0, 0.0, 0.0, 1.2184696791468346e-07]",,-0.42168595,0.55897905,9.5909037,"[8.999999999999999e-08, 0.0, 0.0, 0.0, 8.999999999999999e-08, 0.0, 0.0, 0.0, 8.999999999999999e-08]"
1574069815130559772,,159,,1574069815,130381533,"""base_link""",,0.0139621130015,-0.03564318473,-0.152139969513,-0.98761736136,"[1.0, 0.0, 0.0, 0.0, 1.0, 0.0, 0.0, 0.0, 1.0]",,0.0390244238079,-0.0578826591372,0.320562332869,"[1.2184696791468346e-07, 0.0, 0.0, 0.0, 1.2184696791468346e-07, 0.0, 0.0, 0.0, 1.2184696791468346e-07]",,-1.20621795,-0.81395195,10.2185293,"[8.999999999999999e-08, 0.0, 0.0, 0.0, 8.999999999999999e-08, 0.0, 0.0, 0.0, 8.999999999999999e-08]"
1574069815390477503,,160,,1574069815,390145780,"""base_link""",,0.00970595818077,-0.0336438942254,-0.17447201689,-0.984039327507,"[1.0, 0.0, 0.0, 0.0, 1.0, 0.0, 0.0, 0.0, 1.0]",,-0.0690275579691,-0.062725931406,0.00832609832287,"[1.2184696791468346e-07, 0.0, 0.0, 0.0, 1.2184696791468346e-07, 0.0, 0.0, 0.0, 1.2184696791468346e-07]",,-0.83356525,0.02941995,9.7478101,"[8.999999999999999e-08, 0.0, 0.0, 0.0, 8.999999999999999e-08, 0.0, 0.0, 0.0, 8.999999999999999e-08]"
1574069815655081728,,161,,1574069815,654846534,"""base_link""",,0.0142128634784,-0.00292439044642,-0.173122829671,-0.98479334294,"[1.0, 0.0, 0.0, 0.0, 1.0, 0.0, 0.0, 0.0, 1.0]",,-0.0498124994338,-0.0807008817792,0.00849993899465,"[1.2184696791468346e-07, 0.0, 0.0, 0.0, 1.2184696791468346e-07, 0.0, 0.0, 0.0, 1.2184696791468346e-07]",,-0.51975245,-0.2157463,9.56148375,"[8.999999999999999e-08, 0.0, 0.0, 0.0, 8.999999999999999e-08, 0.0, 0.0, 0.0, 8.999999999999999e-08]"
1574069815908878572,,162,,1574069815,908507893,"""base_link""",,0.0180267480698,-0.00450018069221,-0.174861704575,-0.984417680155,"[1.0, 0.0, 0.0, 0.0, 1.0, 0.0, 0.0, 0.0, 1.0]",,-0.0532143637538,-0.108427666128,0.0597968064249,"[1.2184696791468346e-07, 0.0, 0.0, 0.0, 1.2184696791468346e-07, 0.0, 0.0, 0.0, 1.2184696791468346e-07]",,-0.3138128,-0.5099458,9.5320638,"[8.999999999999999e-08, 0.0, 0.0, 0.0, 8.999999999999999e-08, 0.0, 0.0, 0.0, 8.999999999999999e-08]"
1574069816205192712,,163,,1574069816,205006210,"""base_link""",,0.0211859651557,-0.00776243163043,-0.182896823183,-0.982873161504,"[1.0, 0.0, 0.0, 0.0, 1.0, 0.0, 0.0, 0.0, 1.0]",,-0.113063648343,0.158377826214,0.0582093410194,"[1.2184696791468346e-07, 0.0, 0.0, 0.0, 1.2184696791468346e-07, 0.0, 0.0, 0.0, 1.2184696791468346e-07]",,-0.02941995,-0.67665885,9.75761675,"[8.999999999999999e-08, 0.0, 0.0, 0.0, 8.999999999999999e-08, 0.0, 0.0, 0.0, 8.999999999999999e-08]"
1574069816451452117,,164,,1574069816,451062915,"""base_link""",,0.035173987889,-0.026816495867,-0.194810319051,-0.97984315363,"[1.0, 0.0, 0.0, 0.0, 1.0, 0.0, 0.0, 0.0, 1.0]",,0.00651392387226,0.0239300765097,0.0844819396734,"[1.2184696791468346e-07, 0.0, 0.0, 0.0, 1.2184696791468346e-07, 0.0, 0.0, 0.0, 1.2184696791468346e-07]",,-0.1569064,-0.7649187,9.3555441,"[8.999999999999999e-08, 0.0, 0.0, 0.0, 8.999999999999999e-08, 0.0, 0.0, 0.0, 8.999999999999999e-08]"
1574069816715901575,,165,,1574069816,715696841,"""base_link""",,0.0332834951579,-0.0322546054295,-0.203139257513,-0.978052294837,"[1.0, 0.0, 0.0, 0.0, 1.0, 0.0, 0.0, 0.0, 1.0]",,-0.0081975562498,0.00614565471187,0.0354692563415,"[1.2184696791468346e-07, 0.0, 0.0, 0.0, 1.2184696791468346e-07, 0.0, 0.0, 0.0, 1.2184696791468346e-07]",,-0.69627215,-0.6276256,9.9831697,"[8.999999999999999e-08, 0.0, 0.0, 0.0, 8.999999999999999e-08, 0.0, 0.0, 0.0, 8.999999999999999e-08]"
1574069816999599916,,166,,1574069816,999368164,"""base_link""",,0.0317472296116,-0.0134450940009,-0.19295038918,-0.980602615831,"[1.0, 0.0, 0.0, 0.0, 1.0, 0.0, 0.0, 0.0, 1.0]",,-0.043157055974,-0.0298392511904,-0.110955797136,"[1.2184696791468346e-07, 0.0, 0.0, 0.0, 1.2184696791468346e-07, 0.0, 0.0, 0.0, 1.2184696791468346e-07]",,-0.392266,-0.55897905,9.6693569,"[8.999999999999999e-08, 0.0, 0.0, 0.0, 8.999999999999999e-08, 0.0, 0.0, 0.0, 8.999999999999999e-08]"
1574069817243176514,,167,,1574069817,242959456,"""base_link""",,0.0312256678455,-0.00344021755916,-0.182944950355,-0.98262112114,"[1.0, 0.0, 0.0, 0.0, 1.0, 0.0, 0.0, 0.0, 1.0]",,0.0279014464468,-0.176158815622,-0.135643541813,"[1.2184696791468346e-07, 0.0, 0.0, 0.0, 1.2184696791468346e-07, 0.0, 0.0, 0.0, 1.2184696791468346e-07]",,-0.16671305,-0.8433719,9.87529655,"[8.999999999999999e-08, 0.0, 0.0, 0.0, 8.999999999999999e-08, 0.0, 0.0, 0.0, 8.999999999999999e-08]"
1574069817490575087,,168,,1574069817,490189731,"""base_link""",,0.030950935333,-0.00321309159624,-0.170350020559,-0.984892169803,"[1.0, 0.0, 0.0, 0.0, 1.0, 0.0, 0.0, 0.0, 1.0]",,0.0788378119469,0.0964793041348,-0.0535432212055,"[1.2184696791468346e-07, 0.0, 0.0, 0.0, 1.2184696791468346e-07, 0.0, 0.0, 0.0, 1.2184696791468346e-07]",,-0.18632635,-0.7256921,9.62032365,"[8.999999999999999e-08, 0.0, 0.0, 0.0, 8.999999999999999e-08, 0.0, 0.0, 0.0, 8.999999999999999e-08]"
1574069817752672916,,169,,1574069817,752327650,"""base_link""",,0.0296360854231,-0.00777596768171,-0.171040809563,-0.984787427941,"[1.0, 0.0, 0.0, 0.0, 1.0, 0.0, 0.0, 0.0, 1.0]",,0.00431108381599,0.0395274572074,0.0879738405347,"[1.2184696791468346e-07, 0.0, 0.0, 0.0, 1.2184696791468346e-07, 0.0, 0.0, 0.0, 1.2184696791468346e-07]",,-0.53936575,-1.1375714,9.67916355,"[8.999999999999999e-08, 0.0, 0.0, 0.0, 8.999999999999999e-08, 0.0, 0.0, 0.0, 8.999999999999999e-08]"
1574069818008900154,,170,,1574069818,8719118,"""base_link""",,0.0290197348658,-0.00605922585924,-0.181521848249,-0.982939957158,"[1.0, 0.0, 0.0, 0.0, 1.0, 0.0, 0.0, 0.0, 1.0]",,-0.0286819599569,0.0522319860756,0.131791383028,"[1.2184696791468346e-07, 0.0, 0.0, 0.0, 1.2184696791468346e-07, 0.0, 0.0, 0.0, 1.2184696791468346e-07]",,-0.04903325,-1.0787315,9.9047165,"[8.999999999999999e-08, 0.0, 0.0, 0.0, 8.999999999999999e-08, 0.0, 0.0, 0.0, 8.999999999999999e-08]"
1574069818293168497,,171,,1574069818,292817149,"""base_link""",,0.0353075586181,-0.0176948293417,-0.189312819101,-0.981122278742,"[1.0, 0.0, 0.0, 0.0, 1.0, 0.0, 0.0, 0.0, 1.0]",,0.021627496928,0.00950377434492,0.0209877826273,"[1.2184696791468346e-07, 0.0, 0.0, 0.0, 1.2184696791468346e-07, 0.0, 0.0, 0.0, 1.2184696791468346e-07]",,-0.5491724,-0.3334261,9.91452315,"[8.999999999999999e-08, 0.0, 0.0, 0.0, 8.999999999999999e-08, 0.0, 0.0, 0.0, 8.999999999999999e-08]"
1574069818567201245,,172,,1574069818,567026419,"""base_link""",,0.0360919383097,-0.0204770756872,-0.19810101534,-0.979302838289,"[1.0, 0.0, 0.0, 0.0, 1.0, 0.0, 0.0, 0.0, 1.0]",,-0.0241941139102,0.022759385407,-0.02977171354,"[1.2184696791468346e-07, 0.0, 0.0, 0.0, 1.2184696791468346e-07, 0.0, 0.0, 0.0, 1.2184696791468346e-07]",,-0.59820565,-0.20593965,10.3362091,"[8.999999999999999e-08, 0.0, 0.0, 0.0, 8.999999999999999e-08, 0.0, 0.0, 0.0, 8.999999999999999e-08]"
1574069818835906161,,173,,1574069818,835493642,"""base_link""",,0.0297270611279,-0.0152864272189,-0.1924972022,-0.980728022504,"[1.0, 0.0, 0.0, 0.0, 1.0, 0.0, 0.0, 0.0, 1.0]",,0.0694326460361,0.0212090648711,0.0435340292752,"[1.2184696791468346e-07, 0.0, 0.0, 0.0, 1.2184696791468346e-07, 0.0, 0.0, 0.0, 1.2184696791468346e-07]",,-1.04931155,-0.4118793,9.218251,"[8.999999999999999e-08, 0.0, 0.0, 0.0, 8.999999999999999e-08, 0.0, 0.0, 0.0, 8.999999999999999e-08]"
1574069819132950780,,174,,1574069819,132704408,"""base_link""",,0.0178966277097,-0.0115538739843,-0.196363640428,-0.980299719183,"[1.0, 0.0, 0.0, 0.0, 1.0, 0.0, 0.0, 0.0, 1.0]",,0.0344428494573,-0.0457241237164,-0.0200801659375,"[1.2184696791468346e-07, 0.0, 0.0, 0.0, 1.2184696791468346e-07, 0.0, 0.0, 0.0, 1.2184696791468346e-07]",,-0.73549875,-0.6080123,9.6889702,"[8.999999999999999e-08, 0.0, 0.0, 0.0, 8.999999999999999e-08, 0.0, 0.0, 0.0, 8.999999999999999e-08]"
1574069819406241097,,175,,1574069819,405788642,"""base_link""",,0.00954463320468,-0.0217669671559,-0.202420675985,-0.979010198645,"[1.0, 0.0, 0.0, 0.0, 1.0, 0.0, 0.0, 0.0, 1.0]",,0.0781823694706,-0.00858129281551,0.106615021825,"[1.2184696791468346e-07, 0.0, 0.0, 0.0, 1.2184696791468346e-07, 0.0, 0.0, 0.0, 1.2184696791468346e-07]",,-0.51975245,-0.6472389,9.6301303,"[8.999999999999999e-08, 0.0, 0.0, 0.0, 8.999999999999999e-08, 0.0, 0.0, 0.0, 8.999999999999999e-08]"
1574069819655003264,,176,,1574069819,654777260,"""base_link""",,0.0054500428555,-0.0232778600532,-0.212777617908,-0.976808130383,"[1.0, 0.0, 0.0, 0.0, 1.0, 0.0, 0.0, 0.0, 1.0]",,0.0461736172438,0.0533160492778,0.0889947190881,"[1.2184696791468346e-07, 0.0, 0.0, 0.0, 1.2184696791468346e-07, 0.0, 0.0, 0.0, 1.2184696791468346e-07]",,-0.6276256,-0.7256921,9.6889702,"[8.999999999999999e-08, 0.0, 0.0, 0.0, 8.999999999999999e-08, 0.0, 0.0, 0.0, 8.999999999999999e-08]"
1574069819919090898,,177,,1574069819,918827866,"""base_link""",,0.0070012090661,-0.0241577343435,-0.225117332253,-0.974006967974,"[1.0, 0.0, 0.0, 0.0, 1.0, 0.0, 0.0, 0.0, 1.0]",,-0.0341155491769,0.00161135825329,0.0273033007979,"[1.2184696791468346e-07, 0.0, 0.0, 0.0, 1.2184696791468346e-07, 0.0, 0.0, 0.0, 1.2184696791468346e-07]",,-0.46091255,-0.4118793,10.16949605,"[8.999999999999999e-08, 0.0, 0.0, 0.0, 8.999999999999999e-08, 0.0, 0.0, 0.0, 8.999999999999999e-08]"
