rosbagTimestamp,header,seq,stamp,secs,nsecs,frame_id,orientation,x,y,z,w,orientation_covariance,angular_velocity,x,y,z,angular_velocity_covariance,linear_acceleration,x,y,z,linear_acceleration_covariance
1579257170240695439,,593,,1579257170,221971238,"""base_link""",,0.0185350754853,-0.00553291485651,0.318761853501,-0.947637440471,"[1.0, 0.0, 0.0, 0.0, 1.0, 0.0, 0.0, 0.0, 1.0]",,0.0696410313249,-0.0271438229829,-0.0552080757916,"[1.2184696791468346e-07, 0.0, 0.0, 0.0, 1.2184696791468346e-07, 0.0, 0.0, 0.0, 1.2184696791468346e-07]",,-0.48052585,-0.1765197,10.6696352,"[8.999999999999999e-08, 0.0, 0.0, 0.0, 8.999999999999999e-08, 0.0, 0.0, 0.0, 8.999999999999999e-08]"
1579257170464443900,,594,,1579257170,464260701,"""base_link""",,-0.0060508121045,0.00474935743196,0.311863698759,-0.950095713428,"[1.0, 0.0, 0.0, 0.0, 1.0, 0.0, 0.0, 0.0, 1.0]",,0.148136913776,-0.0664908587933,0.00494516687468,"[1.2184696791468346e-07, 0.0, 0.0, 0.0, 1.2184696791468346e-07, 0.0, 0.0, 0.0, 1.2184696791468346e-07]",,-0.6276256,0.7060788,11.09132115,"[8.999999999999999e-08, 0.0, 0.0, 0.0, 8.999999999999999e-08, 0.0, 0.0, 0.0, 8.999999999999999e-08]"
1579257170694603993,,595,,1579257170,694477347,"""base_link""",,-0.0129684265542,0.00567602652328,0.313358683386,-0.949529324551,"[1.0, 0.0, 0.0, 0.0, 1.0, 0.0, 0.0, 0.0, 1.0]",,0.0757770985365,0.0353199578822,-0.0209544114769,"[1.2184696791468346e-07, 0.0, 0.0, 0.0, 1.2184696791468346e-07, 0.0, 0.0, 0.0, 1.2184696791468346e-07]",,-0.4314926,0.51975245,10.1596894,"[8.999999999999999e-08, 0.0, 0.0, 0.0, 8.999999999999999e-08, 0.0, 0.0, 0.0, 8.999999999999999e-08]"
1579257170940017586,,596,,1579257170,939690727,"""base_link""",,-0.0184663896056,0.00774862077362,0.317854699559,-0.947927919886,"[1.0, 0.0, 0.0, 0.0, 1.0, 0.0, 0.0, 0.0, 1.0]",,-0.022591220215,0.0530751869082,-0.00659108487889,"[1.2184696791468346e-07, 0.0, 0.0, 0.0, 1.2184696791468346e-07, 0.0, 0.0, 0.0, 1.2184696791468346e-07]",,-0.36284605,0.4903325,9.97336305,"[8.999999999999999e-08, 0.0, 0.0, 0.0, 8.999999999999999e-08, 0.0, 0.0, 0.0, 8.999999999999999e-08]"
1579257171173269405,,597,,1579257171,173111412,"""base_link""",,-0.0192438574717,0.0139416476137,0.316385901833,-0.94833288751,"[1.0, 0.0, 0.0, 0.0, 1.0, 0.0, 0.0, 0.0, 1.0]",,0.0586653277278,-0.11788713932,0.0483367666602,"[1.2184696791468346e-07, 0.0, 0.0, 0.0, 1.2184696791468346e-07, 0.0, 0.0, 0.0, 1.2184696791468346e-07]",,-0.00980665,0.7453054,10.07142955,"[8.999999999999999e-08, 0.0, 0.0, 0.0, 8.999999999999999e-08, 0.0, 0.0, 0.0, 8.999999999999999e-08]"
1579257171418346708,,598,,1579257171,418192775,"""base_link""",,-0.0176564504617,0.0181680214433,0.313061152451,-0.949395011352,"[1.0, 0.0, 0.0, 0.0, 1.0, 0.0, 0.0, 0.0, 1.0]",,-0.0979216471314,-0.050295367837,0.00680155307055,"[1.2184696791468346e-07, 0.0, 0.0, 0.0, 1.2184696791468346e-07, 0.0, 0.0, 0.0, 1.2184696791468346e-07]",,-0.24516625,0.6276256,9.5909037,"[8.999999999999999e-08, 0.0, 0.0, 0.0, 8.999999999999999e-08, 0.0, 0.0, 0.0, 8.999999999999999e-08]"
1579257171657448994,,599,,1579257171,657140139,"""base_link""",,-0.00498975040119,0.0182634111197,0.316054115203,-0.94855223708,"[1.0, 0.0, 0.0, 0.0, 1.0, 0.0, 0.0, 0.0, 1.0]",,-0.00582196749747,0.0138662243262,-0.0104617420584,"[1.2184696791468346e-07, 0.0, 0.0, 0.0, 1.2184696791468346e-07, 0.0, 0.0, 0.0, 1.2184696791468346e-07]",,-0.14709975,0.38245935,9.7674234,"[8.999999999999999e-08, 0.0, 0.0, 0.0, 8.999999999999999e-08, 0.0, 0.0, 0.0, 8.999999999999999e-08]"
1579257171905586301,,600,,1579257171,905461679,"""base_link""",,-0.00227334283968,0.00976608695458,0.317821159697,-0.948097656313,"[1.0, 0.0, 0.0, 0.0, 1.0, 0.0, 0.0, 0.0, 1.0]",,-0.119676046073,0.0275105256587,-0.0263404771686,"[1.2184696791468346e-07, 0.0, 0.0, 0.0, 1.2184696791468346e-07, 0.0, 0.0, 0.0, 1.2184696791468346e-07]",,-0.24516625,0.2941995,9.9047165,"[8.999999999999999e-08, 0.0, 0.0, 0.0, 8.999999999999999e-08, 0.0, 0.0, 0.0, 8.999999999999999e-08]"
1579257172136839477,,601,,1579257172,136695060,"""base_link""",,0.0199558255583,0.00514747250045,0.3082379155,-0.951086040273,"[1.0, 0.0, 0.0, 0.0, 1.0, 0.0, 0.0, 0.0, 1.0]",,-0.318558633327,-0.051590949297,0.143342643976,"[1.2184696791468346e-07, 0.0, 0.0, 0.0, 1.2184696791468346e-07, 0.0, 0.0, 0.0, 1.2184696791468346e-07]",,-0.34323275,0.00980665,8.93385815,"[8.999999999999999e-08, 0.0, 0.0, 0.0, 8.999999999999999e-08, 0.0, 0.0, 0.0, 8.999999999999999e-08]"
1579257172388575062,,602,,1579257172,388228597,"""base_link""",,0.0559595318939,-0.00212879864561,0.296929834063,-0.953255827493,"[1.0, 0.0, 0.0, 0.0, 1.0, 0.0, 0.0, 0.0, 1.0]",,-0.230534240603,-0.0943968147039,0.0854513570666,"[1.2184696791468346e-07, 0.0, 0.0, 0.0, 1.2184696791468346e-07, 0.0, 0.0, 0.0, 1.2184696791468346e-07]",,-0.18632635,-0.5491724,9.0417313,"[8.999999999999999e-08, 0.0, 0.0, 0.0, 8.999999999999999e-08, 0.0, 0.0, 0.0, 8.999999999999999e-08]"
1579257172617089306,,603,,1579257172,616959673,"""base_link""",,0.0929336775629,0.0242170941035,0.304965574762,-0.947508766259,"[1.0, 0.0, 0.0, 0.0, 1.0, 0.0, 0.0, 0.0, 1.0]",,-0.262847304344,-0.358375191689,-0.186479181051,"[1.2184696791468346e-07, 0.0, 0.0, 0.0, 1.2184696791468346e-07, 0.0, 0.0, 0.0, 1.2184696791468346e-07]",,0.6080123,-1.1571847,9.1594111,"[8.999999999999999e-08, 0.0, 0.0, 0.0, 8.999999999999999e-08, 0.0, 0.0, 0.0, 8.999999999999999e-08]"
1579257172858159034,,604,,1579257172,857850164,"""base_link""",,0.128823459203,0.0380210705493,0.316529167904,-0.939025133007,"[1.0, 0.0, 0.0, 0.0, 1.0, 0.0, 0.0, 0.0, 1.0]",,-0.213042274117,-0.0924006029963,-0.00710879871622,"[1.2184696791468346e-07, 0.0, 0.0, 0.0, 1.2184696791468346e-07, 0.0, 0.0, 0.0, 1.2184696791468346e-07]",,0.9414384,-1.569064,9.12999115,"[8.999999999999999e-08, 0.0, 0.0, 0.0, 8.999999999999999e-08, 0.0, 0.0, 0.0, 8.999999999999999e-08]"
1579257173110149184,,605,,1579257173,109972128,"""base_link""",,0.144703775746,0.0262048441268,0.311678882172,-0.938738727143,"[1.0, 0.0, 0.0, 0.0, 1.0, 0.0, 0.0, 0.0, 1.0]",,-0.117808490992,0.114529706538,0.104441262782,"[1.2184696791468346e-07, 0.0, 0.0, 0.0, 1.2184696791468346e-07, 0.0, 0.0, 0.0, 1.2184696791468346e-07]",,1.0002783,-2.16726965,9.2770909,"[8.999999999999999e-08, 0.0, 0.0, 0.0, 8.999999999999999e-08, 0.0, 0.0, 0.0, 8.999999999999999e-08]"
1579257173335334193,,606,,1579257173,335163013,"""base_link""",,0.147399855394,0.0135544524059,0.310972429382,-0.938821446077,"[1.0, 0.0, 0.0, 0.0, 1.0, 0.0, 0.0, 0.0, 1.0]",,0.0229385141283,0.103993274271,-0.0122672878206,"[1.2184696791468346e-07, 0.0, 0.0, 0.0, 1.2184696791468346e-07, 0.0, 0.0, 0.0, 1.2184696791468346e-07]",,0.6080123,-2.26533615,9.4928372,"[8.999999999999999e-08, 0.0, 0.0, 0.0, 8.999999999999999e-08, 0.0, 0.0, 0.0, 8.999999999999999e-08]"
1579257173580056846,,607,,1579257173,579690557,"""base_link""",,0.147329871772,-0.00554725584466,0.311441361858,-0.93875844335,"[1.0, 0.0, 0.0, 0.0, 1.0, 0.0, 0.0, 0.0, 1.0]",,-0.113885655999,0.16028188169,0.0440749488771,"[1.2184696791468346e-07, 0.0, 0.0, 0.0, 1.2184696791468346e-07, 0.0, 0.0, 0.0, 1.2184696791468346e-07]",,0.0196133,-2.4320492,9.50264385,"[8.999999999999999e-08, 0.0, 0.0, 0.0, 8.999999999999999e-08, 0.0, 0.0, 0.0, 8.999999999999999e-08]"
1579257173825107307,,608,,1579257173,824964029,"""base_link""",,0.141417927597,-0.0262823573881,0.304820900721,-0.941485223425,"[1.0, 0.0, 0.0, 0.0, 1.0, 0.0, 0.0, 0.0, 1.0]",,0.0674724504352,0.163872912526,0.134209096432,"[1.2184696791468346e-07, 0.0, 0.0, 0.0, 1.2184696791468346e-07, 0.0, 0.0, 0.0, 1.2184696791468346e-07]",,-0.18632635,-2.30456275,9.69877685,"[8.999999999999999e-08, 0.0, 0.0, 0.0, 8.999999999999999e-08, 0.0, 0.0, 0.0, 8.999999999999999e-08]"
1579257174059938621,,609,,1579257174,59798925,"""base_link""",,0.12915449898,-0.0370939121595,0.288022608331,-0.948148793262,"[1.0, 0.0, 0.0, 0.0, 1.0, 0.0, 0.0, 0.0, 1.0]",,0.0838875696063,0.0977403670549,0.16257801652,"[1.2184696791468346e-07, 0.0, 0.0, 0.0, 1.2184696791468346e-07, 0.0, 0.0, 0.0, 1.2184696791468346e-07]",,-0.55897905,-1.8828768,9.4928372,"[8.999999999999999e-08, 0.0, 0.0, 0.0, 8.999999999999999e-08, 0.0, 0.0, 0.0, 8.999999999999999e-08]"
1579257174307906545,,610,,1579257174,307600637,"""base_link""",,0.116714762917,-0.0509424986853,0.275820978796,-0.952735699762,"[1.0, 0.0, 0.0, 0.0, 1.0, 0.0, 0.0, 0.0, 1.0]",,0.0432763323188,0.14828851819,0.124056428671,"[1.2184696791468346e-07, 0.0, 0.0, 0.0, 1.2184696791468346e-07, 0.0, 0.0, 0.0, 1.2184696791468346e-07]",,-1.0591182,-1.7455837,9.8458766,"[8.999999999999999e-08, 0.0, 0.0, 0.0, 8.999999999999999e-08, 0.0, 0.0, 0.0, 8.999999999999999e-08]"
1579257174541211076,,611,,1579257174,541062577,"""base_link""",,0.102639241653,-0.0665411035618,0.267785659854,-0.955682116599,"[1.0, 0.0, 0.0, 0.0, 1.0, 0.0, 0.0, 0.0, 1.0]",,0.0650168955326,0.177257373929,-0.0395247451961,"[1.2184696791468346e-07, 0.0, 0.0, 0.0, 1.2184696791468346e-07, 0.0, 0.0, 0.0, 1.2184696791468346e-07]",,-1.16699135,-2.4124359,9.8262633,"[8.999999999999999e-08, 0.0, 0.0, 0.0, 8.999999999999999e-08, 0.0, 0.0, 0.0, 8.999999999999999e-08]"
1579257174815001256,,612,,1579257174,814646192,"""base_link""",,0.0897933941042,-0.08112995058,0.281840259488,-0.951798899782,"[1.0, 0.0, 0.0, 0.0, 1.0, 0.0, 0.0, 0.0, 1.0]",,0.0506051592529,0.0426507182419,-0.107518211007,"[1.2184696791468346e-07, 0.0, 0.0, 0.0, 1.2184696791468346e-07, 0.0, 0.0, 0.0, 1.2184696791468346e-07]",,-1.372931,-2.0005566,9.16921775,"[8.999999999999999e-08, 0.0, 0.0, 0.0, 8.999999999999999e-08, 0.0, 0.0, 0.0, 8.999999999999999e-08]"
1579257175034633447,,613,,1579257175,34418218,"""base_link""",,0.081864649961,-0.0730735177191,0.290165598443,-0.950664170764,"[1.0, 0.0, 0.0, 0.0, 1.0, 0.0, 0.0, 0.0, 1.0]",,0.148625522852,-0.00207239435986,-0.0872984603047,"[1.2184696791468346e-07, 0.0, 0.0, 0.0, 1.2184696791468346e-07, 0.0, 0.0, 0.0, 1.2184696791468346e-07]",,-1.36312435,-1.55925735,9.218251,"[8.999999999999999e-08, 0.0, 0.0, 0.0, 8.999999999999999e-08, 0.0, 0.0, 0.0, 8.999999999999999e-08]"
1579257175268303811,,614,,1579257175,268083448,"""base_link""",,0.0678614359803,-0.0796031824657,0.307827465304,-0.945674579574,"[1.0, 0.0, 0.0, 0.0, 1.0, 0.0, 0.0, 0.0, 1.0]",,0.0585980378091,0.129870295525,-0.119072444737,"[1.2184696791468346e-07, 0.0, 0.0, 0.0, 1.2184696791468346e-07, 0.0, 0.0, 0.0, 1.2184696791468346e-07]",,-1.97113665,-1.59848395,9.6693569,"[8.999999999999999e-08, 0.0, 0.0, 0.0, 8.999999999999999e-08, 0.0, 0.0, 0.0, 8.999999999999999e-08]"
1579257175511965124,,615,,1579257175,511576261,"""base_link""",,0.055682503178,-0.0985686263738,0.324117456524,-0.939218589633,"[1.0, 0.0, 0.0, 0.0, 1.0, 0.0, 0.0, 0.0, 1.0]",,0.0181762240827,0.103039816022,-0.0864484682679,"[1.2184696791468346e-07, 0.0, 0.0, 0.0, 1.2184696791468346e-07, 0.0, 0.0, 0.0, 1.2184696791468346e-07]",,-1.32389775,-1.2356379,9.5320638,"[8.999999999999999e-08, 0.0, 0.0, 0.0, 8.999999999999999e-08, 0.0, 0.0, 0.0, 8.999999999999999e-08]"
1579257175738304071,,616,,1579257175,738171173,"""base_link""",,0.0537564475126,-0.103411568611,0.327423498435,-0.937662063059,"[1.0, 0.0, 0.0, 0.0, 1.0, 0.0, 0.0, 0.0, 1.0]",,0.103171542287,-0.0197658725083,0.00683258846402,"[1.2184696791468346e-07, 0.0, 0.0, 0.0, 1.2184696791468346e-07, 0.0, 0.0, 0.0, 1.2184696791468346e-07]",,-1.372931,-0.7060788,9.36535075,"[8.999999999999999e-08, 0.0, 0.0, 0.0, 8.999999999999999e-08, 0.0, 0.0, 0.0, 8.999999999999999e-08]"
1579257175991174331,,617,,1579257175,991009065,"""base_link""",,0.0441417627966,-0.104748875198,0.331063293775,-0.936737035372,"[1.0, 0.0, 0.0, 0.0, 1.0, 0.0, 0.0, 0.0, 1.0]",,-0.0052085230127,0.0127841029316,0.0278044715524,"[1.2184696791468346e-07, 0.0, 0.0, 0.0, 1.2184696791468346e-07, 0.0, 0.0, 0.0, 1.2184696791468346e-07]",,-1.6475172,-0.50013915,9.5909037,"[8.999999999999999e-08, 0.0, 0.0, 0.0, 8.999999999999999e-08, 0.0, 0.0, 0.0, 8.999999999999999e-08]"
1579257176227006986,,618,,1579257176,226669777,"""base_link""",,0.0348566792823,-0.0995091381293,0.328056219503,-0.938755591293,"[1.0, 0.0, 0.0, 0.0, 1.0, 0.0, 0.0, 0.0, 1.0]",,0.117794193327,-0.0606426633894,0.0106038087979,"[1.2184696791468346e-07, 0.0, 0.0, 0.0, 1.2184696791468346e-07, 0.0, 0.0, 0.0, 1.2184696791468346e-07]",,-1.67693715,-0.8825985,9.89490985,"[8.999999999999999e-08, 0.0, 0.0, 0.0, 8.999999999999999e-08, 0.0, 0.0, 0.0, 8.999999999999999e-08]"
1579257176479738605,,619,,1579257176,479541135,"""base_link""",,0.0366052365397,-0.0912803856306,0.321728636588,-0.941710482184,"[1.0, 0.0, 0.0, 0.0, 1.0, 0.0, 0.0, 0.0, 1.0]",,-0.0294445957989,-0.124652072787,0.0550511069596,"[1.2184696791468346e-07, 0.0, 0.0, 0.0, 1.2184696791468346e-07, 0.0, 0.0, 0.0, 1.2184696791468346e-07]",,-1.55925735,-1.0591182,9.1790244,"[8.999999999999999e-08, 0.0, 0.0, 0.0, 8.999999999999999e-08, 0.0, 0.0, 0.0, 8.999999999999999e-08]"
1579257176716348372,,620,,1579257176,716066180,"""base_link""",,0.0367340518816,-0.0624216907294,0.319412994033,-0.94484362791,"[1.0, 0.0, 0.0, 0.0, 1.0, 0.0, 0.0, 0.0, 1.0]",,0.078282147646,-0.209203377366,-6.09471462667e-05,"[1.2184696791468346e-07, 0.0, 0.0, 0.0, 1.2184696791468346e-07, 0.0, 0.0, 0.0, 1.2184696791468346e-07]",,-1.16699135,-0.784532,9.5320638,"[8.999999999999999e-08, 0.0, 0.0, 0.0, 8.999999999999999e-08, 0.0, 0.0, 0.0, 8.999999999999999e-08]"
1579257176939381944,,621,,1579257176,939182803,"""base_link""",,0.0487145318352,-0.0349017949999,0.325462893303,-0.943653890034,"[1.0, 0.0, 0.0, 0.0, 1.0, 0.0, 0.0, 0.0, 1.0]",,-0.0647347047925,-0.313208073378,-0.118456073105,"[1.2184696791468346e-07, 0.0, 0.0, 0.0, 1.2184696791468346e-07, 0.0, 0.0, 0.0, 1.2184696791468346e-07]",,-0.91201845,-0.9414384,9.6693569,"[8.999999999999999e-08, 0.0, 0.0, 0.0, 8.999999999999999e-08, 0.0, 0.0, 0.0, 8.999999999999999e-08]"
1579257177180346459,,622,,1579257177,180143911,"""base_link""",,0.0568430502761,-0.00237725028232,0.335478489771,-0.940328346493,"[1.0, 0.0, 0.0, 0.0, 1.0, 0.0, 0.0, 0.0, 1.0]",,0.0480572283268,-0.185685381293,-0.0265182871372,"[1.2184696791468346e-07, 0.0, 0.0, 0.0, 1.2184696791468346e-07, 0.0, 0.0, 0.0, 1.2184696791468346e-07]",,0.26477955,-1.34351105,10.05181625,"[8.999999999999999e-08, 0.0, 0.0, 0.0, 8.999999999999999e-08, 0.0, 0.0, 0.0, 8.999999999999999e-08]"
1579257177424016298,,623,,1579257177,423621878,"""base_link""",,0.0656255245368,0.0135091007012,0.340378040365,-0.937898493636,"[1.0, 0.0, 0.0, 0.0, 1.0, 0.0, 0.0, 0.0, 1.0]",,0.0130857434124,-0.11847192049,0.0496615432203,"[1.2184696791468346e-07, 0.0, 0.0, 0.0, 1.2184696791468346e-07, 0.0, 0.0, 0.0, 1.2184696791468346e-07]",,0.5295591,-1.1179581,9.52225715,"[8.999999999999999e-08, 0.0, 0.0, 0.0, 8.999999999999999e-08, 0.0, 0.0, 0.0, 8.999999999999999e-08]"
1579257177676339937,,624,,1579257177,676141546,"""base_link""",,0.0648562986126,0.0158128186351,0.335162182678,-0.939792491245,"[1.0, 0.0, 0.0, 0.0, 1.0, 0.0, 0.0, 0.0, 1.0]",,-0.00734023936093,0.015925064683,-0.00812684278935,"[1.2184696791468346e-07, 0.0, 0.0, 0.0, 1.2184696791468346e-07, 0.0, 0.0, 0.0, 1.2184696791468346e-07]",,1.04931155,-0.6276256,9.60071035,"[8.999999999999999e-08, 0.0, 0.0, 0.0, 8.999999999999999e-08, 0.0, 0.0, 0.0, 8.999999999999999e-08]"
1579257177903882853,,625,,1579257177,903704795,"""base_link""",,0.0680111147005,0.0148711100941,0.339515909203,-0.938020407965,"[1.0, 0.0, 0.0, 0.0, 1.0, 0.0, 0.0, 0.0, 1.0]",,0.0247924160212,0.00525489076972,0.0442708358169,"[1.2184696791468346e-07, 0.0, 0.0, 0.0, 1.2184696791468346e-07, 0.0, 0.0, 0.0, 1.2184696791468346e-07]",,0.7453054,-0.00980665,9.4928372,"[8.999999999999999e-08, 0.0, 0.0, 0.0, 8.999999999999999e-08, 0.0, 0.0, 0.0, 8.999999999999999e-08]"
1579257178142267707,,626,,1579257178,141917071,"""base_link""",,0.0663600903491,0.0123057367397,0.335489136831,-0.939623300222,"[1.0, 0.0, 0.0, 0.0, 1.0, 0.0, 0.0, 0.0, 1.0]",,-0.0974504649639,0.0224161855876,0.025409149006,"[1.2184696791468346e-07, 0.0, 0.0, 0.0, 1.2184696791468346e-07, 0.0, 0.0, 0.0, 1.2184696791468346e-07]",,1.1571847,-0.6276256,9.67916355,"[8.999999999999999e-08, 0.0, 0.0, 0.0, 8.999999999999999e-08, 0.0, 0.0, 0.0, 8.999999999999999e-08]"
1579257178390992668,,627,,1579257178,390822239,"""base_link""",,0.0629030857353,0.0119146986495,0.320470666626,-0.945092478858,"[1.0, 0.0, 0.0, 0.0, 1.0, 0.0, 0.0, 0.0, 1.0]",,0.142501115799,-0.0163332112134,0.230799809098,"[1.2184696791468346e-07, 0.0, 0.0, 0.0, 1.2184696791468346e-07, 0.0, 0.0, 0.0, 1.2184696791468346e-07]",,0.97085835,-1.176798,9.93413645,"[8.999999999999999e-08, 0.0, 0.0, 0.0, 8.999999999999999e-08, 0.0, 0.0, 0.0, 8.999999999999999e-08]"
1579257178625362846,,628,,1579257178,625025188,"""base_link""",,0.060215385302,0.0263892789634,0.317308316639,-0.946040773709,"[1.0, 0.0, 0.0, 0.0, 1.0, 0.0, 0.0, 0.0, 1.0]",,-0.0346921607852,-0.118761748075,-0.112853504717,"[1.2184696791468346e-07, 0.0, 0.0, 0.0, 1.2184696791468346e-07, 0.0, 0.0, 0.0, 1.2184696791468346e-07]",,0.40207265,-0.63743225,9.99297635,"[8.999999999999999e-08, 0.0, 0.0, 0.0, 8.999999999999999e-08, 0.0, 0.0, 0.0, 8.999999999999999e-08]"
1579257178861250420,,629,,1579257178,861103538,"""base_link""",,0.0685713478991,0.0402973404607,0.322611282087,-0.943183998629,"[1.0, 0.0, 0.0, 0.0, 1.0, 0.0, 0.0, 0.0, 1.0]",,0.0183204486966,-0.128061100841,0.0104374885559,"[1.2184696791468346e-07, 0.0, 0.0, 0.0, 1.2184696791468346e-07, 0.0, 0.0, 0.0, 1.2184696791468346e-07]",,0.0588399,-0.53936575,9.3555441,"[8.999999999999999e-08, 0.0, 0.0, 0.0, 8.999999999999999e-08, 0.0, 0.0, 0.0, 8.999999999999999e-08]"
1579257179114530300,,630,,1579257179,114403792,"""base_link""",,0.0722173253225,0.0575982740797,0.323790747492,-0.941608543178,"[1.0, 0.0, 0.0, 0.0, 1.0, 0.0, 0.0, 0.0, 1.0]",,-0.0305388290435,-0.122029006481,0.0103921592236,"[1.2184696791468346e-07, 0.0, 0.0, 0.0, 1.2184696791468346e-07, 0.0, 0.0, 0.0, 1.2184696791468346e-07]",,0.6472389,-0.2157463,9.2378643,"[8.999999999999999e-08, 0.0, 0.0, 0.0, 8.999999999999999e-08, 0.0, 0.0, 0.0, 8.999999999999999e-08]"
1579257179341634455,,631,,1579257179,341294580,"""base_link""",,0.0864910274014,0.0824083917012,0.318109608167,-0.940496909271,"[1.0, 0.0, 0.0, 0.0, 1.0, 0.0, 0.0, 0.0, 1.0]",,0.0296747758985,-0.155488967896,0.0184065420181,"[1.2184696791468346e-07, 0.0, 0.0, 0.0, 1.2184696791468346e-07, 0.0, 0.0, 0.0, 1.2184696791468346e-07]",,1.73577705,-1.7259704,10.20872265,"[8.999999999999999e-08, 0.0, 0.0, 0.0, 8.999999999999999e-08, 0.0, 0.0, 0.0, 8.999999999999999e-08]"
1579257179593724299,,632,,1579257179,593625426,"""base_link""",,0.0862274744286,0.096775855866,0.325411924301,-0.936646323805,"[1.0, 0.0, 0.0, 0.0, 1.0, 0.0, 0.0, 0.0, 1.0]",,-0.0878129452467,-0.0619445666671,-0.0773842334747,"[1.2184696791468346e-07, 0.0, 0.0, 0.0, 1.2184696791468346e-07, 0.0, 0.0, 0.0, 1.2184696791468346e-07]",,2.30456275,-1.08853815,9.52225715,"[8.999999999999999e-08, 0.0, 0.0, 0.0, 8.999999999999999e-08, 0.0, 0.0, 0.0, 8.999999999999999e-08]"
1579257179831025872,,633,,1579257179,830671785,"""base_link""",,0.0949201084164,0.102957437805,0.311146103177,-0.939988319872,"[1.0, 0.0, 0.0, 0.0, 1.0, 0.0, 0.0, 0.0, 1.0]",,0.0937293171883,-0.00638193544,0.221010625362,"[1.2184696791468346e-07, 0.0, 0.0, 0.0, 1.2184696791468346e-07, 0.0, 0.0, 0.0, 1.2184696791468346e-07]",,2.53992235,-1.0787315,8.97308475,"[8.999999999999999e-08, 0.0, 0.0, 0.0, 8.999999999999999e-08, 0.0, 0.0, 0.0, 8.999999999999999e-08]"
1579257180062751029,,634,,1579257180,62533492,"""base_link""",,0.0981180026548,0.110222768497,0.293513027066,-0.944496639381,"[1.0, 0.0, 0.0, 0.0, 1.0, 0.0, 0.0, 0.0, 1.0]",,-0.129777878523,-0.143722832203,0.0298683494329,"[1.2184696791468346e-07, 0.0, 0.0, 0.0, 1.2184696791468346e-07, 0.0, 0.0, 0.0, 1.2184696791468346e-07]",,2.30456275,-1.2748645,9.9243298,"[8.999999999999999e-08, 0.0, 0.0, 0.0, 8.999999999999999e-08, 0.0, 0.0, 0.0, 8.999999999999999e-08]"
1579257180332446311,,635,,1579257180,332322130,"""base_link""",,0.120342784434,0.0990882892349,0.279553810263,-0.947390517336,"[1.0, 0.0, 0.0, 0.0, 1.0, 0.0, 0.0, 0.0, 1.0]",,-0.116607524455,0.0716501399875,0.048905517906,"[1.2184696791468346e-07, 0.0, 0.0, 0.0, 1.2184696791468346e-07, 0.0, 0.0, 0.0, 1.2184696791468346e-07]",,1.4317709,-1.30428445,9.54187045,"[8.999999999999999e-08, 0.0, 0.0, 0.0, 8.999999999999999e-08, 0.0, 0.0, 0.0, 8.999999999999999e-08]"
1579257180546174229,,636,,1579257180,545745586,"""base_link""",,0.105047840403,0.0757584660674,0.287453788661,-0.948997326356,"[1.0, 0.0, 0.0, 0.0, 1.0, 0.0, 0.0, 0.0, 1.0]",,0.0415600985289,0.307208180428,-0.0776714757085,"[1.2184696791468346e-07, 0.0, 0.0, 0.0, 1.2184696791468346e-07, 0.0, 0.0, 0.0, 1.2184696791468346e-07]",,0.79433865,-1.1179581,9.58109705,"[8.999999999999999e-08, 0.0, 0.0, 0.0, 8.999999999999999e-08, 0.0, 0.0, 0.0, 8.999999999999999e-08]"
1579257180794058272,,637,,1579257180,793891365,"""base_link""",,0.0972481587936,0.0396831235403,0.286372721102,-0.952343798177,"[1.0, 0.0, 0.0, 0.0, 1.0, 0.0, 0.0, 0.0, 1.0]",,0.0220466274768,0.336133390665,0.109922654927,"[1.2184696791468346e-07, 0.0, 0.0, 0.0, 1.2184696791468346e-07, 0.0, 0.0, 0.0, 1.2184696791468346e-07]",,0.20593965,-1.3925443,9.67916355,"[8.999999999999999e-08, 0.0, 0.0, 0.0, 8.999999999999999e-08, 0.0, 0.0, 0.0, 8.999999999999999e-08]"
1579257181022782886,,638,,1579257181,22623761,"""base_link""",,0.0876565534797,0.0165876970135,0.28035616623,-0.955741386044,"[1.0, 0.0, 0.0, 0.0, 1.0, 0.0, 0.0, 0.0, 1.0]",,0.00512721063569,0.150925531983,0.0577797070146,"[1.2184696791468346e-07, 0.0, 0.0, 0.0, 1.2184696791468346e-07, 0.0, 0.0, 0.0, 1.2184696791468346e-07]",,0.08825985,-1.1964113,9.91452315,"[8.999999999999999e-08, 0.0, 0.0, 0.0, 8.999999999999999e-08, 0.0, 0.0, 0.0, 8.999999999999999e-08]"
1579257181268603165,,639,,1579257181,268222266,"""base_link""",,0.0841522445637,0.00786752885795,0.277107524471,-0.95711437227,"[1.0, 0.0, 0.0, 0.0, 1.0, 0.0, 0.0, 0.0, 1.0]",,0.0077073648572,0.0311996862292,-0.0281283929944,"[1.2184696791468346e-07, 0.0, 0.0, 0.0, 1.2184696791468346e-07, 0.0, 0.0, 0.0, 1.2184696791468346e-07]",,-0.1765197,-1.3533177,9.6693569,"[8.999999999999999e-08, 0.0, 0.0, 0.0, 8.999999999999999e-08, 0.0, 0.0, 0.0, 8.999999999999999e-08]"
1579257181523430989,,640,,1579257181,523287948,"""base_link""",,0.0821137719147,-0.000403355554324,0.285211783433,-0.954940523989,"[1.0, 0.0, 0.0, 0.0, 1.0, 0.0, 0.0, 0.0, 1.0]",,-0.0671654641628,0.0796622782946,-0.0597891174257,"[1.2184696791468346e-07, 0.0, 0.0, 0.0, 1.2184696791468346e-07, 0.0, 0.0, 0.0, 1.2184696791468346e-07]",,-0.5491724,-1.67693715,9.7281968,"[8.999999999999999e-08, 0.0, 0.0, 0.0, 8.999999999999999e-08, 0.0, 0.0, 0.0, 8.999999999999999e-08]"
1579257181742654016,,641,,1579257181,742354584,"""base_link""",,0.0878720358824,-0.00740859406112,0.296034397007,-0.951097920212,"[1.0, 0.0, 0.0, 0.0, 1.0, 0.0, 0.0, 0.0, 1.0]",,-0.0282903946936,0.0569287985563,-0.0837604478002,"[1.2184696791468346e-07, 0.0, 0.0, 0.0, 1.2184696791468346e-07, 0.0, 0.0, 0.0, 1.2184696791468346e-07]",,-0.44129925,-1.85345685,9.62032365,"[8.999999999999999e-08, 0.0, 0.0, 0.0, 8.999999999999999e-08, 0.0, 0.0, 0.0, 8.999999999999999e-08]"
1579257181993450703,,642,,1579257181,993302564,"""base_link""",,0.0763880051902,-0.0373749568928,0.308972308525,-0.947261367219,"[1.0, 0.0, 0.0, 0.0, 1.0, 0.0, 0.0, 0.0, 1.0]",,0.011283245869,0.393324524164,-0.064522460103,"[1.2184696791468346e-07, 0.0, 0.0, 0.0, 1.2184696791468346e-07, 0.0, 0.0, 0.0, 1.2184696791468346e-07]",,-0.6668522,-1.5102241,9.65955025,"[8.999999999999999e-08, 0.0, 0.0, 0.0, 8.999999999999999e-08, 0.0, 0.0, 0.0, 8.999999999999999e-08]"
1579257182228503584,,643,,1579257182,228359788,"""base_link""",,0.0751757525655,-0.0617770703155,0.318990609366,-0.942749802941,"[1.0, 0.0, 0.0, 0.0, 1.0, 0.0, 0.0, 0.0, 1.0]",,-0.116568438709,0.155095636845,-0.0932171344757,"[1.2184696791468346e-07, 0.0, 0.0, 0.0, 1.2184696791468346e-07, 0.0, 0.0, 0.0, 1.2184696791468346e-07]",,-0.5687857,-1.52003075,9.7085835,"[8.999999999999999e-08, 0.0, 0.0, 0.0, 8.999999999999999e-08, 0.0, 0.0, 0.0, 8.999999999999999e-08]"
1579257182470152478,,644,,1579257182,469852855,"""base_link""",,0.0843114381413,-0.0850531864234,0.31607877237,-0.941143850076,"[1.0, 0.0, 0.0, 0.0, 1.0, 0.0, 0.0, 0.0, 1.0]",,-0.0867954269052,0.232880890369,0.0822932571173,"[1.2184696791468346e-07, 0.0, 0.0, 0.0, 1.2184696791468346e-07, 0.0, 0.0, 0.0, 1.2184696791468346e-07]",,-0.59820565,-2.08881645,9.38496405,"[8.999999999999999e-08, 0.0, 0.0, 0.0, 8.999999999999999e-08, 0.0, 0.0, 0.0, 8.999999999999999e-08]"
1579257182707634993,,645,,1579257182,707507253,"""base_link""",,0.0826069611748,-0.0951161343791,0.311203345378,-0.941956203213,"[1.0, 0.0, 0.0, 0.0, 1.0, 0.0, 0.0, 0.0, 1.0]",,0.0217047668993,-0.0432531274855,-0.00474745687097,"[1.2184696791468346e-07, 0.0, 0.0, 0.0, 1.2184696791468346e-07, 0.0, 0.0, 0.0, 1.2184696791468346e-07]",,-0.69627215,-2.20649625,9.1594111,"[8.999999999999999e-08, 0.0, 0.0, 0.0, 8.999999999999999e-08, 0.0, 0.0, 0.0, 8.999999999999999e-08]"
1579257182962963147,,646,,1579257182,962832513,"""base_link""",,0.0818760813718,-0.0868112505472,0.30660115173,-0.944328252164,"[1.0, 0.0, 0.0, 0.0, 1.0, 0.0, 0.0, 0.0, 1.0]",,-0.0438159145415,-0.082815669477,0.120945490897,"[1.2184696791468346e-07, 0.0, 0.0, 0.0, 1.2184696791468346e-07, 0.0, 0.0, 0.0, 1.2184696791468346e-07]",,-1.1375714,-1.89268345,9.46341725,"[8.999999999999999e-08, 0.0, 0.0, 0.0, 8.999999999999999e-08, 0.0, 0.0, 0.0, 8.999999999999999e-08]"
1579257183187026321,,647,,1579257183,186617900,"""base_link""",,0.0955455031544,-0.0717575273129,0.295510337273,-0.947837303901,"[1.0, 0.0, 0.0, 0.0, 1.0, 0.0, 0.0, 0.0, 1.0]",,-0.0873200073838,-0.251912653446,-0.037859775126,"[1.2184696791468346e-07, 0.0, 0.0, 0.0, 1.2184696791468346e-07, 0.0, 0.0, 0.0, 1.2184696791468346e-07]",,-1.42196425,-0.9218251,9.62032365,"[8.999999999999999e-08, 0.0, 0.0, 0.0, 8.999999999999999e-08, 0.0, 0.0, 0.0, 8.999999999999999e-08]"
1579257183428010193,,648,,1579257183,427810197,"""base_link""",,0.113807461646,-0.0560554071734,0.303198782883,-0.94444489043,"[1.0, 0.0, 0.0, 0.0, 1.0, 0.0, 0.0, 0.0, 1.0]",,-0.00303816469386,-0.110493957996,-0.0177770219743,"[1.2184696791468346e-07, 0.0, 0.0, 0.0, 1.2184696791468346e-07, 0.0, 0.0, 0.0, 1.2184696791468346e-07]",,-1.10815145,-1.12776475,9.7085835,"[8.999999999999999e-08, 0.0, 0.0, 0.0, 8.999999999999999e-08, 0.0, 0.0, 0.0, 8.999999999999999e-08]"
1579257183669995628,,649,,1579257183,669653304,"""base_link""",,0.103786173874,-0.0341930572442,0.30760847707,-0.945217588592,"[1.0, 0.0, 0.0, 0.0, 1.0, 0.0, 0.0, 0.0, 1.0]",,0.136393353343,-0.186868622899,-0.0477911233902,"[1.2184696791468346e-07, 0.0, 0.0, 0.0, 1.2184696791468346e-07, 0.0, 0.0, 0.0, 1.2184696791468346e-07]",,-0.4314926,-1.2944778,9.6693569,"[8.999999999999999e-08, 0.0, 0.0, 0.0, 8.999999999999999e-08, 0.0, 0.0, 0.0, 8.999999999999999e-08]"
1579257183913922759,,650,,1579257183,913692343,"""base_link""",,0.10201295072,-0.0102623733834,0.311210873131,-0.944794069638,"[1.0, 0.0, 0.0, 0.0, 1.0, 0.0, 0.0, 0.0, 1.0]",,0.0837570205331,-0.15764388442,5.16413711012e-05,"[1.2184696791468346e-07, 0.0, 0.0, 0.0, 1.2184696791468346e-07, 0.0, 0.0, 0.0, 1.2184696791468346e-07]",,0.1372931,-0.91201845,9.6497436,"[8.999999999999999e-08, 0.0, 0.0, 0.0, 8.999999999999999e-08, 0.0, 0.0, 0.0, 8.999999999999999e-08]"
1579257184146249389,,651,,1579257184,146046327,"""base_link""",,0.0994477182195,0.00613811809411,0.301528065235,-0.948236943344,"[1.0, 0.0, 0.0, 0.0, 1.0, 0.0, 0.0, 0.0, 1.0]",,0.0672643408179,-0.135169163346,0.0641409307718,"[1.2184696791468346e-07, 0.0, 0.0, 0.0, 1.2184696791468346e-07, 0.0, 0.0, 0.0, 1.2184696791468346e-07]",,0.42168595,-1.52003075,9.9243298,"[8.999999999999999e-08, 0.0, 0.0, 0.0, 8.999999999999999e-08, 0.0, 0.0, 0.0, 8.999999999999999e-08]"
1579257184386447373,,652,,1579257184,386137400,"""base_link""",,0.102272012877,0.0198155756221,0.29559635021,-0.949616015075,"[1.0, 0.0, 0.0, 0.0, 1.0, 0.0, 0.0, 0.0, 1.0]",,-0.0466816946864,-0.0328758843243,0.13376018405,"[1.2184696791468346e-07, 0.0, 0.0, 0.0, 1.2184696791468346e-07, 0.0, 0.0, 0.0, 1.2184696791468346e-07]",,0.48052585,-1.50041745,9.42419065,"[8.999999999999999e-08, 0.0, 0.0, 0.0, 8.999999999999999e-08, 0.0, 0.0, 0.0, 8.999999999999999e-08]"
1579257184622705157,,653,,1579257184,622568130,"""base_link""",,0.102174337754,0.0136522173521,0.282040182866,-0.95384870756,"[1.0, 0.0, 0.0, 0.0, 1.0, 0.0, 0.0, 0.0, 1.0]",,0.0414521470666,0.0143487202004,0.107452586293,"[1.2184696791468346e-07, 0.0, 0.0, 0.0, 1.2184696791468346e-07, 0.0, 0.0, 0.0, 1.2184696791468346e-07]",,0.8825985,-1.71616375,9.34573745,"[8.999999999999999e-08, 0.0, 0.0, 0.0, 8.999999999999999e-08, 0.0, 0.0, 0.0, 8.999999999999999e-08]"
1579257184869156298,,654,,1579257184,868942062,"""base_link""",,0.104294001269,0.0166255143908,0.263222774194,-0.958936976405,"[1.0, 0.0, 0.0, 0.0, 1.0, 0.0, 0.0, 0.0, 1.0]",,-0.0165201779455,-0.0870620682836,0.163175225258,"[1.2184696791468346e-07, 0.0, 0.0, 0.0, 1.2184696791468346e-07, 0.0, 0.0, 0.0, 1.2184696791468346e-07]",,0.6864655,-1.75539035,9.69877685,"[8.999999999999999e-08, 0.0, 0.0, 0.0, 8.999999999999999e-08, 0.0, 0.0, 0.0, 8.999999999999999e-08]"
1579257185130580886,,655,,1579257185,130241497,"""base_link""",,0.110067078241,0.0277319660334,0.251353502873,-0.961216725271,"[1.0, 0.0, 0.0, 0.0, 1.0, 0.0, 0.0, 0.0, 1.0]",,-0.00215192930773,-0.095315925777,0.0581909120083,"[1.2184696791468346e-07, 0.0, 0.0, 0.0, 1.2184696791468346e-07, 0.0, 0.0, 0.0, 1.2184696791468346e-07]",,0.28439285,-1.50041745,9.7478101,"[8.999999999999999e-08, 0.0, 0.0, 0.0, 8.999999999999999e-08, 0.0, 0.0, 0.0, 8.999999999999999e-08]"
1579257185349088277,,656,,1579257185,348939047,"""base_link""",,0.112057679093,0.0312156060139,0.24109848606,-0.963504116502,"[1.0, 0.0, 0.0, 0.0, 1.0, 0.0, 0.0, 0.0, 1.0]",,-0.13309250772,-0.0436584465206,0.0790263041854,"[1.2184696791468346e-07, 0.0, 0.0, 0.0, 1.2184696791468346e-07, 0.0, 0.0, 0.0, 1.2184696791468346e-07]",,0.26477955,-1.2944778,9.85568325,"[8.999999999999999e-08, 0.0, 0.0, 0.0, 8.999999999999999e-08, 0.0, 0.0, 0.0, 8.999999999999999e-08]"
1579257185595892722,,657,,1579257185,595616106,"""base_link""",,0.112522169916,0.0201360454364,0.236051844691,-0.964993693021,"[1.0, 0.0, 0.0, 0.0, 1.0, 0.0, 0.0, 0.0, 1.0]",,0.0536796711385,-0.0524185374379,0.107466690242,"[1.2184696791468346e-07, 0.0, 0.0, 0.0, 1.2184696791468346e-07, 0.0, 0.0, 0.0, 1.2184696791468346e-07]",,0.1176798,-1.2160246,9.6889702,"[8.999999999999999e-08, 0.0, 0.0, 0.0, 8.999999999999999e-08, 0.0, 0.0, 0.0, 8.999999999999999e-08]"
1579257185829636291,,658,,1579257185,829396548,"""base_link""",,0.112433297644,0.0341549782709,0.234165035496,-0.965069389832,"[1.0, 0.0, 0.0, 0.0, 1.0, 0.0, 0.0, 0.0, 1.0]",,0.0985294133425,-0.173605114222,-0.0438385047019,"[1.2184696791468346e-07, 0.0, 0.0, 0.0, 1.2184696791468346e-07, 0.0, 0.0, 0.0, 1.2184696791468346e-07]",,0.6472389,-1.36312435,10.05181625,"[8.999999999999999e-08, 0.0, 0.0, 0.0, 8.999999999999999e-08, 0.0, 0.0, 0.0, 8.999999999999999e-08]"
1579257186069601944,,659,,1579257186,69461243,"""base_link""",,0.118101652428,0.0440657607615,0.238852643991,-0.962839354659,"[1.0, 0.0, 0.0, 0.0, 1.0, 0.0, 0.0, 0.0, 1.0]",,0.0923597291112,-0.0384922102094,0.0399035401642,"[1.2184696791468346e-07, 0.0, 0.0, 0.0, 1.2184696791468346e-07, 0.0, 0.0, 0.0, 1.2184696791468346e-07]",,1.1179581,-1.87307015,9.46341725,"[8.999999999999999e-08, 0.0, 0.0, 0.0, 8.999999999999999e-08, 0.0, 0.0, 0.0, 8.999999999999999e-08]"
1579257186314626134,,660,,1579257186,314343686,"""base_link""",,0.118394819195,0.0388904238166,0.225170989152,-0.966316835912,"[1.0, 0.0, 0.0, 0.0, 1.0, 0.0, 0.0, 0.0, 1.0]",,0.107532501221,0.00503489142284,0.11283160001,"[1.2184696791468346e-07, 0.0, 0.0, 0.0, 1.2184696791468346e-07, 0.0, 0.0, 0.0, 1.2184696791468346e-07]",,1.36312435,-2.0397832,9.1397978,"[8.999999999999999e-08, 0.0, 0.0, 0.0, 8.999999999999999e-08, 0.0, 0.0, 0.0, 8.999999999999999e-08]"
1579257186548673639,,661,,1579257186,548536675,"""base_link""",,0.116689445716,0.0353610367725,0.209514874093,-0.970173534926,"[1.0, 0.0, 0.0, 0.0, 1.0, 0.0, 0.0, 0.0, 1.0]",,-0.0384451523423,0.030527619645,0.149875730276,"[1.2184696791468346e-07, 0.0, 0.0, 0.0, 1.2184696791468346e-07, 0.0, 0.0, 0.0, 1.2184696791468346e-07]",,1.0198916,-1.8632635,9.56148375,"[8.999999999999999e-08, 0.0, 0.0, 0.0, 8.999999999999999e-08, 0.0, 0.0, 0.0, 8.999999999999999e-08]"
1579257186782442063,,662,,1579257186,782314192,"""base_link""",,0.124884064956,0.0234357002859,0.210205457469,-0.969364948779,"[1.0, 0.0, 0.0, 0.0, 1.0, 0.0, 0.0, 0.0, 1.0]",,-0.148245900869,0.14239244163,0.0120444223285,"[1.2184696791468346e-07, 0.0, 0.0, 0.0, 1.2184696791468346e-07, 0.0, 0.0, 0.0, 1.2184696791468346e-07]",,0.28439285,-2.157463,9.5124505,"[8.999999999999999e-08, 0.0, 0.0, 0.0, 8.999999999999999e-08, 0.0, 0.0, 0.0, 8.999999999999999e-08]"
1579257187031682993,,663,,1579257187,31366281,"""base_link""",,0.12804858222,0.0114891764786,0.198645730451,-0.971602507813,"[1.0, 0.0, 0.0, 0.0, 1.0, 0.0, 0.0, 0.0, 1.0]",,-0.0239189919084,0.0164296831936,0.0827197730541,"[1.2184696791468346e-07, 0.0, 0.0, 0.0, 1.2184696791468346e-07, 0.0, 0.0, 0.0, 1.2184696791468346e-07]",,-0.36284605,-1.8044236,9.79684335,"[8.999999999999999e-08, 0.0, 0.0, 0.0, 8.999999999999999e-08, 0.0, 0.0, 0.0, 8.999999999999999e-08]"
1579257187262031555,,664,,1579257187,261821973,"""base_link""",,0.129332931768,0.0114026359006,0.196923959458,-0.971783888962,"[1.0, 0.0, 0.0, 0.0, 1.0, 0.0, 0.0, 0.0, 1.0]",,0.0296815950423,0.0148236844689,0.0139599414542,"[1.2184696791468346e-07, 0.0, 0.0, 0.0, 1.2184696791468346e-07, 0.0, 0.0, 0.0, 1.2184696791468346e-07]",,0.0980665,-2.24572285,9.3751574,"[8.999999999999999e-08, 0.0, 0.0, 0.0, 8.999999999999999e-08, 0.0, 0.0, 0.0, 8.999999999999999e-08]"
1579257187507170230,,665,,1579257187,506794095,"""base_link""",,0.124991031843,0.0112383824596,0.18981293195,-0.97376690824,"[1.0, 0.0, 0.0, 0.0, 1.0, 0.0, 0.0, 0.0, 1.0]",,0.0024998546578,0.0325370244682,0.0973503068089,"[1.2184696791468346e-07, 0.0, 0.0, 0.0, 1.2184696791468346e-07, 0.0, 0.0, 0.0, 1.2184696791468346e-07]",,-0.2353596,-2.08881645,9.54187045,"[8.999999999999999e-08, 0.0, 0.0, 0.0, 8.999999999999999e-08, 0.0, 0.0, 0.0, 8.999999999999999e-08]"
1579257187746883861,,666,,1579257187,746716831,"""base_link""",,0.117253543708,-0.00168888997953,0.192909879094,-0.974184034301,"[1.0, 0.0, 0.0, 0.0, 1.0, 0.0, 0.0, 0.0, 1.0]",,0.0495967306197,0.157859891653,-0.214334145188,"[1.2184696791468346e-07, 0.0, 0.0, 0.0, 1.2184696791468346e-07, 0.0, 0.0, 0.0, 1.2184696791468346e-07]",,-0.5491724,-2.1966896,9.50264385,"[8.999999999999999e-08, 0.0, 0.0, 0.0, 8.999999999999999e-08, 0.0, 0.0, 0.0, 8.999999999999999e-08]"
1579257187982619496,,667,,1579257187,982455362,"""base_link""",,0.117186806864,-0.00552099850655,0.232945817692,-0.96538749572,"[1.0, 0.0, 0.0, 0.0, 1.0, 0.0, 0.0, 0.0, 1.0]",,0.0231175627559,0.106677211821,-0.371157467365,"[1.2184696791468346e-07, 0.0, 0.0, 0.0, 1.2184696791468346e-07, 0.0, 0.0, 0.0, 1.2184696791468346e-07]",,-0.9610517,-2.3339827,9.4339973,"[8.999999999999999e-08, 0.0, 0.0, 0.0, 8.999999999999999e-08, 0.0, 0.0, 0.0, 8.999999999999999e-08]"
1579257188231444483,,668,,1579257188,231060009,"""base_link""",,0.103085118624,-0.0231131536359,0.282755815432,-0.953356381049,"[1.0, 0.0, 0.0, 0.0, 1.0, 0.0, 0.0, 0.0, 1.0]",,0.0199618637562,0.200308993459,-0.459318190813,"[1.2184696791468346e-07, 0.0, 0.0, 0.0, 1.2184696791468346e-07, 0.0, 0.0, 0.0, 1.2184696791468346e-07]",,-0.8041453,-1.67693715,9.58109705,"[8.999999999999999e-08, 0.0, 0.0, 0.0, 8.999999999999999e-08, 0.0, 0.0, 0.0, 8.999999999999999e-08]"
1579257188469428158,,669,,1579257188,469275971,"""base_link""",,0.10412492046,-0.0358130643,0.31812668301,-0.941632008229,"[1.0, 0.0, 0.0, 0.0, 1.0, 0.0, 0.0, 0.0, 1.0]",,-0.0484981462359,0.113148741424,-0.16309069097,"[1.2184696791468346e-07, 0.0, 0.0, 0.0, 1.2184696791468346e-07, 0.0, 0.0, 0.0, 1.2184696791468346e-07]",,0.24516625,-1.63771055,10.0420096,"[8.999999999999999e-08, 0.0, 0.0, 0.0, 8.999999999999999e-08, 0.0, 0.0, 0.0, 8.999999999999999e-08]"
1579257188724471110,,670,,1579257188,724274312,"""base_link""",,0.119010832912,-0.0357209372506,0.325354123361,-0.937392730238,"[1.0, 0.0, 0.0, 0.0, 1.0, 0.0, 0.0, 0.0, 1.0]",,-0.00692639127374,-0.0759649947286,0.0132058486342,"[1.2184696791468346e-07, 0.0, 0.0, 0.0, 1.2184696791468346e-07, 0.0, 0.0, 0.0, 1.2184696791468346e-07]",,0.28439285,-2.4908891,9.42419065,"[8.999999999999999e-08, 0.0, 0.0, 0.0, 8.999999999999999e-08, 0.0, 0.0, 0.0, 8.999999999999999e-08]"
1579257188949058089,,671,,1579257188,948865613,"""base_link""",,0.120498117107,-0.023124721654,0.31845099954,-0.939965112073,"[1.0, 0.0, 0.0, 0.0, 1.0, 0.0, 0.0, 0.0, 1.0]",,-0.0584284588695,-0.10867023468,0.0866467654705,"[1.2184696791468346e-07, 0.0, 0.0, 0.0, 1.2184696791468346e-07, 0.0, 0.0, 0.0, 1.2184696791468346e-07]",,0.3334261,-2.2359162,9.2574776,"[8.999999999999999e-08, 0.0, 0.0, 0.0, 8.999999999999999e-08, 0.0, 0.0, 0.0, 8.999999999999999e-08]"
1579257189184340555,,672,,1579257189,184227897,"""base_link""",,0.121290204112,-0.0145110238498,0.302018390878,-0.945443286583,"[1.0, 0.0, 0.0, 0.0, 1.0, 0.0, 0.0, 0.0, 1.0]",,0.0595351904631,-0.0500112809241,0.104906097054,"[1.2184696791468346e-07, 0.0, 0.0, 0.0, 1.2184696791468346e-07, 0.0, 0.0, 0.0, 1.2184696791468346e-07]",,0.2157463,-1.9809433,9.91452315,"[8.999999999999999e-08, 0.0, 0.0, 0.0, 8.999999999999999e-08, 0.0, 0.0, 0.0, 8.999999999999999e-08]"
1579257189425883230,,673,,1579257189,425553440,"""base_link""",,0.119411798119,-0.0216211581214,0.29239775797,-0.948565706277,"[1.0, 0.0, 0.0, 0.0, 1.0, 0.0, 0.0, 0.0, 1.0]",,-0.0367397852242,0.0233419220895,0.116819433868,"[1.2184696791468346e-07, 0.0, 0.0, 0.0, 1.2184696791468346e-07, 0.0, 0.0, 0.0, 1.2184696791468346e-07]",,-0.04903325,-1.4513842,9.85568325,"[8.999999999999999e-08, 0.0, 0.0, 0.0, 8.999999999999999e-08, 0.0, 0.0, 0.0, 8.999999999999999e-08]"
1579257189669731550,,674,,1579257189,669532414,"""base_link""",,0.114784655986,-0.0174752586422,0.272381540075,-0.955158308717,"[1.0, 0.0, 0.0, 0.0, 1.0, 0.0, 0.0, 0.0, 1.0]",,0.106204114854,-0.0996452793479,0.190761566162,"[1.2184696791468346e-07, 0.0, 0.0, 0.0, 1.2184696791468346e-07, 0.0, 0.0, 0.0, 1.2184696791468346e-07]",,-0.20593965,-1.14737805,9.85568325,"[8.999999999999999e-08, 0.0, 0.0, 0.0, 8.999999999999999e-08, 0.0, 0.0, 0.0, 8.999999999999999e-08]"
1579257189901524834,,675,,1579257189,901307563,"""base_link""",,0.114020290535,0.0038732398398,0.250192586312,-0.961451008172,"[1.0, 0.0, 0.0, 0.0, 1.0, 0.0, 0.0, 0.0, 1.0]",,0.0452272705734,-0.248338401318,0.185633018613,"[1.2184696791468346e-07, 0.0, 0.0, 0.0, 1.2184696791468346e-07, 0.0, 0.0, 0.0, 1.2184696791468346e-07]",,-0.26477955,-1.1375714,9.44380395,"[8.999999999999999e-08, 0.0, 0.0, 0.0, 8.999999999999999e-08, 0.0, 0.0, 0.0, 8.999999999999999e-08]"
1579257190156536458,,676,,1579257190,156177716,"""base_link""",,0.115598466733,0.0377904502615,0.238338483161,-0.963537048485,"[1.0, 0.0, 0.0, 0.0, 1.0, 0.0, 0.0, 0.0, 1.0]",,-0.0543548204005,-0.327799141407,0.0296743623912,"[1.2184696791468346e-07, 0.0, 0.0, 0.0, 1.2184696791468346e-07, 0.0, 0.0, 0.0, 1.2184696791468346e-07]",,0.0784532,-1.3140911,9.4536106,"[8.999999999999999e-08, 0.0, 0.0, 0.0, 8.999999999999999e-08, 0.0, 0.0, 0.0, 8.999999999999999e-08]"
1579257190400592789,,677,,1579257190,400377090,"""base_link""",,0.138379341288,0.0545831714972,0.224544208293,-0.963042955333,"[1.0, 0.0, 0.0, 0.0, 1.0, 0.0, 0.0, 0.0, 1.0]",,-0.0416785441339,-0.147579312325,0.150524839759,"[1.2184696791468346e-07, 0.0, 0.0, 0.0, 1.2184696791468346e-07, 0.0, 0.0, 0.0, 1.2184696791468346e-07]",,0.8041453,-2.30456275,9.79684335,"[8.999999999999999e-08, 0.0, 0.0, 0.0, 8.999999999999999e-08, 0.0, 0.0, 0.0, 8.999999999999999e-08]"
1579257190626077213,,678,,1579257190,625832802,"""base_link""",,0.142662278148,0.0665940241424,0.21397491062,-0.964068175995,"[1.0, 0.0, 0.0, 0.0, 1.0, 0.0, 0.0, 0.0, 1.0]",,-0.00416044704616,-0.107762672007,0.0427154526114,"[1.2184696791468346e-07, 0.0, 0.0, 0.0, 1.2184696791468346e-07, 0.0, 0.0, 0.0, 1.2184696791468346e-07]",,1.7455837,-2.2163029,9.54187045,"[8.999999999999999e-08, 0.0, 0.0, 0.0, 8.999999999999999e-08, 0.0, 0.0, 0.0, 8.999999999999999e-08]"
1579257190904257523,,679,,1579257190,901500144,"""base_link""",,0.14544434991,0.0793160535172,0.214983795086,-0.962463959109,"[1.0, 0.0, 0.0, 0.0, 1.0, 0.0, 0.0, 0.0, 1.0]",,0.0808106735349,-0.0289266239852,-0.0374549552798,"[1.2184696791468346e-07, 0.0, 0.0, 0.0, 1.2184696791468346e-07, 0.0, 0.0, 0.0, 1.2184696791468346e-07]",,2.1378497,-1.8436502,9.01231135,"[8.999999999999999e-08, 0.0, 0.0, 0.0, 8.999999999999999e-08, 0.0, 0.0, 0.0, 8.999999999999999e-08]"
1579257191110394174,,680,,1579257191,110220612,"""base_link""",,0.135274234514,0.08615287482,0.222943266075,-0.96154815987,"[1.0, 0.0, 0.0, 0.0, 1.0, 0.0, 0.0, 0.0, 1.0]",,0.0749932378531,-0.0502522289753,-0.153403744102,"[1.2184696791468346e-07, 0.0, 0.0, 0.0, 1.2184696791468346e-07, 0.0, 0.0, 0.0, 1.2184696791468346e-07]",,1.6867438,-1.18660465,9.67916355,"[8.999999999999999e-08, 0.0, 0.0, 0.0, 8.999999999999999e-08, 0.0, 0.0, 0.0, 8.999999999999999e-08]"
1579257191350896755,,681,,1579257191,350558185,"""base_link""",,0.12761631098,0.078327316519,0.232539362289,-0.960991339006,"[1.0, 0.0, 0.0, 0.0, 1.0, 0.0, 0.0, 0.0, 1.0]",,0.0139371976256,0.311087161303,0.0984792932868,"[1.2184696791468346e-07, 0.0, 0.0, 0.0, 1.2184696791468346e-07, 0.0, 0.0, 0.0, 1.2184696791468346e-07]",,1.9221034,-1.6279039,10.1008495,"[8.999999999999999e-08, 0.0, 0.0, 0.0, 8.999999999999999e-08, 0.0, 0.0, 0.0, 8.999999999999999e-08]"
1579257191597543528,,682,,1579257191,597380676,"""base_link""",,0.115140057006,0.0431616403232,0.237730276985,-0.963516556932,"[1.0, 0.0, 0.0, 0.0, 1.0, 0.0, 0.0, 0.0, 1.0]",,0.0636278912425,0.366668313742,-0.158120825887,"[1.2184696791468346e-07, 0.0, 0.0, 0.0, 1.2184696791468346e-07, 0.0, 0.0, 0.0, 1.2184696791468346e-07]",,1.569064,-2.01036325,9.62032365,"[8.999999999999999e-08, 0.0, 0.0, 0.0, 8.999999999999999e-08, 0.0, 0.0, 0.0, 8.999999999999999e-08]"
1579257191834217692,,683,,1579257191,834074920,"""base_link""",,0.104830985941,0.0249592402166,0.255334346798,-0.960828742315,"[1.0, 0.0, 0.0, 0.0, 1.0, 0.0, 0.0, 0.0, 1.0]",,-0.0213106628507,0.170352146029,-0.205736577511,"[1.2184696791468346e-07, 0.0, 0.0, 0.0, 1.2184696791468346e-07, 0.0, 0.0, 0.0, 1.2184696791468346e-07]",,0.55897905,-1.5886773,9.16921775,"[8.999999999999999e-08, 0.0, 0.0, 0.0, 8.999999999999999e-08, 0.0, 0.0, 0.0, 8.999999999999999e-08]"
1579257192068372809,,684,,1579257192,67989366,"""base_link""",,0.101475459521,0.00465183810754,0.282039359609,-0.95400990097,"[1.0, 0.0, 0.0, 0.0, 1.0, 0.0, 0.0, 0.0, 1.0]",,-0.0265091340989,0.138161942363,-0.185605809093,"[1.2184696791468346e-07, 0.0, 0.0, 0.0, 1.2184696791468346e-07, 0.0, 0.0, 0.0, 1.2184696791468346e-07]",,0.3334261,-1.91229675,9.99297635,"[8.999999999999999e-08, 0.0, 0.0, 0.0, 8.999999999999999e-08, 0.0, 0.0, 0.0, 8.999999999999999e-08]"
1579257192306914374,,685,,1579257192,306753066,"""base_link""",,0.107760992815,-0.0188487956952,0.296129593163,-0.948862242573,"[1.0, 0.0, 0.0, 0.0, 1.0, 0.0, 0.0, 0.0, 1.0]",,-0.0378717519343,0.17115727067,0.00306550087407,"[1.2184696791468346e-07, 0.0, 0.0, 0.0, 1.2184696791468346e-07, 0.0, 0.0, 0.0, 1.2184696791468346e-07]",,0.3530394,-1.6279039,9.3555441,"[8.999999999999999e-08, 0.0, 0.0, 0.0, 8.999999999999999e-08, 0.0, 0.0, 0.0, 8.999999999999999e-08]"
1579257192558049713,,686,,1579257192,557907628,"""base_link""",,0.0942802652493,-0.0325275077861,0.294298069924,-0.950495575403,"[1.0, 0.0, 0.0, 0.0, 1.0, 0.0, 0.0, 0.0, 1.0]",,-0.0223841667175,0.117356106639,0.0427670180798,"[1.2184696791468346e-07, 0.0, 0.0, 0.0, 1.2184696791468346e-07, 0.0, 0.0, 0.0, 1.2184696791468346e-07]",,0.0980665,-1.30428445,9.6301303,"[8.999999999999999e-08, 0.0, 0.0, 0.0, 8.999999999999999e-08, 0.0, 0.0, 0.0, 8.999999999999999e-08]"
1579257192791000877,,687,,1579257192,790660173,"""base_link""",,0.0953858604615,-0.0404526743017,0.29046911421,-0.951258541331,"[1.0, 0.0, 0.0, 0.0, 1.0, 0.0, 0.0, 0.0, 1.0]",,0.0154746379703,0.0133256223053,0.00281390640885,"[1.2184696791468346e-07, 0.0, 0.0, 0.0, 1.2184696791468346e-07, 0.0, 0.0, 0.0, 1.2184696791468346e-07]",,-0.08825985,-1.24544455,9.5320638,"[8.999999999999999e-08, 0.0, 0.0, 0.0, 8.999999999999999e-08, 0.0, 0.0, 0.0, 8.999999999999999e-08]"
1579257193030336685,,688,,1579257193,30188982,"""base_link""",,0.084517449519,-0.0397145415187,0.29272090563,-0.951627042137,"[1.0, 0.0, 0.0, 0.0, 1.0, 0.0, 0.0, 0.0, 1.0]",,0.0669441446662,0.0531070828438,-0.0332745984197,"[1.2184696791468346e-07, 0.0, 0.0, 0.0, 1.2184696791468346e-07, 0.0, 0.0, 0.0, 1.2184696791468346e-07]",,-0.57859235,-1.372931,10.05181625,"[8.999999999999999e-08, 0.0, 0.0, 0.0, 8.999999999999999e-08, 0.0, 0.0, 0.0, 8.999999999999999e-08]"
1579257193277559907,,689,,1579257193,277434335,"""base_link""",,0.0811282735523,-0.0396855983059,0.303676954187,-0.948484878115,"[1.0, 0.0, 0.0, 0.0, 1.0, 0.0, 0.0, 0.0, 1.0]",,-0.0505781210959,0.0168006699532,-0.0925972014666,"[1.2184696791468346e-07, 0.0, 0.0, 0.0, 1.2184696791468346e-07, 0.0, 0.0, 0.0, 1.2184696791468346e-07]",,0.1176798,-2.0005566,9.63993695,"[8.999999999999999e-08, 0.0, 0.0, 0.0, 8.999999999999999e-08, 0.0, 0.0, 0.0, 8.999999999999999e-08]"
1579257193517513634,,690,,1579257193,517192843,"""base_link""",,0.0754656618992,-0.0417146959503,0.311452183069,-0.94634156396,"[1.0, 0.0, 0.0, 0.0, 1.0, 0.0, 0.0, 0.0, 1.0]",,0.00585926137865,-0.0573179423809,-0.0769473165274,"[1.2184696791468346e-07, 0.0, 0.0, 0.0, 1.2184696791468346e-07, 0.0, 0.0, 0.0, 1.2184696791468346e-07]",,-0.51975245,-1.2748645,9.3163175,"[8.999999999999999e-08, 0.0, 0.0, 0.0, 8.999999999999999e-08, 0.0, 0.0, 0.0, 8.999999999999999e-08]"
1579257193743691806,,691,,1579257193,743534105,"""base_link""",,0.0875416338229,-0.0462262573717,0.323625058631,-0.940992251245,"[1.0, 0.0, 0.0, 0.0, 1.0, 0.0, 0.0, 0.0, 1.0]",,-0.0401511602104,0.10377278924,-0.0872677564621,"[1.2184696791468346e-07, 0.0, 0.0, 0.0, 1.2184696791468346e-07, 0.0, 0.0, 0.0, 1.2184696791468346e-07]",,-0.4314926,-1.4513842,9.4536106,"[8.999999999999999e-08, 0.0, 0.0, 0.0, 8.999999999999999e-08, 0.0, 0.0, 0.0, 8.999999999999999e-08]"
1579257193989441924,,692,,1579257193,989108838,"""base_link""",,0.0877595814501,-0.0613761278857,0.335683965332,-0.935867246039,"[1.0, 0.0, 0.0, 0.0, 1.0, 0.0, 0.0, 0.0, 1.0]",,-0.0443712547421,0.113841213286,-0.115009576082,"[1.2184696791468346e-07, 0.0, 0.0, 0.0, 1.2184696791468346e-07, 0.0, 0.0, 0.0, 1.2184696791468346e-07]",,-0.38245935,-1.42196425,9.5909037,"[8.999999999999999e-08, 0.0, 0.0, 0.0, 8.999999999999999e-08, 0.0, 0.0, 0.0, 8.999999999999999e-08]"
1579257194227697381,,693,,1579257194,227539490,"""base_link""",,0.0930552246447,-0.0648331615789,0.351913783235,-0.929136198571,"[1.0, 0.0, 0.0, 0.0, 1.0, 0.0, 0.0, 0.0, 1.0]",,-0.080284923315,-0.0970162674785,-0.137216463685,"[1.2184696791468346e-07, 0.0, 0.0, 0.0, 1.2184696791468346e-07, 0.0, 0.0, 0.0, 1.2184696791468346e-07]",,-0.20593965,-1.2944778,9.7870367,"[8.999999999999999e-08, 0.0, 0.0, 0.0, 8.999999999999999e-08, 0.0, 0.0, 0.0, 8.999999999999999e-08]"
1579257194472267363,,694,,1579257194,472130248,"""base_link""",,0.117617157971,-0.0689539765704,0.360056541293,-0.922914319067,"[1.0, 0.0, 0.0, 0.0, 1.0, 0.0, 0.0, 0.0, 1.0]",,-0.199322059751,-0.0172441266477,0.0519027970731,"[1.2184696791468346e-07, 0.0, 0.0, 0.0, 1.2184696791468346e-07, 0.0, 0.0, 0.0, 1.2184696791468346e-07]",,-0.2549729,-1.79461695,9.62032365,"[8.999999999999999e-08, 0.0, 0.0, 0.0, 8.999999999999999e-08, 0.0, 0.0, 0.0, 8.999999999999999e-08]"
1579257194726040731,,695,,1579257194,725600739,"""base_link""",,0.132573808223,-0.0675493892614,0.345650984471,-0.926491587829,"[1.0, 0.0, 0.0, 0.0, 1.0, 0.0, 0.0, 0.0, 1.0]",,-0.0570642352104,-0.14723546803,0.0603627040982,"[1.2184696791468346e-07, 0.0, 0.0, 0.0, 1.2184696791468346e-07, 0.0, 0.0, 0.0, 1.2184696791468346e-07]",,-0.22555295,-2.3143694,9.7085835,"[8.999999999999999e-08, 0.0, 0.0, 0.0, 8.999999999999999e-08, 0.0, 0.0, 0.0, 8.999999999999999e-08]"
1579257194957500046,,696,,1579257194,957358545,"""base_link""",,0.143833112072,-0.0595536238432,0.342321961793,-0.926596501306,"[1.0, 0.0, 0.0, 0.0, 1.0, 0.0, 0.0, 0.0, 1.0]",,-0.0906834974885,-0.0575038976967,0.00702701555565,"[1.2184696791468346e-07, 0.0, 0.0, 0.0, 1.2184696791468346e-07, 0.0, 0.0, 0.0, 1.2184696791468346e-07]",,-0.75511205,-2.52030905,8.9828914,"[8.999999999999999e-08, 0.0, 0.0, 0.0, 8.999999999999999e-08, 0.0, 0.0, 0.0, 8.999999999999999e-08]"
1579257195197676504,,697,,1579257195,197509697,"""base_link""",,0.151057210155,-0.0659174916732,0.348193408966,-0.922820650779,"[1.0, 0.0, 0.0, 0.0, 1.0, 0.0, 0.0, 0.0, 1.0]",,-0.0340464450419,0.0160689707845,-0.014178885147,"[1.2184696791468346e-07, 0.0, 0.0, 0.0, 1.2184696791468346e-07, 0.0, 0.0, 0.0, 1.2184696791468346e-07]",,-0.99047165,-2.59876225,8.9632781,"[8.999999999999999e-08, 0.0, 0.0, 0.0, 8.999999999999999e-08, 0.0, 0.0, 0.0, 8.999999999999999e-08]"
1579257195436594444,,698,,1579257195,436190558,"""base_link""",,0.142807260188,-0.0670175590797,0.358114147516,-0.920254850876,"[1.0, 0.0, 0.0, 0.0, 1.0, 0.0, 0.0, 0.0, 1.0]",,0.12109041959,0.0417963005602,-0.108646400273,"[1.2184696791468346e-07, 0.0, 0.0, 0.0, 1.2184696791468346e-07, 0.0, 0.0, 0.0, 1.2184696791468346e-07]",,-0.8825985,-2.7850886,9.91452315,"[8.999999999999999e-08, 0.0, 0.0, 0.0, 8.999999999999999e-08, 0.0, 0.0, 0.0, 8.999999999999999e-08]"
1579257195676207532,,699,,1579257195,676063073,"""base_link""",,0.118125754977,-0.0588217716102,0.370656995416,-0.919347429944,"[1.0, 0.0, 0.0, 0.0, 1.0, 0.0, 0.0, 0.0, 1.0]",,0.184514731169,0.0748681202531,-0.0099237319082,"[1.2184696791468346e-07, 0.0, 0.0, 0.0, 1.2184696791468346e-07, 0.0, 0.0, 0.0, 1.2184696791468346e-07]",,-0.55897905,-2.95180165,9.52225715,"[8.999999999999999e-08, 0.0, 0.0, 0.0, 8.999999999999999e-08, 0.0, 0.0, 0.0, 8.999999999999999e-08]"
1579257195943973658,,700,,1579257195,943640992,"""base_link""",,0.103538810882,-0.0520849804799,0.373279597927,-0.92045054795,"[1.0, 0.0, 0.0, 0.0, 1.0, 0.0, 0.0, 0.0, 1.0]",,0.0411197058856,-0.0124340876937,-0.0148424133658,"[1.2184696791468346e-07, 0.0, 0.0, 0.0, 1.2184696791468346e-07, 0.0, 0.0, 0.0, 1.2184696791468346e-07]",,-0.3530394,-2.14765635,9.1005712,"[8.999999999999999e-08, 0.0, 0.0, 0.0, 8.999999999999999e-08, 0.0, 0.0, 0.0, 8.999999999999999e-08]"
1579257196154057834,,701,,1579257196,153866816,"""base_link""",,0.0930062204562,-0.0447824918259,0.369321353627,-0.923550815677,"[1.0, 0.0, 0.0, 0.0, 1.0, 0.0, 0.0, 0.0, 1.0]",,0.0219097658992,0.0536175593734,0.0772675946355,"[1.2184696791468346e-07, 0.0, 0.0, 0.0, 1.2184696791468346e-07, 0.0, 0.0, 0.0, 1.2184696791468346e-07]",,-0.0980665,-1.81423025,9.77723005,"[8.999999999999999e-08, 0.0, 0.0, 0.0, 8.999999999999999e-08, 0.0, 0.0, 0.0, 8.999999999999999e-08]"
1579257196389851290,,702,,1579257196,389661639,"""base_link""",,0.0833651333361,-0.0405360972086,0.365447242516,-0.926204832801,"[1.0, 0.0, 0.0, 0.0, 1.0, 0.0, 0.0, 0.0, 1.0]",,0.287603795528,-0.156930357218,0.0256480630487,"[1.2184696791468346e-07, 0.0, 0.0, 0.0, 1.2184696791468346e-07, 0.0, 0.0, 0.0, 1.2184696791468346e-07]",,-0.63743225,-1.99074995,9.73800345,"[8.999999999999999e-08, 0.0, 0.0, 0.0, 8.999999999999999e-08, 0.0, 0.0, 0.0, 8.999999999999999e-08]"
1579257196635383702,,703,,1579257196,635217456,"""base_link""",,0.0691211174596,-0.0286402353074,0.365748108895,-0.927701637857,"[1.0, 0.0, 0.0, 0.0, 1.0, 0.0, 0.0, 0.0, 1.0]",,0.02552376315,0.00442070094869,0.0837515294552,"[1.2184696791468346e-07, 0.0, 0.0, 0.0, 1.2184696791468346e-07, 0.0, 0.0, 0.0, 1.2184696791468346e-07]",,-0.588399,-1.52003075,9.4928372,"[8.999999999999999e-08, 0.0, 0.0, 0.0, 8.999999999999999e-08, 0.0, 0.0, 0.0, 8.999999999999999e-08]"
1579257196875541815,,704,,1579257196,875137819,"""base_link""",,0.0628753548568,-0.0247367629998,0.363205471794,-0.929255921459,"[1.0, 0.0, 0.0, 0.0, 1.0, 0.0, 0.0, 0.0, 1.0]",,-0.0389663875103,-0.0364682413638,-0.0686507895589,"[1.2184696791468346e-07, 0.0, 0.0, 0.0, 1.2184696791468346e-07, 0.0, 0.0, 0.0, 1.2184696791468346e-07]",,-0.87279185,-1.0787315,9.5909037,"[8.999999999999999e-08, 0.0, 0.0, 0.0, 8.999999999999999e-08, 0.0, 0.0, 0.0, 8.999999999999999e-08]"
1579257197108409114,,705,,1579257197,108272509,"""base_link""",,0.0651708509519,-0.0296924656565,0.365141821272,-0.928193173875,"[1.0, 0.0, 0.0, 0.0, 1.0, 0.0, 0.0, 0.0, 1.0]",,0.135679423809,0.045139066875,0.0276430360973,"[1.2184696791468346e-07, 0.0, 0.0, 0.0, 1.2184696791468346e-07, 0.0, 0.0, 0.0, 1.2184696791468346e-07]",,-0.6276256,-1.42196425,9.6301303,"[8.999999999999999e-08, 0.0, 0.0, 0.0, 8.999999999999999e-08, 0.0, 0.0, 0.0, 8.999999999999999e-08]"
1579257197347673105,,706,,1579257197,347318797,"""base_link""",,0.0514526948833,-0.0239287547115,0.367455827889,-0.928308272848,"[1.0, 0.0, 0.0, 0.0, 1.0, 0.0, 0.0, 0.0, 1.0]",,0.00203114748001,-0.034742821008,-0.0308135189116,"[1.2184696791468346e-07, 0.0, 0.0, 0.0, 1.2184696791468346e-07, 0.0, 0.0, 0.0, 1.2184696791468346e-07]",,-0.4903325,-0.73549875,9.2378643,"[8.999999999999999e-08, 0.0, 0.0, 0.0, 8.999999999999999e-08, 0.0, 0.0, 0.0, 8.999999999999999e-08]"
1579257197600605788,,707,,1579257197,600247948,"""base_link""",,0.0478126011952,-0.0240354350823,0.367898889714,-0.92832465225,"[1.0, 0.0, 0.0, 0.0, 1.0, 0.0, 0.0, 0.0, 1.0]",,0.104967802763,0.0553404763341,0.0269765984267,"[1.2184696791468346e-07, 0.0, 0.0, 0.0, 1.2184696791468346e-07, 0.0, 0.0, 0.0, 1.2184696791468346e-07]",,-0.44129925,-1.1375714,9.50264385,"[8.999999999999999e-08, 0.0, 0.0, 0.0, 8.999999999999999e-08, 0.0, 0.0, 0.0, 8.999999999999999e-08]"
1579257197825190293,,708,,1579257197,825075936,"""base_link""",,0.0423033300052,-0.0248554372646,0.369904111781,-0.927773454889,"[1.0, 0.0, 0.0, 0.0, 1.0, 0.0, 0.0, 0.0, 1.0]",,-0.0635033324361,0.00839831866324,-0.0595450028777,"[1.2184696791468346e-07, 0.0, 0.0, 0.0, 1.2184696791468346e-07, 0.0, 0.0, 0.0, 1.2184696791468346e-07]",,-0.53936575,-0.784532,9.5909037,"[8.999999999999999e-08, 0.0, 0.0, 0.0, 8.999999999999999e-08, 0.0, 0.0, 0.0, 8.999999999999999e-08]"
1579257198070592947,,709,,1579257198,70246571,"""base_link""",,0.037928833867,-0.0222508004058,0.378492186852,-0.924559338244,"[1.0, 0.0, 0.0, 0.0, 1.0, 0.0, 0.0, 0.0, 1.0]",,0.139874607325,0.00469897082075,-0.0790621191263,"[1.2184696791468346e-07, 0.0, 0.0, 0.0, 1.2184696791468346e-07, 0.0, 0.0, 0.0, 1.2184696791468346e-07]",,-0.4314926,-0.6276256,9.4732239,"[8.999999999999999e-08, 0.0, 0.0, 0.0, 8.999999999999999e-08, 0.0, 0.0, 0.0, 8.999999999999999e-08]"
1579257198313130419,,710,,1579257198,312961657,"""base_link""",,0.0304815646392,-0.0109296555176,0.393613940113,-0.918705329796,"[1.0, 0.0, 0.0, 0.0, 1.0, 0.0, 0.0, 0.0, 1.0]",,0.0781900659204,-0.133211791515,-0.162907406688,"[1.2184696791468346e-07, 0.0, 0.0, 0.0, 1.2184696791468346e-07, 0.0, 0.0, 0.0, 1.2184696791468346e-07]",,-0.10787315,-0.34323275,9.3163175,"[8.999999999999999e-08, 0.0, 0.0, 0.0, 8.999999999999999e-08, 0.0, 0.0, 0.0, 8.999999999999999e-08]"
1579257198556242609,,711,,1579257198,556041408,"""base_link""",,0.0367117260003,0.0109945230995,0.406473138121,-0.912858673411,"[1.0, 0.0, 0.0, 0.0, 1.0, 0.0, 0.0, 0.0, 1.0]",,-0.0571315549314,-0.232871115208,-0.0481662862003,"[1.2184696791468346e-07, 0.0, 0.0, 0.0, 1.2184696791468346e-07, 0.0, 0.0, 0.0, 1.2184696791468346e-07]",,0.55897905,-0.12748645,9.46341725,"[8.999999999999999e-08, 0.0, 0.0, 0.0, 8.999999999999999e-08, 0.0, 0.0, 0.0, 8.999999999999999e-08]"
1579257198803892057,,712,,1579257198,803478635,"""base_link""",,0.0681813677792,0.0238537629342,0.392714167176,-0.916819438047,"[1.0, 0.0, 0.0, 0.0, 1.0, 0.0, 0.0, 0.0, 1.0]",,-0.242006704211,-0.15202344954,0.246744677424,"[1.2184696791468346e-07, 0.0, 0.0, 0.0, 1.2184696791468346e-07, 0.0, 0.0, 0.0, 1.2184696791468346e-07]",,0.2941995,-0.95124505,9.22805765,"[8.999999999999999e-08, 0.0, 0.0, 0.0, 8.999999999999999e-08, 0.0, 0.0, 0.0, 8.999999999999999e-08]"
1579257199038811341,,713,,1579257199,38632148,"""base_link""",,0.0781454399946,0.0307680690996,0.368428548662,-0.925854751385,"[1.0, 0.0, 0.0, 0.0, 1.0, 0.0, 0.0, 0.0, 1.0]",,0.103988356888,-0.0650124549866,0.10287245363,"[1.2184696791468346e-07, 0.0, 0.0, 0.0, 1.2184696791468346e-07, 0.0, 0.0, 0.0, 1.2184696791468346e-07]",,0.0588399,-1.3140911,9.48303055,"[8.999999999999999e-08, 0.0, 0.0, 0.0, 8.999999999999999e-08, 0.0, 0.0, 0.0, 8.999999999999999e-08]"
1579257199276578852,,714,,1579257199,276169164,"""base_link""",,0.0579484476522,0.0234135138738,0.361542066664,-0.930258630068,"[1.0, 0.0, 0.0, 0.0, 1.0, 0.0, 0.0, 0.0, 1.0]",,0.109733305871,0.255620509386,0.00532778445631,"[1.2184696791468346e-07, 0.0, 0.0, 0.0, 1.2184696791468346e-07, 0.0, 0.0, 0.0, 1.2184696791468346e-07]",,0.1176798,-0.6080123,9.71839015,"[8.999999999999999e-08, 0.0, 0.0, 0.0, 8.999999999999999e-08, 0.0, 0.0, 0.0, 8.999999999999999e-08]"
1579257199510075861,,715,,1579257199,509971142,"""base_link""",,0.0450148900673,0.00532079790896,0.368012754878,-0.92871522063,"[1.0, 0.0, 0.0, 0.0, 1.0, 0.0, 0.0, 0.0, 1.0]",,0.0498586446047,0.122268691659,-0.150088593364,"[1.2184696791468346e-07, 0.0, 0.0, 0.0, 1.2184696791468346e-07, 0.0, 0.0, 0.0, 1.2184696791468346e-07]",,-0.1176798,-0.75511205,10.56176205,"[8.999999999999999e-08, 0.0, 0.0, 0.0, 8.999999999999999e-08, 0.0, 0.0, 0.0, 8.999999999999999e-08]"
1579257199796985449,,716,,1579257199,796834897,"""base_link""",,0.0210892927459,-0.00272079335819,0.38519674243,-0.922589458338,"[1.0, 0.0, 0.0, 0.0, 1.0, 0.0, 0.0, 0.0, 1.0]",,0.220474079251,0.0670966506004,-0.148782774806,"[1.2184696791468346e-07, 0.0, 0.0, 0.0, 1.2184696791468346e-07, 0.0, 0.0, 0.0, 1.2184696791468346e-07]",,-0.28439285,-0.04903325,10.22833595,"[8.999999999999999e-08, 0.0, 0.0, 0.0, 8.999999999999999e-08, 0.0, 0.0, 0.0, 8.999999999999999e-08]"
1579257200013960123,,717,,1579257200,13626913,"""base_link""",,0.00263816108586,-0.00826741235826,0.393765481592,-0.919169970955,"[1.0, 0.0, 0.0, 0.0, 1.0, 0.0, 0.0, 0.0, 1.0]",,0.0925187394023,0.00307983765379,-0.0603526979685,"[1.2184696791468346e-07, 0.0, 0.0, 0.0, 1.2184696791468346e-07, 0.0, 0.0, 0.0, 1.2184696791468346e-07]",,-0.57859235,0.2157463,9.7674234,"[8.999999999999999e-08, 0.0, 0.0, 0.0, 8.999999999999999e-08, 0.0, 0.0, 0.0, 8.999999999999999e-08]"
1579257200232876251,,718,,1579257200,232777628,"""base_link""",,-0.00925234100567,-0.00473796460124,0.398655790344,-0.91704171481,"[1.0, 0.0, 0.0, 0.0, 1.0, 0.0, 0.0, 0.0, 1.0]",,0.0354023724794,0.0247376859188,-0.0205433052033,"[1.2184696791468346e-07, 0.0, 0.0, 0.0, 1.2184696791468346e-07, 0.0, 0.0, 0.0, 1.2184696791468346e-07]",,-0.5295591,0.5491724,9.9047165,"[8.999999999999999e-08, 0.0, 0.0, 0.0, 8.999999999999999e-08, 0.0, 0.0, 0.0, 8.999999999999999e-08]"
1579257200473375836,,719,,1579257200,473213711,"""base_link""",,0.0114024512925,-0.00861548268779,0.395085559846,-0.918533155615,"[1.0, 0.0, 0.0, 0.0, 1.0, 0.0, 0.0, 0.0, 1.0]",,-0.29738882184,-0.053312625736,0.0236708503217,"[1.2184696791468346e-07, 0.0, 0.0, 0.0, 1.2184696791468346e-07, 0.0, 0.0, 0.0, 1.2184696791468346e-07]",,-0.4314926,0.59820565,9.91452315,"[8.999999999999999e-08, 0.0, 0.0, 0.0, 8.999999999999999e-08, 0.0, 0.0, 0.0, 8.999999999999999e-08]"
1579257200723536720,,720,,1579257200,723165188,"""base_link""",,0.0224338779338,-0.0182245687714,0.394879114651,-0.918278318935,"[1.0, 0.0, 0.0, 0.0, 1.0, 0.0, 0.0, 0.0, 1.0]",,-0.00930862035602,0.0434846803546,-0.054306011647,"[1.2184696791468346e-07, 0.0, 0.0, 0.0, 1.2184696791468346e-07, 0.0, 0.0, 0.0, 1.2184696791468346e-07]",,-0.7453054,-0.40207265,9.80665,"[8.999999999999999e-08, 0.0, 0.0, 0.0, 8.999999999999999e-08, 0.0, 0.0, 0.0, 8.999999999999999e-08]"
