rosbagTimestamp,header,seq,stamp,secs,nsecs,frame_id,orientation,x,y,z,w,orientation_covariance,angular_velocity,x,y,z,angular_velocity_covariance,linear_acceleration,x,y,z,linear_acceleration_covariance
1579257133235450246,,439,,1579257133,235128572,"""base_link""",,-0.00140992874275,0.00624731472904,0.297692994729,-0.95464017517,"[1.0, 0.0, 0.0, 0.0, 1.0, 0.0, 0.0, 0.0, 1.0]",,0.0276694446802,0.00877644401044,0.00834081508219,"[1.2184696791468346e-07, 0.0, 0.0, 0.0, 1.2184696791468346e-07, 0.0, 0.0, 0.0, 1.2184696791468346e-07]",,-0.36284605,0.5491724,9.87529655,"[8.999999999999999e-08, 0.0, 0.0, 0.0, 8.999999999999999e-08, 0.0, 0.0, 0.0, 8.999999999999999e-08]"
1579257133477856787,,440,,1579257133,477690764,"""base_link""",,-0.0013470430665,0.00614918073098,0.297913181313,-0.954572212801,"[1.0, 0.0, 0.0, 0.0, 1.0, 0.0, 0.0, 0.0, 1.0]",,-0.0335114896297,0.0122157242149,-0.000151264015585,"[1.2184696791468346e-07, 0.0, 0.0, 0.0, 1.2184696791468346e-07, 0.0, 0.0, 0.0, 1.2184696791468346e-07]",,0.00980665,0.44129925,9.610517,"[8.999999999999999e-08, 0.0, 0.0, 0.0, 8.999999999999999e-08, 0.0, 0.0, 0.0, 8.999999999999999e-08]"
1579257133745673756,,441,,1579257133,745281266,"""base_link""",,-0.00104042365456,0.00616103097774,0.297949889821,-0.954561062673,"[1.0, 0.0, 0.0, 0.0, 1.0, 0.0, 0.0, 0.0, 1.0]",,0.0122659653425,-0.00786694511771,-0.00363119505346,"[1.2184696791468346e-07, 0.0, 0.0, 0.0, 1.2184696791468346e-07, 0.0, 0.0, 0.0, 1.2184696791468346e-07]",,-0.26477955,0.1372931,9.7870367,"[8.999999999999999e-08, 0.0, 0.0, 0.0, 8.999999999999999e-08, 0.0, 0.0, 0.0, 8.999999999999999e-08]"
1579257133954674046,,442,,1579257133,954558957,"""base_link""",,-0.00151050498779,0.00633035705371,0.298071611782,-0.954521324646,"[1.0, 0.0, 0.0, 0.0, 1.0, 0.0, 0.0, 0.0, 1.0]",,0.061615511775,-0.0137453917414,-0.00760443229228,"[1.2184696791468346e-07, 0.0, 0.0, 0.0, 1.2184696791468346e-07, 0.0, 0.0, 0.0, 1.2184696791468346e-07]",,-0.2549729,0.2941995,9.75761675,"[8.999999999999999e-08, 0.0, 0.0, 0.0, 8.999999999999999e-08, 0.0, 0.0, 0.0, 8.999999999999999e-08]"
1579257134189825698,,443,,1579257134,189639606,"""base_link""",,-0.00243692483614,0.00630052028043,0.299374913992,-0.954111642164,"[1.0, 0.0, 0.0, 0.0, 1.0, 0.0, 0.0, 0.0, 1.0]",,0.0372367911041,0.0462230779231,0.0236271359026,"[1.2184696791468346e-07, 0.0, 0.0, 0.0, 1.2184696791468346e-07, 0.0, 0.0, 0.0, 1.2184696791468346e-07]",,0.0196133,0.6472389,9.52225715,"[8.999999999999999e-08, 0.0, 0.0, 0.0, 8.999999999999999e-08, 0.0, 0.0, 0.0, 8.999999999999999e-08]"
1579257134447604125,,444,,1579257134,447252277,"""base_link""",,-0.00218467607191,0.00626574843373,0.299214520198,-0.954162794543,"[1.0, 0.0, 0.0, 0.0, 1.0, 0.0, 0.0, 0.0, 1.0]",,-0.0233105588704,0.0117728682235,0.00495718745515,"[1.2184696791468346e-07, 0.0, 0.0, 0.0, 1.2184696791468346e-07, 0.0, 0.0, 0.0, 1.2184696791468346e-07]",,-0.4707192,0.3726527,9.91452315,"[8.999999999999999e-08, 0.0, 0.0, 0.0, 8.999999999999999e-08, 0.0, 0.0, 0.0, 8.999999999999999e-08]"
1579257134682225831,,445,,1579257134,682086803,"""base_link""",,-0.00146123345366,0.00663239446688,0.299661736816,-0.954021341286,"[1.0, 0.0, 0.0, 0.0, 1.0, 0.0, 0.0, 0.0, 1.0]",,-0.050876069814,-0.0139580862597,-0.00971694663167,"[1.2184696791468346e-07, 0.0, 0.0, 0.0, 1.2184696791468346e-07, 0.0, 0.0, 0.0, 1.2184696791468346e-07]",,-0.48052585,0.24516625,9.80665,"[8.999999999999999e-08, 0.0, 0.0, 0.0, 8.999999999999999e-08, 0.0, 0.0, 0.0, 8.999999999999999e-08]"
1579257134922615664,,446,,1579257134,922233530,"""base_link""",,-0.00230209053565,0.0056244757429,0.298897265445,-0.954265943205,"[1.0, 0.0, 0.0, 0.0, 1.0, 0.0, 0.0, 0.0, 1.0]",,0.0172282196581,-0.012350522913,0.00732994498685,"[1.2184696791468346e-07, 0.0, 0.0, 0.0, 1.2184696791468346e-07, 0.0, 0.0, 0.0, 1.2184696791468346e-07]",,-0.196133,0.22555295,9.7674234,"[8.999999999999999e-08, 0.0, 0.0, 0.0, 8.999999999999999e-08, 0.0, 0.0, 0.0, 8.999999999999999e-08]"
1579257135147765242,,447,,1579257135,147639112,"""base_link""",,-0.00307067111106,0.00644033909059,0.298690327291,-0.954323415512,"[1.0, 0.0, 0.0, 0.0, 1.0, 0.0, 0.0, 0.0, 1.0]",,0.0481691658497,-0.0178093314171,-0.0278784036636,"[1.2184696791468346e-07, 0.0, 0.0, 0.0, 1.2184696791468346e-07, 0.0, 0.0, 0.0, 1.2184696791468346e-07]",,0.2745862,1.25260988818e-15,10.22833595,"[8.999999999999999e-08, 0.0, 0.0, 0.0, 8.999999999999999e-08, 0.0, 0.0, 0.0, 8.999999999999999e-08]"
1579257135412267192,,448,,1579257135,412055559,"""base_link""",,-0.0312127883193,0.00151150573887,0.288301832464,-0.95702953486,"[1.0, 0.0, 0.0, 0.0, 1.0, 0.0, 0.0, 0.0, 1.0]",,0.412286937237,0.0500042662024,0.0586451590061,"[1.2184696791468346e-07, 0.0, 0.0, 0.0, 1.2184696791468346e-07, 0.0, 0.0, 0.0, 1.2184696791468346e-07]",,-0.9414384,1.18660465,11.87585315,"[8.999999999999999e-08, 0.0, 0.0, 0.0, 8.999999999999999e-08, 0.0, 0.0, 0.0, 8.999999999999999e-08]"
1579257135644987585,,449,,1579257135,644596386,"""base_link""",,-0.0390893578404,0.012924825864,0.287589181005,-0.956868556255,"[1.0, 0.0, 0.0, 0.0, 1.0, 0.0, 0.0, 0.0, 1.0]",,-0.256040662527,-0.0820685476065,0.0201211106032,"[1.2184696791468346e-07, 0.0, 0.0, 0.0, 1.2184696791468346e-07, 0.0, 0.0, 0.0, 1.2184696791468346e-07]",,-0.784532,1.2160246,10.40485565,"[8.999999999999999e-08, 0.0, 0.0, 0.0, 8.999999999999999e-08, 0.0, 0.0, 0.0, 8.999999999999999e-08]"
1579257135874834590,,450,,1579257135,874688536,"""base_link""",,-0.00233896685636,0.0124757243477,0.290573914449,-0.956768355339,"[1.0, 0.0, 0.0, 0.0, 1.0, 0.0, 0.0, 0.0, 1.0]",,-0.255664348602,-0.0883771851659,-0.0826707109809,"[1.2184696791468346e-07, 0.0, 0.0, 0.0, 1.2184696791468346e-07, 0.0, 0.0, 0.0, 1.2184696791468346e-07]",,-0.2157463,0.4118793,10.591182,"[8.999999999999999e-08, 0.0, 0.0, 0.0, 8.999999999999999e-08, 0.0, 0.0, 0.0, 8.999999999999999e-08]"
1579257136138292947,,451,,1579257136,137894361,"""base_link""",,0.0248012722192,0.00259608050211,0.297132804716,-0.95451047853,"[1.0, 0.0, 0.0, 0.0, 1.0, 0.0, 0.0, 0.0, 1.0]",,-0.192970469594,-0.0299373753369,-0.0940530076623,"[1.2184696791468346e-07, 0.0, 0.0, 0.0, 1.2184696791468346e-07, 0.0, 0.0, 0.0, 1.2184696791468346e-07]",,-0.1765197,-0.14709975,9.63993695,"[8.999999999999999e-08, 0.0, 0.0, 0.0, 8.999999999999999e-08, 0.0, 0.0, 0.0, 8.999999999999999e-08]"
1579257136386859696,,452,,1579257136,386774039,"""base_link""",,0.0326872531842,0.0064654353563,0.308582031635,-0.950613944447,"[1.0, 0.0, 0.0, 0.0, 1.0, 0.0, 0.0, 0.0, 1.0]",,0.047783203423,-0.0787873864174,-0.0367039106786,"[1.2184696791468346e-07, 0.0, 0.0, 0.0, 1.2184696791468346e-07, 0.0, 0.0, 0.0, 1.2184696791468346e-07]",,-0.12748645,-0.46091255,9.73800345,"[8.999999999999999e-08, 0.0, 0.0, 0.0, 8.999999999999999e-08, 0.0, 0.0, 0.0, 8.999999999999999e-08]"
1579257136593698140,,453,,1579257136,593483088,"""base_link""",,0.0411279726674,0.0116885749571,0.31991243494,-0.946481854581,"[1.0, 0.0, 0.0, 0.0, 1.0, 0.0, 0.0, 0.0, 1.0]",,-0.239916577935,0.0648130550981,-0.0754238516092,"[1.2184696791468346e-07, 0.0, 0.0, 0.0, 1.2184696791468346e-07, 0.0, 0.0, 0.0, 1.2184696791468346e-07]",,0.04903325,-0.57859235,9.3359308,"[8.999999999999999e-08, 0.0, 0.0, 0.0, 8.999999999999999e-08, 0.0, 0.0, 0.0, 8.999999999999999e-08]"
1579257136839744489,,454,,1579257136,839445953,"""base_link""",,0.0764927153001,0.00318417673494,0.314033979563,-0.946319916944,"[1.0, 0.0, 0.0, 0.0, 1.0, 0.0, 0.0, 0.0, 1.0]",,-0.249511897564,-0.157709479332,0.180968463421,"[1.2184696791468346e-07, 0.0, 0.0, 0.0, 1.2184696791468346e-07, 0.0, 0.0, 0.0, 1.2184696791468346e-07]",,-0.02941995,-0.8629852,9.5124505,"[8.999999999999999e-08, 0.0, 0.0, 0.0, 8.999999999999999e-08, 0.0, 0.0, 0.0, 8.999999999999999e-08]"
1579257137074744308,,455,,1579257137,74563158,"""base_link""",,0.091019533638,-0.00954599220227,0.294021183185,-0.951407306241,"[1.0, 0.0, 0.0, 0.0, 1.0, 0.0, 0.0, 0.0, 1.0]",,0.109772048891,-0.0771221518517,0.207287475467,"[1.2184696791468346e-07, 0.0, 0.0, 0.0, 1.2184696791468346e-07, 0.0, 0.0, 0.0, 1.2184696791468346e-07]",,0.30400615,-1.5298374,9.1005712,"[8.999999999999999e-08, 0.0, 0.0, 0.0, 8.999999999999999e-08, 0.0, 0.0, 0.0, 8.999999999999999e-08]"
1579257137313959882,,456,,1579257137,313783112,"""base_link""",,0.0455294546454,0.00981518788359,0.27451790443,-0.960453357011,"[1.0, 0.0, 0.0, 0.0, 1.0, 0.0, 0.0, 0.0, 1.0]",,0.403680384159,0.0780842006207,0.0768715068698,"[1.2184696791468346e-07, 0.0, 0.0, 0.0, 1.2184696791468346e-07, 0.0, 0.0, 0.0, 1.2184696791468346e-07]",,0.10787315,-0.4707192,9.30651085,"[8.999999999999999e-08, 0.0, 0.0, 0.0, 8.999999999999999e-08, 0.0, 0.0, 0.0, 8.999999999999999e-08]"
1579257137578223780,,457,,1579257137,577719098,"""base_link""",,0.0272614950766,0.0168008352804,0.272145692877,-0.961723070675,"[1.0, 0.0, 0.0, 0.0, 1.0, 0.0, 0.0, 0.0, 1.0]",,-0.0497267208993,-0.0855413749814,-0.0689771398902,"[1.2184696791468346e-07, 0.0, 0.0, 0.0, 1.2184696791468346e-07, 0.0, 0.0, 0.0, 1.2184696791468346e-07]",,-0.0196133,0.0980665,9.1005712,"[8.999999999999999e-08, 0.0, 0.0, 0.0, 8.999999999999999e-08, 0.0, 0.0, 0.0, 8.999999999999999e-08]"
1579257137799362857,,458,,1579257137,799234989,"""base_link""",,0.0513692887572,0.0458296396467,0.280144204193,-0.957486326356,"[1.0, 0.0, 0.0, 0.0, 1.0, 0.0, 0.0, 0.0, 1.0]",,-0.152126327157,-0.399055927992,-0.0213320925832,"[1.2184696791468346e-07, 0.0, 0.0, 0.0, 1.2184696791468346e-07, 0.0, 0.0, 0.0, 1.2184696791468346e-07]",,0.63743225,-0.1569064,8.5906254,"[8.999999999999999e-08, 0.0, 0.0, 0.0, 8.999999999999999e-08, 0.0, 0.0, 0.0, 8.999999999999999e-08]"
1579257138048137803,,459,,1579257138,47756175,"""base_link""",,0.0822655258842,0.0634906810554,0.283988517682,-0.95317985632,"[1.0, 0.0, 0.0, 0.0, 1.0, 0.0, 0.0, 0.0, 1.0]",,-0.240553915501,-0.0586991347373,0.0830684527755,"[1.2184696791468346e-07, 0.0, 0.0, 0.0, 1.2184696791468346e-07, 0.0, 0.0, 0.0, 1.2184696791468346e-07]",,0.588399,-0.81395195,9.610517,"[8.999999999999999e-08, 0.0, 0.0, 0.0, 8.999999999999999e-08, 0.0, 0.0, 0.0, 8.999999999999999e-08]"
1579257138275607962,,460,,1579257138,275421991,"""base_link""",,0.109911365572,0.0602556223025,0.282836902997,-0.950942710158,"[1.0, 0.0, 0.0, 0.0, 1.0, 0.0, 0.0, 0.0, 1.0]",,-0.15570358932,0.0381995290518,-0.0600764863193,"[1.2184696791468346e-07, 0.0, 0.0, 0.0, 1.2184696791468346e-07, 0.0, 0.0, 0.0, 1.2184696791468346e-07]",,0.588399,-1.5298374,9.7674234,"[8.999999999999999e-08, 0.0, 0.0, 0.0, 8.999999999999999e-08, 0.0, 0.0, 0.0, 8.999999999999999e-08]"
1579257138527997288,,461,,1579257138,527825359,"""base_link""",,0.112835067595,0.0426094164446,0.293906290698,-0.948193955602,"[1.0, 0.0, 0.0, 0.0, 1.0, 0.0, 0.0, 0.0, 1.0]",,-0.0631357803941,0.177387937903,-0.153552561998,"[1.2184696791468346e-07, 0.0, 0.0, 0.0, 1.2184696791468346e-07, 0.0, 0.0, 0.0, 1.2184696791468346e-07]",,0.2745862,-1.5886773,10.0420096,"[8.999999999999999e-08, 0.0, 0.0, 0.0, 8.999999999999999e-08, 0.0, 0.0, 0.0, 8.999999999999999e-08]"
1579257138757312748,,462,,1579257138,756897723,"""base_link""",,0.111616428105,0.00860692521587,0.321901546957,-0.940131420538,"[1.0, 0.0, 0.0, 0.0, 1.0, 0.0, 0.0, 0.0, 1.0]",,-0.0744293630123,0.278508394957,-0.239483490586,"[1.2184696791468346e-07, 0.0, 0.0, 0.0, 1.2184696791468346e-07, 0.0, 0.0, 0.0, 1.2184696791468346e-07]",,0.6472389,-1.4513842,9.91452315,"[8.999999999999999e-08, 0.0, 0.0, 0.0, 8.999999999999999e-08, 0.0, 0.0, 0.0, 8.999999999999999e-08]"
1579257138996573000,,463,,1579257138,996448762,"""base_link""",,0.114431274066,-0.00768550327118,0.337046282989,-0.934476441478,"[1.0, 0.0, 0.0, 0.0, 1.0, 0.0, 0.0, 0.0, 1.0]",,-0.0709148943424,0.104225635529,-0.0142636224627,"[1.2184696791468346e-07, 0.0, 0.0, 0.0, 1.2184696791468346e-07, 0.0, 0.0, 0.0, 1.2184696791468346e-07]",,0.5295591,-1.3533177,9.3947707,"[8.999999999999999e-08, 0.0, 0.0, 0.0, 8.999999999999999e-08, 0.0, 0.0, 0.0, 8.999999999999999e-08]"
1579257139240242009,,464,,1579257139,240086790,"""base_link""",,0.104608913244,-0.0250381863337,0.33947805229,-0.934443533076,"[1.0, 0.0, 0.0, 0.0, 1.0, 0.0, 0.0, 0.0, 1.0]",,0.0951048582792,0.247878476977,-0.0392373986542,"[1.2184696791468346e-07, 0.0, 0.0, 0.0, 1.2184696791468346e-07, 0.0, 0.0, 0.0, 1.2184696791468346e-07]",,0.2353596,-1.2552512,9.50264385,"[8.999999999999999e-08, 0.0, 0.0, 0.0, 8.999999999999999e-08, 0.0, 0.0, 0.0, 8.999999999999999e-08]"
1579257139475371631,,465,,1579257139,475053868,"""base_link""",,0.0916697582629,-0.0576895251988,0.343512716636,-0.932881336297,"[1.0, 0.0, 0.0, 0.0, 1.0, 0.0, 0.0, 0.0, 1.0]",,-0.0971163362265,0.316886842251,0.0316992849112,"[1.2184696791468346e-07, 0.0, 0.0, 0.0, 1.2184696791468346e-07, 0.0, 0.0, 0.0, 1.2184696791468346e-07]",,-0.7060788,-1.57887065,9.62032365,"[8.999999999999999e-08, 0.0, 0.0, 0.0, 8.999999999999999e-08, 0.0, 0.0, 0.0, 8.999999999999999e-08]"
1579257139749962202,,466,,1579257139,749827222,"""base_link""",,0.0967282628877,-0.0895508299897,0.361083141489,-0.923170220999,"[1.0, 0.0, 0.0, 0.0, 1.0, 0.0, 0.0, 0.0, 1.0]",,-0.0576229803264,0.175921082497,-0.269687503576,"[1.2184696791468346e-07, 0.0, 0.0, 0.0, 1.2184696791468346e-07, 0.0, 0.0, 0.0, 1.2184696791468346e-07]",,-1.46119085,-2.48108245,9.52225715,"[8.999999999999999e-08, 0.0, 0.0, 0.0, 8.999999999999999e-08, 0.0, 0.0, 0.0, 8.999999999999999e-08]"
1579257139979001113,,467,,1579257139,978587671,"""base_link""",,0.100961444992,-0.0971039031026,0.385414187634,-0.912049079051,"[1.0, 0.0, 0.0, 0.0, 1.0, 0.0, 0.0, 0.0, 1.0]",,-0.0146931754425,-0.0230279136449,-0.238102823496,"[1.2184696791468346e-07, 0.0, 0.0, 0.0, 1.2184696791468346e-07, 0.0, 0.0, 0.0, 1.2184696791468346e-07]",,-1.89268345,-2.353596,9.1397978,"[8.999999999999999e-08, 0.0, 0.0, 0.0, 8.999999999999999e-08, 0.0, 0.0, 0.0, 8.999999999999999e-08]"
1579257140201181675,,468,,1579257140,201050934,"""base_link""",,0.0999376363369,-0.0950360749829,0.416664870443,-0.898538256856,"[1.0, 0.0, 0.0, 0.0, 1.0, 0.0, 0.0, 0.0, 1.0]",,0.0119435079396,0.085137590766,-0.203676372766,"[1.2184696791468346e-07, 0.0, 0.0, 0.0, 1.2184696791468346e-07, 0.0, 0.0, 0.0, 1.2184696791468346e-07]",,-1.1179581,-2.7262487,10.0223963,"[8.999999999999999e-08, 0.0, 0.0, 0.0, 8.999999999999999e-08, 0.0, 0.0, 0.0, 8.999999999999999e-08]"
1579257140451114402,,469,,1579257140,450931701,"""base_link""",,0.103412164539,-0.0949136230797,0.438173157284,-0.887863510127,"[1.0, 0.0, 0.0, 0.0, 1.0, 0.0, 0.0, 0.0, 1.0]",,0.0392927005887,-0.0152841378003,-0.245863854885,"[1.2184696791468346e-07, 0.0, 0.0, 0.0, 1.2184696791468346e-07, 0.0, 0.0, 0.0, 1.2184696791468346e-07]",,-0.50013915,-2.1770763,9.4536106,"[8.999999999999999e-08, 0.0, 0.0, 0.0, 8.999999999999999e-08, 0.0, 0.0, 0.0, 8.999999999999999e-08]"
1579257140694001673,,470,,1579257140,693634850,"""base_link""",,0.0899599927001,-0.0885358841887,0.461008619738,-0.878373297324,"[1.0, 0.0, 0.0, 0.0, 1.0, 0.0, 0.0, 0.0, 1.0]",,0.129865393043,0.0492178313434,-0.0953512862325,"[1.2184696791468346e-07, 0.0, 0.0, 0.0, 1.2184696791468346e-07, 0.0, 0.0, 0.0, 1.2184696791468346e-07]",,-0.4511059,-1.7259704,9.56148375,"[8.999999999999999e-08, 0.0, 0.0, 0.0, 8.999999999999999e-08, 0.0, 0.0, 0.0, 8.999999999999999e-08]"
1579257140914803907,,471,,1579257140,914711106,"""base_link""",,0.0951566642577,-0.092083913135,0.482210573456,-0.865990025945,"[1.0, 0.0, 0.0, 0.0, 1.0, 0.0, 0.0, 0.0, 1.0]",,-0.0464200749993,-0.0658608749509,-0.168408066034,"[1.2184696791468346e-07, 0.0, 0.0, 0.0, 1.2184696791468346e-07, 0.0, 0.0, 0.0, 1.2184696791468346e-07]",,-0.59820565,-1.97113665,9.56148375,"[8.999999999999999e-08, 0.0, 0.0, 0.0, 8.999999999999999e-08, 0.0, 0.0, 0.0, 8.999999999999999e-08]"
1579257141158283457,,472,,1579257141,158171359,"""base_link""",,0.0818870912189,-0.0867997326331,0.491150894194,-0.862862161553,"[1.0, 0.0, 0.0, 0.0, 1.0, 0.0, 0.0, 0.0, 1.0]",,0.0804653316736,0.0815368890762,-0.0370027758181,"[1.2184696791468346e-07, 0.0, 0.0, 0.0, 1.2184696791468346e-07, 0.0, 0.0, 0.0, 1.2184696791468346e-07]",,-0.16671305,-1.46119085,9.3555441,"[8.999999999999999e-08, 0.0, 0.0, 0.0, 8.999999999999999e-08, 0.0, 0.0, 0.0, 8.999999999999999e-08]"
1579257141399186401,,473,,1579257141,398861876,"""base_link""",,0.0926765780276,-0.10022466402,0.493275745334,-0.8590955172,"[1.0, 0.0, 0.0, 0.0, 1.0, 0.0, 0.0, 0.0, 1.0]",,-0.126255869865,0.0819002687931,-0.0466724634171,"[1.2184696791468346e-07, 0.0, 0.0, 0.0, 1.2184696791468346e-07, 0.0, 0.0, 0.0, 1.2184696791468346e-07]",,-0.10787315,-1.87307015,9.3947707,"[8.999999999999999e-08, 0.0, 0.0, 0.0, 8.999999999999999e-08, 0.0, 0.0, 0.0, 8.999999999999999e-08]"
1579257141653945853,,474,,1579257141,653752843,"""base_link""",,0.0843707062394,-0.110741633222,0.489582299826,-0.860771192767,"[1.0, 0.0, 0.0, 0.0, 1.0, 0.0, 0.0, 0.0, 1.0]",,0.0313965491951,0.200558617711,0.0997852534056,"[1.2184696791468346e-07, 0.0, 0.0, 0.0, 1.2184696791468346e-07, 0.0, 0.0, 0.0, 1.2184696791468346e-07]",,-0.4903325,-1.8632635,9.28689755,"[8.999999999999999e-08, 0.0, 0.0, 0.0, 8.999999999999999e-08, 0.0, 0.0, 0.0, 8.999999999999999e-08]"
1579257141875582220,,475,,1579257141,875213919,"""base_link""",,0.0784274182959,-0.111326642201,0.479749885034,-0.866773076765,"[1.0, 0.0, 0.0, 0.0, 1.0, 0.0, 0.0, 0.0, 1.0]",,0.0549768544734,-0.0556001700461,0.182300135493,"[1.2184696791468346e-07, 0.0, 0.0, 0.0, 1.2184696791468346e-07, 0.0, 0.0, 0.0, 1.2184696791468346e-07]",,-1.6867438,-2.1378497,9.1986377,"[8.999999999999999e-08, 0.0, 0.0, 0.0, 8.999999999999999e-08, 0.0, 0.0, 0.0, 8.999999999999999e-08]"
1579257142125590279,,476,,1579257142,125437864,"""base_link""",,0.0736323787382,-0.0959682908661,0.463119358931,-0.87800274449,"[1.0, 0.0, 0.0, 0.0, 1.0, 0.0, 0.0, 0.0, 1.0]",,0.0343200415373,-0.104385204613,0.033358424902,"[1.2184696791468346e-07, 0.0, 0.0, 0.0, 1.2184696791468346e-07, 0.0, 0.0, 0.0, 1.2184696791468346e-07]",,-2.157463,-1.8632635,9.5124505,"[8.999999999999999e-08, 0.0, 0.0, 0.0, 8.999999999999999e-08, 0.0, 0.0, 0.0, 8.999999999999999e-08]"
1579257142378894856,,477,,1579257142,378739798,"""base_link""",,0.073838163003,-0.0877810840259,0.455538783978,-0.882794893088,"[1.0, 0.0, 0.0, 0.0, 1.0, 0.0, 0.0, 0.0, 1.0]",,0.122141681612,-0.153681322932,0.0819011628628,"[1.2184696791468346e-07, 0.0, 0.0, 0.0, 1.2184696791468346e-07, 0.0, 0.0, 0.0, 1.2184696791468346e-07]",,-1.4121576,-1.53964405,9.42419065,"[8.999999999999999e-08, 0.0, 0.0, 0.0, 8.999999999999999e-08, 0.0, 0.0, 0.0, 8.999999999999999e-08]"
1579257142599093916,,478,,1579257142,598762180,"""base_link""",,0.0719948138157,-0.0644931363195,0.450928582448,-0.887310991526,"[1.0, 0.0, 0.0, 0.0, 1.0, 0.0, 0.0, 0.0, 1.0]",,0.0548901408911,-0.12681491673,0.0375761650503,"[1.2184696791468346e-07, 0.0, 0.0, 0.0, 1.2184696791468346e-07, 0.0, 0.0, 0.0, 1.2184696791468346e-07]",,-0.85317855,-1.44157755,9.81645665,"[8.999999999999999e-08, 0.0, 0.0, 0.0, 8.999999999999999e-08, 0.0, 0.0, 0.0, 8.999999999999999e-08]"
1579257142843845238,,479,,1579257142,843692113,"""base_link""",,0.0773738140569,-0.0428801875867,0.437912516851,-0.894654799348,"[1.0, 0.0, 0.0, 0.0, 1.0, 0.0, 0.0, 0.0, 1.0]",,0.0217454843223,-0.12512254715,0.33238697052,"[1.2184696791468346e-07, 0.0, 0.0, 0.0, 1.2184696791468346e-07, 0.0, 0.0, 0.0, 1.2184696791468346e-07]",,-0.55897905,-2.16726965,9.9243298,"[8.999999999999999e-08, 0.0, 0.0, 0.0, 8.999999999999999e-08, 0.0, 0.0, 0.0, 8.999999999999999e-08]"
1579257143080473044,,480,,1579257143,80276532,"""base_link""",,0.0762529590067,-0.027950778685,0.400854853798,-0.912534726134,"[1.0, 0.0, 0.0, 0.0, 1.0, 0.0, 0.0, 0.0, 1.0]",,-0.0435504093766,-0.173495739698,0.288206428289,"[1.2184696791468346e-07, 0.0, 0.0, 0.0, 1.2184696791468346e-07, 0.0, 0.0, 0.0, 1.2184696791468346e-07]",,0.1176798,-1.6671305,9.4732239,"[8.999999999999999e-08, 0.0, 0.0, 0.0, 8.999999999999999e-08, 0.0, 0.0, 0.0, 8.999999999999999e-08]"
1579257143344276548,,481,,1579257143,344010971,"""base_link""",,0.0830089559773,-0.0179707447836,0.372171821865,-0.92426982022,"[1.0, 0.0, 0.0, 0.0, 1.0, 0.0, 0.0, 0.0, 1.0]",,0.0265075545758,-0.0821933224797,0.27103883028,"[1.2184696791468346e-07, 0.0, 0.0, 0.0, 1.2184696791468346e-07, 0.0, 0.0, 0.0, 1.2184696791468346e-07]",,0.1176798,-1.77500365,9.83606995,"[8.999999999999999e-08, 0.0, 0.0, 0.0, 8.999999999999999e-08, 0.0, 0.0, 0.0, 8.999999999999999e-08]"
1579257143558545132,,482,,1579257143,558368821,"""base_link""",,0.0913304353317,-0.0130099812656,0.345666275874,-0.933811714262,"[1.0, 0.0, 0.0, 0.0, 1.0, 0.0, 0.0, 0.0, 1.0]",,-0.163068428636,-0.0768491104245,0.19031855464,"[1.2184696791468346e-07, 0.0, 0.0, 0.0, 1.2184696791468346e-07, 0.0, 0.0, 0.0, 1.2184696791468346e-07]",,-0.6080123,-1.569064,9.79684335,"[8.999999999999999e-08, 0.0, 0.0, 0.0, 8.999999999999999e-08, 0.0, 0.0, 0.0, 8.999999999999999e-08]"
1579257143795171563,,483,,1579257143,794835919,"""base_link""",,0.100478790619,-0.00571071360163,0.329860728988,-0.938649721599,"[1.0, 0.0, 0.0, 0.0, 1.0, 0.0, 0.0, 0.0, 1.0]",,0.0332063138485,-0.110042318702,0.119164444506,"[1.2184696791468346e-07, 0.0, 0.0, 0.0, 1.2184696791468346e-07, 0.0, 0.0, 0.0, 1.2184696791468346e-07]",,-0.12748645,-1.6671305,9.610517,"[8.999999999999999e-08, 0.0, 0.0, 0.0, 8.999999999999999e-08, 0.0, 0.0, 0.0, 8.999999999999999e-08]"
1579257144036405855,,484,,1579257144,36231740,"""base_link""",,0.101138882245,0.000949446835351,0.324084798098,-0.940605692461,"[1.0, 0.0, 0.0, 0.0, 1.0, 0.0, 0.0, 0.0, 1.0]",,-0.0460006855428,0.0990643873811,-0.0329453013837,"[1.2184696791468346e-07, 0.0, 0.0, 0.0, 1.2184696791468346e-07, 0.0, 0.0, 0.0, 1.2184696791468346e-07]",,-0.0196133,-1.2160246,9.79684335,"[8.999999999999999e-08, 0.0, 0.0, 0.0, 8.999999999999999e-08, 0.0, 0.0, 0.0, 8.999999999999999e-08]"
1579257144284540219,,485,,1579257144,284375776,"""base_link""",,0.100467932466,-0.00106688727772,0.326488612926,-0.939845860728,"[1.0, 0.0, 0.0, 0.0, 1.0, 0.0, 0.0, 0.0, 1.0]",,0.0502953529358,0.0187197867781,-0.0287242326885,"[1.2184696791468346e-07, 0.0, 0.0, 0.0, 1.2184696791468346e-07, 0.0, 0.0, 0.0, 1.2184696791468346e-07]",,0.1765197,-1.14737805,9.44380395,"[8.999999999999999e-08, 0.0, 0.0, 0.0, 8.999999999999999e-08, 0.0, 0.0, 0.0, 8.999999999999999e-08]"
1579257144530716305,,486,,1579257144,530323841,"""base_link""",,0.0984136916255,0.00997572970142,0.337415413965,-0.936144256264,"[1.0, 0.0, 0.0, 0.0, 1.0, 0.0, 0.0, 0.0, 1.0]",,-0.0026060428936,-0.110135659575,-0.0853442326188,"[1.2184696791468346e-07, 0.0, 0.0, 0.0, 1.2184696791468346e-07, 0.0, 0.0, 0.0, 1.2184696791468346e-07]",,0.6864655,-1.34351105,10.13026945,"[8.999999999999999e-08, 0.0, 0.0, 0.0, 8.999999999999999e-08, 0.0, 0.0, 0.0, 8.999999999999999e-08]"
1579257144768625966,,487,,1579257144,768470168,"""base_link""",,0.105834569689,0.0301497678153,0.342206919219,-0.933158325151,"[1.0, 0.0, 0.0, 0.0, 1.0, 0.0, 0.0, 0.0, 1.0]",,0.0128369173035,-0.217657357454,-0.0429362729192,"[1.2184696791468346e-07, 0.0, 0.0, 0.0, 1.2184696791468346e-07, 0.0, 0.0, 0.0, 1.2184696791468346e-07]",,0.4707192,-1.87307015,9.69877685,"[8.999999999999999e-08, 0.0, 0.0, 0.0, 8.999999999999999e-08, 0.0, 0.0, 0.0, 8.999999999999999e-08]"
1579257144998737492,,488,,1579257144,998571771,"""base_link""",,0.108250367647,0.0372772059099,0.330056835901,-0.936992397461,"[1.0, 0.0, 0.0, 0.0, 1.0, 0.0, 0.0, 0.0, 1.0]",,-0.0362855121493,-0.0159523170441,0.198010146618,"[1.2184696791468346e-07, 0.0, 0.0, 0.0, 1.2184696791468346e-07, 0.0, 0.0, 0.0, 1.2184696791468346e-07]",,1.36312435,-1.69655045,9.0025047,"[8.999999999999999e-08, 0.0, 0.0, 0.0, 8.999999999999999e-08, 0.0, 0.0, 0.0, 8.999999999999999e-08]"
1579257145258082661,,489,,1579257145,257773526,"""base_link""",,0.118581800756,0.0439934556372,0.308391684939,-0.94281360886,"[1.0, 0.0, 0.0, 0.0, 1.0, 0.0, 0.0, 0.0, 1.0]",,-0.0433559939265,-0.0862148329616,0.15405395627,"[1.2184696791468346e-07, 0.0, 0.0, 0.0, 1.2184696791468346e-07, 0.0, 0.0, 0.0, 1.2184696791468346e-07]",,1.59848395,-2.1378497,9.9439431,"[8.999999999999999e-08, 0.0, 0.0, 0.0, 8.999999999999999e-08, 0.0, 0.0, 0.0, 8.999999999999999e-08]"
1579257145489285859,,490,,1579257145,489124034,"""base_link""",,0.132186496853,0.043665129969,0.300615550962,-0.943530803416,"[1.0, 0.0, 0.0, 0.0, 1.0, 0.0, 0.0, 0.0, 1.0]",,-0.189830496907,-0.00666213408113,0.0341393575072,"[1.2184696791468346e-07, 0.0, 0.0, 0.0, 1.2184696791468346e-07, 0.0, 0.0, 0.0, 1.2184696791468346e-07]",,0.75511205,-1.57887065,9.67916355,"[8.999999999999999e-08, 0.0, 0.0, 0.0, 8.999999999999999e-08, 0.0, 0.0, 0.0, 8.999999999999999e-08]"
1579257145715171948,,491,,1579257145,714820945,"""base_link""",,0.137878287162,0.0484720360451,0.296735665919,-0.943709692767,"[1.0, 0.0, 0.0, 0.0, 1.0, 0.0, 0.0, 0.0, 1.0]",,0.0486695468426,0.0162190254778,0.04121299088,"[1.2184696791468346e-07, 0.0, 0.0, 0.0, 1.2184696791468346e-07, 0.0, 0.0, 0.0, 1.2184696791468346e-07]",,0.83356525,-1.46119085,9.6693569,"[8.999999999999999e-08, 0.0, 0.0, 0.0, 8.999999999999999e-08, 0.0, 0.0, 0.0, 8.999999999999999e-08]"
1579257145962614573,,492,,1579257145,962500250,"""base_link""",,0.132710552425,0.0474433596303,0.289400344574,-0.946775832741,"[1.0, 0.0, 0.0, 0.0, 1.0, 0.0, 0.0, 0.0, 1.0]",,0.0944943055511,0.0111850919202,0.0677331537008,"[1.2184696791468346e-07, 0.0, 0.0, 0.0, 1.2184696791468346e-07, 0.0, 0.0, 0.0, 1.2184696791468346e-07]",,0.61781895,-1.38273765,9.40457735,"[8.999999999999999e-08, 0.0, 0.0, 0.0, 8.999999999999999e-08, 0.0, 0.0, 0.0, 8.999999999999999e-08]"
1579257146201112468,,493,,1579257146,200979237,"""base_link""",,0.124169135655,0.051189755201,0.283959837604,-0.949383192047,"[1.0, 0.0, 0.0, 0.0, 1.0, 0.0, 0.0, 0.0, 1.0]",,0.0856109037995,0.0395120158792,0.0270062126219,"[1.2184696791468346e-07, 0.0, 0.0, 0.0, 1.2184696791468346e-07, 0.0, 0.0, 0.0, 1.2184696791468346e-07]",,1.1571847,-1.52003075,9.87529655,"[8.999999999999999e-08, 0.0, 0.0, 0.0, 8.999999999999999e-08, 0.0, 0.0, 0.0, 8.999999999999999e-08]"
1579257146444741658,,494,,1579257146,444584414,"""base_link""",,0.12398562879,0.0451741171291,0.281606141765,-0.950412985978,"[1.0, 0.0, 0.0, 0.0, 1.0, 0.0, 0.0, 0.0, 1.0]",,0.0561681613326,0.0473457612097,0.0510237067938,"[1.2184696791468346e-07, 0.0, 0.0, 0.0, 1.2184696791468346e-07, 0.0, 0.0, 0.0, 1.2184696791468346e-07]",,0.83356525,-2.30456275,9.54187045,"[8.999999999999999e-08, 0.0, 0.0, 0.0, 8.999999999999999e-08, 0.0, 0.0, 0.0, 8.999999999999999e-08]"
1579257146683146044,,495,,1579257146,683012978,"""base_link""",,0.115744202174,0.0355349833917,0.26610297546,-0.956310488842,"[1.0, 0.0, 0.0, 0.0, 1.0, 0.0, 0.0, 0.0, 1.0]",,0.122035749257,0.111962921917,0.216576501727,"[1.2184696791468346e-07, 0.0, 0.0, 0.0, 1.2184696791468346e-07, 0.0, 0.0, 0.0, 1.2184696791468346e-07]",,0.93163175,-2.0986231,9.3947707,"[8.999999999999999e-08, 0.0, 0.0, 0.0, 8.999999999999999e-08, 0.0, 0.0, 0.0, 8.999999999999999e-08]"
1579257146922143131,,496,,1579257146,921696657,"""base_link""",,0.099977933976,0.0270060717321,0.238914590467,-0.965502409769,"[1.0, 0.0, 0.0, 0.0, 1.0, 0.0, 0.0, 0.0, 1.0]",,0.11820936203,0.0626007989049,0.203438982368,"[1.2184696791468346e-07, 0.0, 0.0, 0.0, 1.2184696791468346e-07, 0.0, 0.0, 0.0, 1.2184696791468346e-07]",,0.81395195,-1.52003075,9.52225715,"[8.999999999999999e-08, 0.0, 0.0, 0.0, 8.999999999999999e-08, 0.0, 0.0, 0.0, 8.999999999999999e-08]"
1579257147166716469,,497,,1579257147,166569320,"""base_link""",,0.0896064388311,0.029576021867,0.234288382705,-0.967576818025,"[1.0, 0.0, 0.0, 0.0, 1.0, 0.0, 0.0, 0.0, 1.0]",,0.0276629626751,-0.025355624035,-0.0346242561936,"[1.2184696791468346e-07, 0.0, 0.0, 0.0, 1.2184696791468346e-07, 0.0, 0.0, 0.0, 1.2184696791468346e-07]",,0.02941995,-1.16699135,9.80665,"[8.999999999999999e-08, 0.0, 0.0, 0.0, 8.999999999999999e-08, 0.0, 0.0, 0.0, 8.999999999999999e-08]"
1579257147401730769,,498,,1579257147,401586675,"""base_link""",,0.0823682732017,0.0217914870153,0.232261807907,-0.968914367347,"[1.0, 0.0, 0.0, 0.0, 1.0, 0.0, 0.0, 0.0, 1.0]",,0.0851806998253,0.110547631979,0.0856287479401,"[1.2184696791468346e-07, 0.0, 0.0, 0.0, 1.2184696791468346e-07, 0.0, 0.0, 0.0, 1.2184696791468346e-07]",,-0.1765197,-1.06892485,9.4339973,"[8.999999999999999e-08, 0.0, 0.0, 0.0, 8.999999999999999e-08, 0.0, 0.0, 0.0, 8.999999999999999e-08]"
1579257147635708679,,499,,1579257147,635343891,"""base_link""",,0.0717784861335,0.0180565169063,0.223516050968,-0.971885994387,"[1.0, 0.0, 0.0, 0.0, 1.0, 0.0, 0.0, 0.0, 1.0]",,0.0632693320513,0.00886405818164,0.0460498481989,"[1.2184696791468346e-07, 0.0, 0.0, 0.0, 1.2184696791468346e-07, 0.0, 0.0, 0.0, 1.2184696791468346e-07]",,-0.0980665,-0.69627215,9.3359308,"[8.999999999999999e-08, 0.0, 0.0, 0.0, 8.999999999999999e-08, 0.0, 0.0, 0.0, 8.999999999999999e-08]"
1579257147901927769,,500,,1579257147,901710188,"""base_link""",,0.0692418249397,0.0181375187992,0.223823974451,-0.971997648429,"[1.0, 0.0, 0.0, 0.0, 1.0, 0.0, 0.0, 0.0, 1.0]",,0.0486252903938,0.0124413110316,-0.00880013220012,"[1.2184696791468346e-07, 0.0, 0.0, 0.0, 1.2184696791468346e-07, 0.0, 0.0, 0.0, 1.2184696791468346e-07]",,0.10787315,-1.0983448,9.8458766,"[8.999999999999999e-08, 0.0, 0.0, 0.0, 8.999999999999999e-08, 0.0, 0.0, 0.0, 8.999999999999999e-08]"
1579257148121007718,,501,,1579257148,120835779,"""base_link""",,0.052293009145,0.021016974236,0.219606315546,-0.97395933907,"[1.0, 0.0, 0.0, 0.0, 1.0, 0.0, 0.0, 0.0, 1.0]",,0.174838662148,-0.0466832406819,0.0290016829967,"[1.2184696791468346e-07, 0.0, 0.0, 0.0, 1.2184696791468346e-07, 0.0, 0.0, 0.0, 1.2184696791468346e-07]",,-0.10787315,-0.5099458,9.71839015,"[8.999999999999999e-08, 0.0, 0.0, 0.0, 8.999999999999999e-08, 0.0, 0.0, 0.0, 8.999999999999999e-08]"
1579257148370124389,,502,,1579257148,369688628,"""base_link""",,0.043193211966,0.0172460360446,0.223856948106,-0.973511678135,"[1.0, 0.0, 0.0, 0.0, 1.0, 0.0, 0.0, 0.0, 1.0]",,-0.040771394968,0.0930949226022,-0.0731221064925,"[1.2184696791468346e-07, 0.0, 0.0, 0.0, 1.2184696791468346e-07, 0.0, 0.0, 0.0, 1.2184696791468346e-07]",,-0.10787315,-0.3138128,9.9635564,"[8.999999999999999e-08, 0.0, 0.0, 0.0, 8.999999999999999e-08, 0.0, 0.0, 0.0, 8.999999999999999e-08]"
1579257148611111368,,503,,1579257148,610947598,"""base_link""",,0.0474545468595,0.009339707905,0.231200780408,-0.971703161967,"[1.0, 0.0, 0.0, 0.0, 1.0, 0.0, 0.0, 0.0, 1.0]",,-0.0477135330439,0.0666688978672,-0.0940047875047,"[1.2184696791468346e-07, 0.0, 0.0, 0.0, 1.2184696791468346e-07, 0.0, 0.0, 0.0, 1.2184696791468346e-07]",,-0.34323275,-0.44129925,10.002783,"[8.999999999999999e-08, 0.0, 0.0, 0.0, 8.999999999999999e-08, 0.0, 0.0, 0.0, 8.999999999999999e-08]"
1579257148846159301,,504,,1579257148,845763388,"""base_link""",,0.0515046325948,0.00409990169209,0.246298201963,-0.967815922238,"[1.0, 0.0, 0.0, 0.0, 1.0, 0.0, 0.0, 0.0, 1.0]",,-0.0669185817242,0.0110888537019,-0.10191526264,"[1.2184696791468346e-07, 0.0, 0.0, 0.0, 1.2184696791468346e-07, 0.0, 0.0, 0.0, 1.2184696791468346e-07]",,-0.2549729,-0.7060788,9.79684335,"[8.999999999999999e-08, 0.0, 0.0, 0.0, 8.999999999999999e-08, 0.0, 0.0, 0.0, 8.999999999999999e-08]"
1579257149076989083,,505,,1579257149,76873876,"""base_link""",,0.0623113566825,-0.000601268909862,0.25055758528,-0.9660941102,"[1.0, 0.0, 0.0, 0.0, 1.0, 0.0, 0.0, 0.0, 1.0]",,-0.10459189117,-0.00252138008364,0.00306370994076,"[1.2184696791468346e-07, 0.0, 0.0, 0.0, 1.2184696791468346e-07, 0.0, 0.0, 0.0, 1.2184696791468346e-07]",,-0.14709975,-1.2944778,10.1400761,"[8.999999999999999e-08, 0.0, 0.0, 0.0, 8.999999999999999e-08, 0.0, 0.0, 0.0, 8.999999999999999e-08]"
1579257149320582399,,506,,1579257149,320425038,"""base_link""",,0.0853217999736,-0.00396028508607,0.25898477179,-0.962097393496,"[1.0, 0.0, 0.0, 0.0, 1.0, 0.0, 0.0, 0.0, 1.0]",,-0.261938005686,-0.03230573982,-0.0779267549515,"[1.2184696791468346e-07, 0.0, 0.0, 0.0, 1.2184696791468346e-07, 0.0, 0.0, 0.0, 1.2184696791468346e-07]",,0.02941995,-1.53964405,9.6889702,"[8.999999999999999e-08, 0.0, 0.0, 0.0, 8.999999999999999e-08, 0.0, 0.0, 0.0, 8.999999999999999e-08]"
1579257149558816362,,507,,1579257149,558483972,"""base_link""",,0.109815094934,-0.00700116664308,0.25537137446,-0.960560820405,"[1.0, 0.0, 0.0, 0.0, 1.0, 0.0, 0.0, 0.0, 1.0]",,-0.125603169203,-0.133148625493,0.0296051781625,"[1.2184696791468346e-07, 0.0, 0.0, 0.0, 1.2184696791468346e-07, 0.0, 0.0, 0.0, 1.2184696791468346e-07]",,-0.0980665,-1.95152335,9.58109705,"[8.999999999999999e-08, 0.0, 0.0, 0.0, 8.999999999999999e-08, 0.0, 0.0, 0.0, 8.999999999999999e-08]"
1579257149794283305,,508,,1579257149,794148311,"""base_link""",,0.120156535301,0.0178591731006,0.258073175228,-0.958457976746,"[1.0, 0.0, 0.0, 0.0, 1.0, 0.0, 0.0, 0.0, 1.0]",,-0.026098575443,-0.175831869245,-0.0427019484341,"[1.2184696791468346e-07, 0.0, 0.0, 0.0, 1.2184696791468346e-07, 0.0, 0.0, 0.0, 1.2184696791468346e-07]",,0.40207265,-2.16726965,9.6889702,"[8.999999999999999e-08, 0.0, 0.0, 0.0, 8.999999999999999e-08, 0.0, 0.0, 0.0, 8.999999999999999e-08]"
1579257150045605225,,509,,1579257150,45426481,"""base_link""",,0.136215409438,0.042136481727,0.260043358445,-0.955011691482,"[1.0, 0.0, 0.0, 0.0, 1.0, 0.0, 0.0, 0.0, 1.0]",,-0.0852904468775,-0.177967041731,-0.0586167052388,"[1.2184696791468346e-07, 0.0, 0.0, 0.0, 1.2184696791468346e-07, 0.0, 0.0, 0.0, 1.2184696791468346e-07]",,1.10815145,-1.6475172,9.46341725,"[8.999999999999999e-08, 0.0, 0.0, 0.0, 8.999999999999999e-08, 0.0, 0.0, 0.0, 8.999999999999999e-08]"
1579257150275950562,,510,,1579257150,275609155,"""base_link""",,0.141722160598,0.0401318241681,0.265224175249,-0.952869562295,"[1.0, 0.0, 0.0, 0.0, 1.0, 0.0, 0.0, 0.0, 1.0]",,-0.100313059986,0.0946805477142,-0.0200131423771,"[1.2184696791468346e-07, 0.0, 0.0, 0.0, 1.2184696791468346e-07, 0.0, 0.0, 0.0, 1.2184696791468346e-07]",,1.10815145,-1.8044236,9.73800345,"[8.999999999999999e-08, 0.0, 0.0, 0.0, 8.999999999999999e-08, 0.0, 0.0, 0.0, 8.999999999999999e-08]"
1579257150522177274,,511,,1579257150,522024754,"""base_link""",,0.146220015854,0.0338094338322,0.271497324703,-0.950665993831,"[1.0, 0.0, 0.0, 0.0, 1.0, 0.0, 0.0, 0.0, 1.0]",,0.048575937748,0.0414245650172,-0.0904786959291,"[1.2184696791468346e-07, 0.0, 0.0, 0.0, 1.2184696791468346e-07, 0.0, 0.0, 0.0, 1.2184696791468346e-07]",,0.81395195,-2.2555295,9.7870367,"[8.999999999999999e-08, 0.0, 0.0, 0.0, 8.999999999999999e-08, 0.0, 0.0, 0.0, 8.999999999999999e-08]"
1579257150760417425,,512,,1579257150,760043045,"""base_link""",,0.136028730684,0.0315121669836,0.280114525463,-0.949757348161,"[1.0, 0.0, 0.0, 0.0, 1.0, 0.0, 0.0, 0.0, 1.0]",,0.0500194728374,0.0438032597303,-0.0746398866177,"[1.2184696791468346e-07, 0.0, 0.0, 0.0, 1.2184696791468346e-07, 0.0, 0.0, 0.0, 1.2184696791468346e-07]",,0.2353596,-2.14765635,9.91452315,"[8.999999999999999e-08, 0.0, 0.0, 0.0, 8.999999999999999e-08, 0.0, 0.0, 0.0, 8.999999999999999e-08]"
1579257150999234530,,513,,1579257150,999032623,"""base_link""",,0.135971933042,0.0313944636496,0.301346764608,-0.943247660234,"[1.0, 0.0, 0.0, 0.0, 1.0, 0.0, 0.0, 0.0, 1.0]",,-0.0722140595317,-0.0112168947235,-0.191940754652,"[1.2184696791468346e-07, 0.0, 0.0, 0.0, 1.2184696791468346e-07, 0.0, 0.0, 0.0, 1.2184696791468346e-07]",,1.26505785,-2.0201699,9.6889702,"[8.999999999999999e-08, 0.0, 0.0, 0.0, 8.999999999999999e-08, 0.0, 0.0, 0.0, 8.999999999999999e-08]"
1579257151258980204,,514,,1579257151,258820735,"""base_link""",,0.150442131829,0.0349269239025,0.310547889491,-0.937927120458,"[1.0, 0.0, 0.0, 0.0, 1.0, 0.0, 0.0, 0.0, 1.0]",,-0.0248321797699,-0.119930684566,0.0216089636087,"[1.2184696791468346e-07, 0.0, 0.0, 0.0, 1.2184696791468346e-07, 0.0, 0.0, 0.0, 1.2184696791468346e-07]",,1.7063571,-1.9024901,9.0613446,"[8.999999999999999e-08, 0.0, 0.0, 0.0, 8.999999999999999e-08, 0.0, 0.0, 0.0, 8.999999999999999e-08]"
1579257151485652240,,515,,1579257151,485295257,"""base_link""",,0.141031198795,0.0388121133213,0.299055160157,-0.942958022401,"[1.0, 0.0, 0.0, 0.0, 1.0, 0.0, 0.0, 0.0, 1.0]",,0.105595327914,0.0597134493291,0.0141111668199,"[1.2184696791468346e-07, 0.0, 0.0, 0.0, 1.2184696791468346e-07, 0.0, 0.0, 0.0, 1.2184696791468346e-07]",,1.4317709,-1.57887065,9.50264385,"[8.999999999999999e-08, 0.0, 0.0, 0.0, 8.999999999999999e-08, 0.0, 0.0, 0.0, 8.999999999999999e-08]"
1579257151717373936,,516,,1579257151,717231107,"""base_link""",,0.137781683133,0.0221449096036,0.333205256306,-0.932469875085,"[1.0, 0.0, 0.0, 0.0, 1.0, 0.0, 0.0, 0.0, 1.0]",,-0.0772478282452,0.26753821969,-0.433528780937,"[1.2184696791468346e-07, 0.0, 0.0, 0.0, 1.2184696791468346e-07, 0.0, 0.0, 0.0, 1.2184696791468346e-07]",,1.2748645,-1.85345685,9.7281968,"[8.999999999999999e-08, 0.0, 0.0, 0.0, 8.999999999999999e-08, 0.0, 0.0, 0.0, 8.999999999999999e-08]"
1579257151964034753,,517,,1579257151,963840693,"""base_link""",,0.13898579802,-0.00669504085851,0.378305006721,-0.91516307086,"[1.0, 0.0, 0.0, 0.0, 1.0, 0.0, 0.0, 0.0, 1.0]",,-0.0862713083625,0.261088430882,-0.293324291706,"[1.2184696791468346e-07, 0.0, 0.0, 0.0, 1.2184696791468346e-07, 0.0, 0.0, 0.0, 1.2184696791468346e-07]",,0.9218251,-2.79489525,9.6301303,"[8.999999999999999e-08, 0.0, 0.0, 0.0, 8.999999999999999e-08, 0.0, 0.0, 0.0, 8.999999999999999e-08]"
1579257152200924321,,518,,1579257152,200606479,"""base_link""",,0.133590465444,-0.0285886320428,0.404997021361,-0.904054030658,"[1.0, 0.0, 0.0, 0.0, 1.0, 0.0, 0.0, 0.0, 1.0]",,-0.0113813551143,0.253478974104,-0.189575180411,"[1.2184696791468346e-07, 0.0, 0.0, 0.0, 1.2184696791468346e-07, 0.0, 0.0, 0.0, 1.2184696791468346e-07]",,-0.0980665,-2.65760215,9.34573745,"[8.999999999999999e-08, 0.0, 0.0, 0.0, 8.999999999999999e-08, 0.0, 0.0, 0.0, 8.999999999999999e-08]"
1579257152442805613,,519,,1579257152,442660377,"""base_link""",,0.117730166145,-0.0663850417709,0.426993326367,-0.894096937388,"[1.0, 0.0, 0.0, 0.0, 1.0, 0.0, 0.0, 0.0, 1.0]",,-0.0114053739235,0.366219907999,-0.189937889576,"[1.2184696791468346e-07, 0.0, 0.0, 0.0, 1.2184696791468346e-07, 0.0, 0.0, 0.0, 1.2184696791468346e-07]",,-0.5295591,-2.63798885,9.8851032,"[8.999999999999999e-08, 0.0, 0.0, 0.0, 8.999999999999999e-08, 0.0, 0.0, 0.0, 8.999999999999999e-08]"
1579257152675113122,,520,,1579257152,674766553,"""base_link""",,0.104377746583,-0.104338692399,0.441864146404,-0.884858632443,"[1.0, 0.0, 0.0, 0.0, 1.0, 0.0, 0.0, 0.0, 1.0]",,0.0471509099007,0.224631860852,-0.000944837927818,"[1.2184696791468346e-07, 0.0, 0.0, 0.0, 1.2184696791468346e-07, 0.0, 0.0, 0.0, 1.2184696791468346e-07]",,-0.42168595,-2.1770763,9.44380395,"[8.999999999999999e-08, 0.0, 0.0, 0.0, 8.999999999999999e-08, 0.0, 0.0, 0.0, 8.999999999999999e-08]"
1579257152916793178,,521,,1579257152,916661625,"""base_link""",,0.0797450560638,-0.108388013551,0.438884385107,-0.888410525073,"[1.0, 0.0, 0.0, 0.0, 1.0, 0.0, 0.0, 0.0, 1.0]",,0.161579042673,-0.0405400805175,0.0782347097993,"[1.2184696791468346e-07, 0.0, 0.0, 0.0, 1.2184696791468346e-07, 0.0, 0.0, 0.0, 1.2184696791468346e-07]",,-0.87279185,-1.9417167,9.218251,"[8.999999999999999e-08, 0.0, 0.0, 0.0, 8.999999999999999e-08, 0.0, 0.0, 0.0, 8.999999999999999e-08]"
1579257153158533951,,522,,1579257153,158132900,"""base_link""",,0.0820955302974,-0.09635521798,0.426833445055,-0.895426828979,"[1.0, 0.0, 0.0, 0.0, 1.0, 0.0, 0.0, 0.0, 1.0]",,-0.0260945260525,-0.0956178456545,0.115193538368,"[1.2184696791468346e-07, 0.0, 0.0, 0.0, 1.2184696791468346e-07, 0.0, 0.0, 0.0, 1.2184696791468346e-07]",,-0.97085835,-1.79461695,9.4928372,"[8.999999999999999e-08, 0.0, 0.0, 0.0, 8.999999999999999e-08, 0.0, 0.0, 0.0, 8.999999999999999e-08]"
1579257153410485075,,523,,1579257153,410265801,"""base_link""",,0.0780176268956,-0.0774300714415,0.423202175683,-0.899342955956,"[1.0, 0.0, 0.0, 0.0, 1.0, 0.0, 0.0, 0.0, 1.0]",,0.124809473753,-0.159408092499,0.0373682826757,"[1.2184696791468346e-07, 0.0, 0.0, 0.0, 1.2184696791468346e-07, 0.0, 0.0, 0.0, 1.2184696791468346e-07]",,-0.8825985,-1.65732385,9.3751574,"[8.999999999999999e-08, 0.0, 0.0, 0.0, 8.999999999999999e-08, 0.0, 0.0, 0.0, 8.999999999999999e-08]"
1579257153644883757,,524,,1579257153,644720775,"""base_link""",,0.0848604125138,-0.0586882833297,0.423257523357,-0.900115250793,"[1.0, 0.0, 0.0, 0.0, 1.0, 0.0, 0.0, 0.0, 1.0]",,-0.00918322429061,-0.224806979299,0.00381393544376,"[1.2184696791468346e-07, 0.0, 0.0, 0.0, 1.2184696791468346e-07, 0.0, 0.0, 0.0, 1.2184696791468346e-07]",,-0.4314926,-1.57887065,9.36535075,"[8.999999999999999e-08, 0.0, 0.0, 0.0, 8.999999999999999e-08, 0.0, 0.0, 0.0, 8.999999999999999e-08]"
1579257153894870336,,525,,1579257153,894542356,"""base_link""",,0.0784707427979,-0.0404855384277,0.419832449807,-0.903296173905,"[1.0, 0.0, 0.0, 0.0, 1.0, 0.0, 0.0, 0.0, 1.0]",,0.0429520085454,-0.0957836732268,0.00397949619219,"[1.2184696791468346e-07, 0.0, 0.0, 0.0, 1.2184696791468346e-07, 0.0, 0.0, 0.0, 1.2184696791468346e-07]",,-0.2745862,-1.50041745,9.77723005,"[8.999999999999999e-08, 0.0, 0.0, 0.0, 8.999999999999999e-08, 0.0, 0.0, 0.0, 8.999999999999999e-08]"
1579257154123913967,,526,,1579257154,123816337,"""base_link""",,0.0800389426214,-0.0348662572097,0.419140689773,-0.903714110739,"[1.0, 0.0, 0.0, 0.0, 1.0, 0.0, 0.0, 0.0, 1.0]",,0.0649525076151,-0.0177212487906,0.025741616264,"[1.2184696791468346e-07, 0.0, 0.0, 0.0, 1.2184696791468346e-07, 0.0, 0.0, 0.0, 1.2184696791468346e-07]",,-0.18632635,-1.3337044,9.67916355,"[8.999999999999999e-08, 0.0, 0.0, 0.0, 8.999999999999999e-08, 0.0, 0.0, 0.0, 8.999999999999999e-08]"
1579257154361202911,,527,,1579257154,361082882,"""base_link""",,0.0734118076908,-0.0289011934169,0.415511547127,-0.906159799216,"[1.0, 0.0, 0.0, 0.0, 1.0, 0.0, 0.0, 0.0, 1.0]",,-0.00712116528302,-0.00114833726548,0.035167876631,"[1.2184696791468346e-07, 0.0, 0.0, 0.0, 1.2184696791468346e-07, 0.0, 0.0, 0.0, 1.2184696791468346e-07]",,-0.00980665,-1.1571847,9.58109705,"[8.999999999999999e-08, 0.0, 0.0, 0.0, 8.999999999999999e-08, 0.0, 0.0, 0.0, 8.999999999999999e-08]"
1579257154604765186,,528,,1579257154,604605812,"""base_link""",,0.0711551429926,-0.0269876207927,0.416658785007,-0.905871994725,"[1.0, 0.0, 0.0, 0.0, 1.0, 0.0, 0.0, 0.0, 1.0]",,0.0850949883461,-0.0392079912126,0.048972517252,"[1.2184696791468346e-07, 0.0, 0.0, 0.0, 1.2184696791468346e-07, 0.0, 0.0, 0.0, 1.2184696791468346e-07]",,0.12748645,-1.18660465,9.7085835,"[8.999999999999999e-08, 0.0, 0.0, 0.0, 8.999999999999999e-08, 0.0, 0.0, 0.0, 8.999999999999999e-08]"
1579257154844359466,,529,,1579257154,844185089,"""base_link""",,0.0690431752085,-0.0218121547236,0.414302858462,-0.907254325608,"[1.0, 0.0, 0.0, 0.0, 1.0, 0.0, 0.0, 0.0, 1.0]",,-0.000800332520157,-0.0259116105735,0.0495185405016,"[1.2184696791468346e-07, 0.0, 0.0, 0.0, 1.2184696791468346e-07, 0.0, 0.0, 0.0, 1.2184696791468346e-07]",,0.38245935,-1.0983448,9.6889702,"[8.999999999999999e-08, 0.0, 0.0, 0.0, 8.999999999999999e-08, 0.0, 0.0, 0.0, 8.999999999999999e-08]"
1579257155089171661,,530,,1579257155,88849676,"""base_link""",,0.0587377214211,-0.0126682092778,0.404686753315,-0.912479056333,"[1.0, 0.0, 0.0, 0.0, 1.0, 0.0, 0.0, 0.0, 1.0]",,0.120033092797,-0.0168283265084,0.0898355543613,"[1.2184696791468346e-07, 0.0, 0.0, 0.0, 1.2184696791468346e-07, 0.0, 0.0, 0.0, 1.2184696791468346e-07]",,0.4707192,-0.57859235,9.89490985,"[8.999999999999999e-08, 0.0, 0.0, 0.0, 8.999999999999999e-08, 0.0, 0.0, 0.0, 8.999999999999999e-08]"
1579257155323820190,,531,,1579257155,323655218,"""base_link""",,0.0485088527179,-0.00530160851185,0.402880238563,-0.91395092731,"[1.0, 0.0, 0.0, 0.0, 1.0, 0.0, 0.0, 0.0, 1.0]",,0.149541571736,-0.0278282798827,-0.0596166439354,"[1.2184696791468346e-07, 0.0, 0.0, 0.0, 1.2184696791468346e-07, 0.0, 0.0, 0.0, 1.2184696791468346e-07]",,-0.08825985,-0.48052585,9.5516771,"[8.999999999999999e-08, 0.0, 0.0, 0.0, 8.999999999999999e-08, 0.0, 0.0, 0.0, 8.999999999999999e-08]"
1579257155575955959,,532,,1579257155,575813225,"""base_link""",,0.0478805473829,0.00121599577837,0.404104144103,-0.913458162838,"[1.0, 0.0, 0.0, 0.0, 1.0, 0.0, 0.0, 0.0, 1.0]",,-0.0572864823043,0.0344368703663,0.00137500045821,"[1.2184696791468346e-07, 0.0, 0.0, 0.0, 1.2184696791468346e-07, 0.0, 0.0, 0.0, 1.2184696791468346e-07]",,-0.24516625,-0.48052585,9.65955025,"[8.999999999999999e-08, 0.0, 0.0, 0.0, 8.999999999999999e-08, 0.0, 0.0, 0.0, 8.999999999999999e-08]"
1579257155811028775,,533,,1579257155,810696721,"""base_link""",,0.0456559236452,0.00453805310285,0.403803973288,-0.913694310953,"[1.0, 0.0, 0.0, 0.0, 1.0, 0.0, 0.0, 0.0, 1.0]",,0.0922026708722,-0.0739671438932,0.0841564238071,"[1.2184696791468346e-07, 0.0, 0.0, 0.0, 1.2184696791468346e-07, 0.0, 0.0, 0.0, 1.2184696791468346e-07]",,-0.18632635,-0.1569064,9.5712904,"[8.999999999999999e-08, 0.0, 0.0, 0.0, 8.999999999999999e-08, 0.0, 0.0, 0.0, 8.999999999999999e-08]"
1579257156053440680,,534,,1579257156,53277086,"""base_link""",,0.0446447430737,0.00762958160178,0.394951130083,-0.917585004916,"[1.0, 0.0, 0.0, 0.0, 1.0, 0.0, 0.0, 0.0, 1.0]",,-0.0110942721367,-0.0357816405594,0.0874535366893,"[1.2184696791468346e-07, 0.0, 0.0, 0.0, 1.2184696791468346e-07, 0.0, 0.0, 0.0, 1.2184696791468346e-07]",,0.04903325,-0.0196133,9.6497436,"[8.999999999999999e-08, 0.0, 0.0, 0.0, 8.999999999999999e-08, 0.0, 0.0, 0.0, 8.999999999999999e-08]"
1579257156291182697,,535,,1579257156,290979538,"""base_link""",,0.0515354851284,0.0160126449131,0.388740550563,-0.919765444732,"[1.0, 0.0, 0.0, 0.0, 1.0, 0.0, 0.0, 0.0, 1.0]",,-0.02646384947,-0.0702015906572,0.0414854288101,"[1.2184696791468346e-07, 0.0, 0.0, 0.0, 1.2184696791468346e-07, 0.0, 0.0, 0.0, 1.2184696791468346e-07]",,0.3530394,-0.30400615,10.03220295,"[8.999999999999999e-08, 0.0, 0.0, 0.0, 8.999999999999999e-08, 0.0, 0.0, 0.0, 8.999999999999999e-08]"
1579257156566413191,,536,,1579257156,566006321,"""base_link""",,0.0442208864257,0.0216226963457,0.381906113759,-0.922889317568,"[1.0, 0.0, 0.0, 0.0, 1.0, 0.0, 0.0, 0.0, 1.0]",,0.061694804579,0.0352561436594,0.115388229489,"[1.2184696791468346e-07, 0.0, 0.0, 0.0, 1.2184696791468346e-07, 0.0, 0.0, 0.0, 1.2184696791468346e-07]",,0.48052585,-0.392266,9.87529655,"[8.999999999999999e-08, 0.0, 0.0, 0.0, 8.999999999999999e-08, 0.0, 0.0, 0.0, 8.999999999999999e-08]"
1579257156815367778,,537,,1579257156,815250872,"""base_link""",,0.0445301677511,0.0278088445878,0.373507272856,-0.926140404824,"[1.0, 0.0, 0.0, 0.0, 1.0, 0.0, 0.0, 0.0, 1.0]",,0.0828810036182,0.00829434208572,0.00514702545479,"[1.2184696791468346e-07, 0.0, 0.0, 0.0, 1.2184696791468346e-07, 0.0, 0.0, 0.0, 1.2184696791468346e-07]",,0.73549875,-0.7256921,9.58109705,"[8.999999999999999e-08, 0.0, 0.0, 0.0, 8.999999999999999e-08, 0.0, 0.0, 0.0, 8.999999999999999e-08]"
1579257157009885500,,538,,1579257157,9563227,"""base_link""",,0.0433538763784,0.0298128413531,0.367608617545,-0.92849100168,"[1.0, 0.0, 0.0, 0.0, 1.0, 0.0, 0.0, 0.0, 1.0]",,0.00534951779991,0.0730919167399,0.0969198867679,"[1.2184696791468346e-07, 0.0, 0.0, 0.0, 1.2184696791468346e-07, 0.0, 0.0, 0.0, 1.2184696791468346e-07]",,0.89240515,-0.83356525,9.52225715,"[8.999999999999999e-08, 0.0, 0.0, 0.0, 8.999999999999999e-08, 0.0, 0.0, 0.0, 8.999999999999999e-08]"
1579257157259282234,,539,,1579257157,259075129,"""base_link""",,0.0440238450958,0.0287729660498,0.354008629553,-0.933762232953,"[1.0, 0.0, 0.0, 0.0, 1.0, 0.0, 0.0, 0.0, 1.0]",,-0.0271226968616,-0.0328337103128,0.0577879659832,"[1.2184696791468346e-07, 0.0, 0.0, 0.0, 1.2184696791468346e-07, 0.0, 0.0, 0.0, 1.2184696791468346e-07]",,0.5099458,-0.2941995,9.62032365,"[8.999999999999999e-08, 0.0, 0.0, 0.0, 8.999999999999999e-08, 0.0, 0.0, 0.0, 8.999999999999999e-08]"
1579257157486927746,,540,,1579257157,486758427,"""base_link""",,0.0497296290367,0.0331608472652,0.349555536187,-0.935007085174,"[1.0, 0.0, 0.0, 0.0, 1.0, 0.0, 0.0, 0.0, 1.0]",,0.0271941032261,-0.00634749513119,0.15665730834,"[1.2184696791468346e-07, 0.0, 0.0, 0.0, 1.2184696791468346e-07, 0.0, 0.0, 0.0, 1.2184696791468346e-07]",,0.196133,-0.392266,9.93413645,"[8.999999999999999e-08, 0.0, 0.0, 0.0, 8.999999999999999e-08, 0.0, 0.0, 0.0, 8.999999999999999e-08]"
1579257157727773863,,541,,1579257157,727450549,"""base_link""",,0.0557046248409,0.0313637351275,0.340163286966,-0.938190944899,"[1.0, 0.0, 0.0, 0.0, 1.0, 0.0, 0.0, 0.0, 1.0]",,-0.138028129935,-0.0466634072363,0.0340883508325,"[1.2184696791468346e-07, 0.0, 0.0, 0.0, 1.2184696791468346e-07, 0.0, 0.0, 0.0, 1.2184696791468346e-07]",,0.1765197,0.00980665,9.71839015,"[8.999999999999999e-08, 0.0, 0.0, 0.0, 8.999999999999999e-08, 0.0, 0.0, 0.0, 8.999999999999999e-08]"
1579257157970146677,,542,,1579257157,969976041,"""base_link""",,0.0691948046907,0.0382486243437,0.336763415282,-0.938264101342,"[1.0, 0.0, 0.0, 0.0, 1.0, 0.0, 0.0, 0.0, 1.0]",,-0.0945356488228,-0.10844733566,0.0472942627966,"[1.2184696791468346e-07, 0.0, 0.0, 0.0, 1.2184696791468346e-07, 0.0, 0.0, 0.0, 1.2184696791468346e-07]",,0.3334261,-0.14709975,9.85568325,"[8.999999999999999e-08, 0.0, 0.0, 0.0, 8.999999999999999e-08, 0.0, 0.0, 0.0, 8.999999999999999e-08]"
1579257158209867865,,543,,1579257158,209676190,"""base_link""",,0.0718138742891,0.0432520346371,0.331683165091,-0.939658611919,"[1.0, 0.0, 0.0, 0.0, 1.0, 0.0, 0.0, 0.0, 1.0]",,0.0851401910186,-0.114196047187,0.130521669984,"[1.2184696791468346e-07, 0.0, 0.0, 0.0, 1.2184696791468346e-07, 0.0, 0.0, 0.0, 1.2184696791468346e-07]",,0.73549875,-0.08825985,9.58109705,"[8.999999999999999e-08, 0.0, 0.0, 0.0, 8.999999999999999e-08, 0.0, 0.0, 0.0, 8.999999999999999e-08]"
1579257158448464211,,544,,1579257158,448157206,"""base_link""",,0.0756371417989,0.0620779766114,0.322037448434,-0.941656640929,"[1.0, 0.0, 0.0, 0.0, 1.0, 0.0, 0.0, 0.0, 1.0]",,-0.0235613752156,-0.0621369667351,-0.0420481041074,"[1.2184696791468346e-07, 0.0, 0.0, 0.0, 1.2184696791468346e-07, 0.0, 0.0, 0.0, 1.2184696791468346e-07]",,1.20621795,-0.7060788,9.3555441,"[8.999999999999999e-08, 0.0, 0.0, 0.0, 8.999999999999999e-08, 0.0, 0.0, 0.0, 8.999999999999999e-08]"
1579257158710192412,,545,,1579257158,710042841,"""base_link""",,0.0822163805151,0.0620786027035,0.321626776594,-0.941245414565,"[1.0, 0.0, 0.0, 0.0, 1.0, 0.0, 0.0, 0.0, 1.0]",,-0.0509579963982,0.00860824994743,0.144624903798,"[1.2184696791468346e-07, 0.0, 0.0, 0.0, 1.2184696791468346e-07, 0.0, 0.0, 0.0, 1.2184696791468346e-07]",,1.26505785,-1.1179581,9.3947707,"[8.999999999999999e-08, 0.0, 0.0, 0.0, 8.999999999999999e-08, 0.0, 0.0, 0.0, 8.999999999999999e-08]"
1579257158932789648,,546,,1579257158,932612249,"""base_link""",,0.0965502966703,0.0524589901305,0.320276927368,-0.940929744648,"[1.0, 0.0, 0.0, 0.0, 1.0, 0.0, 0.0, 0.0, 1.0]",,-0.212209314108,0.00450177816674,0.0274244435132,"[1.2184696791468346e-07, 0.0, 0.0, 0.0, 1.2184696791468346e-07, 0.0, 0.0, 0.0, 1.2184696791468346e-07]",,0.9414384,-1.7455837,9.65955025,"[8.999999999999999e-08, 0.0, 0.0, 0.0, 8.999999999999999e-08, 0.0, 0.0, 0.0, 8.999999999999999e-08]"
1579257159183020987,,547,,1579257159,182638026,"""base_link""",,0.108475493005,0.0546023851928,0.311831354826,-0.942344338921,"[1.0, 0.0, 0.0, 0.0, 1.0, 0.0, 0.0, 0.0, 1.0]",,0.027836881578,-0.0410249978304,0.0840967223048,"[1.2184696791468346e-07, 0.0, 0.0, 0.0, 1.2184696791468346e-07, 0.0, 0.0, 0.0, 1.2184696791468346e-07]",,0.89240515,-1.63771055,9.87529655,"[8.999999999999999e-08, 0.0, 0.0, 0.0, 8.999999999999999e-08, 0.0, 0.0, 0.0, 8.999999999999999e-08]"
1579257159418298417,,548,,1579257159,418160942,"""base_link""",,0.107748629511,0.0575530174495,0.305654562497,-0.944273885822,"[1.0, 0.0, 0.0, 0.0, 1.0, 0.0, 0.0, 0.0, 1.0]",,-0.0127807380632,-0.055214997381,-0.0520595535636,"[1.2184696791468346e-07, 0.0, 0.0, 0.0, 1.2184696791468346e-07, 0.0, 0.0, 0.0, 1.2184696791468346e-07]",,0.89240515,-1.32389775,9.7085835,"[8.999999999999999e-08, 0.0, 0.0, 0.0, 8.999999999999999e-08, 0.0, 0.0, 0.0, 8.999999999999999e-08]"
1579257159651897497,,549,,1579257159,651734464,"""base_link""",,0.111467067506,0.0561763673363,0.309487963125,-0.942675187589,"[1.0, 0.0, 0.0, 0.0, 1.0, 0.0, 0.0, 0.0, 1.0]",,-0.0194835793227,0.0882276669145,0.0477837957442,"[1.2184696791468346e-07, 0.0, 0.0, 0.0, 1.2184696791468346e-07, 0.0, 0.0, 0.0, 1.2184696791468346e-07]",,1.08853815,-1.3533177,9.6301303,"[8.999999999999999e-08, 0.0, 0.0, 0.0, 8.999999999999999e-08, 0.0, 0.0, 0.0, 8.999999999999999e-08]"
1579257159902976249,,550,,1579257159,902856097,"""base_link""",,0.109448047066,0.0387007730109,0.308103372785,-0.944243446808,"[1.0, 0.0, 0.0, 0.0, 1.0, 0.0, 0.0, 0.0, 1.0]",,-0.0320726968348,0.183182373643,0.028434721753,"[1.2184696791468346e-07, 0.0, 0.0, 0.0, 1.2184696791468346e-07, 0.0, 0.0, 0.0, 1.2184696791468346e-07]",,0.6668522,-1.3925443,9.60071035,"[8.999999999999999e-08, 0.0, 0.0, 0.0, 8.999999999999999e-08, 0.0, 0.0, 0.0, 8.999999999999999e-08]"
1579257160139124422,,551,,1579257160,139028899,"""base_link""",,0.108620859121,0.0227419624389,0.31232662959,-0.943470396227,"[1.0, 0.0, 0.0, 0.0, 1.0, 0.0, 0.0, 0.0, 1.0]",,-0.000314741278999,0.0582823045552,-0.0437714233994,"[1.2184696791468346e-07, 0.0, 0.0, 0.0, 1.2184696791468346e-07, 0.0, 0.0, 0.0, 1.2184696791468346e-07]",,0.10787315,-1.3533177,9.60071035,"[8.999999999999999e-08, 0.0, 0.0, 0.0, 8.999999999999999e-08, 0.0, 0.0, 0.0, 8.999999999999999e-08]"
1579257160373323986,,552,,1579257160,373036875,"""base_link""",,0.103016917786,0.0161125702899,0.328033578224,-0.938893961684,"[1.0, 0.0, 0.0, 0.0, 1.0, 0.0, 0.0, 0.0, 1.0]",,0.0243868809193,0.137937411666,-0.144643604755,"[1.2184696791468346e-07, 0.0, 0.0, 0.0, 1.2184696791468346e-07, 0.0, 0.0, 0.0, 1.2184696791468346e-07]",,0.3334261,-1.63771055,9.6693569,"[8.999999999999999e-08, 0.0, 0.0, 0.0, 8.999999999999999e-08, 0.0, 0.0, 0.0, 8.999999999999999e-08]"
1579257160607492210,,553,,1579257160,607319751,"""base_link""",,0.0898006469936,0.000672277485121,0.34286064612,-0.935083936973,"[1.0, 0.0, 0.0, 0.0, 1.0, 0.0, 0.0, 0.0, 1.0]",,0.0441449731588,0.191947951913,-0.107587173581,"[1.2184696791468346e-07, 0.0, 0.0, 0.0, 1.2184696791468346e-07, 0.0, 0.0, 0.0, 1.2184696791468346e-07]",,0.34323275,-1.2160246,9.34573745,"[8.999999999999999e-08, 0.0, 0.0, 0.0, 8.999999999999999e-08, 0.0, 0.0, 0.0, 8.999999999999999e-08]"
1579257160861394322,,554,,1579257160,861227840,"""base_link""",,0.0799090940984,-0.0172378282362,0.354240913515,-0.93157434977,"[1.0, 0.0, 0.0, 0.0, 1.0, 0.0, 0.0, 0.0, 1.0]",,0.0347779877484,0.104790687561,-0.082457497716,"[1.2184696791468346e-07, 0.0, 0.0, 0.0, 1.2184696791468346e-07, 0.0, 0.0, 0.0, 1.2184696791468346e-07]",,0.3334261,-1.372931,9.6497436,"[8.999999999999999e-08, 0.0, 0.0, 0.0, 8.999999999999999e-08, 0.0, 0.0, 0.0, 8.999999999999999e-08]"
1579257161092694618,,555,,1579257161,92355935,"""base_link""",,0.0716286583726,-0.0264657445387,0.36248638411,-0.928855489837,"[1.0, 0.0, 0.0, 0.0, 1.0, 0.0, 0.0, 0.0, 1.0]",,0.0726966112852,0.127061396837,-0.0629158839583,"[1.2184696791468346e-07, 0.0, 0.0, 0.0, 1.2184696791468346e-07, 0.0, 0.0, 0.0, 1.2184696791468346e-07]",,-0.02941995,-1.4317709,9.62032365,"[8.999999999999999e-08, 0.0, 0.0, 0.0, 8.999999999999999e-08, 0.0, 0.0, 0.0, 8.999999999999999e-08]"
1579257161347074843,,556,,1579257161,346911189,"""base_link""",,0.0412336357862,-0.0311990034608,0.368151164649,-0.928327059516,"[1.0, 0.0, 0.0, 0.0, 1.0, 0.0, 0.0, 0.0, 1.0]",,0.269795924425,0.172741949558,-0.111709095538,"[1.2184696791468346e-07, 0.0, 0.0, 0.0, 1.2184696791468346e-07, 0.0, 0.0, 0.0, 1.2184696791468346e-07]",,-0.392266,-0.87279185,9.4536106,"[8.999999999999999e-08, 0.0, 0.0, 0.0, 8.999999999999999e-08, 0.0, 0.0, 0.0, 8.999999999999999e-08]"
1579257161573430949,,557,,1579257161,573025270,"""base_link""",,0.0261057071674,-0.0517824424457,0.381765062903,-0.922438348864,"[1.0, 0.0, 0.0, 0.0, 1.0, 0.0, 0.0, 0.0, 1.0]",,-0.123060643673,0.157954007387,-0.156304106116,"[1.2184696791468346e-07, 0.0, 0.0, 0.0, 1.2184696791468346e-07, 0.0, 0.0, 0.0, 1.2184696791468346e-07]",,-1.08853815,-0.1372931,9.34573745,"[8.999999999999999e-08, 0.0, 0.0, 0.0, 8.999999999999999e-08, 0.0, 0.0, 0.0, 8.999999999999999e-08]"
1579257161830027713,,558,,1579257161,829756138,"""base_link""",,0.045257300909,-0.0510436298767,0.389121678821,-0.918656978221,"[1.0, 0.0, 0.0, 0.0, 1.0, 0.0, 0.0, 0.0, 1.0]",,-0.053504280746,-0.180524796247,0.0604234412313,"[1.2184696791468346e-07, 0.0, 0.0, 0.0, 1.2184696791468346e-07, 0.0, 0.0, 0.0, 1.2184696791468346e-07]",,-0.85317855,-0.67665885,9.7674234,"[8.999999999999999e-08, 0.0, 0.0, 0.0, 8.999999999999999e-08, 0.0, 0.0, 0.0, 8.999999999999999e-08]"
1579257162051922788,,559,,1579257162,51783173,"""base_link""",,0.0538132391235,-0.0465549464955,0.383451518964,-0.920815782258,"[1.0, 0.0, 0.0, 0.0, 1.0, 0.0, 0.0, 0.0, 1.0]",,-0.0244550406933,0.014641912654,0.0484815910459,"[1.2184696791468346e-07, 0.0, 0.0, 0.0, 1.2184696791468346e-07, 0.0, 0.0, 0.0, 1.2184696791468346e-07]",,-1.06892485,-0.93163175,9.81645665,"[8.999999999999999e-08, 0.0, 0.0, 0.0, 8.999999999999999e-08, 0.0, 0.0, 0.0, 8.999999999999999e-08]"
1579257162293443712,,560,,1579257162,293034860,"""base_link""",,0.0607563868018,-0.0332882641568,0.380767337124,-0.922072007986,"[1.0, 0.0, 0.0, 0.0, 1.0, 0.0, 0.0, 0.0, 1.0]",,0.0554868280888,-0.143235757947,0.0274710841477,"[1.2184696791468346e-07, 0.0, 0.0, 0.0, 1.2184696791468346e-07, 0.0, 0.0, 0.0, 1.2184696791468346e-07]",,-0.9022118,-0.97085835,9.91452315,"[8.999999999999999e-08, 0.0, 0.0, 0.0, 8.999999999999999e-08, 0.0, 0.0, 0.0, 8.999999999999999e-08]"
1579257162536662280,,561,,1579257162,536496648,"""base_link""",,0.0569043459815,-0.0280731894914,0.372580980863,-0.925827848004,"[1.0, 0.0, 0.0, 0.0, 1.0, 0.0, 0.0, 0.0, 1.0]",,-0.0334930233657,0.0112379249185,0.141684889793,"[1.2184696791468346e-07, 0.0, 0.0, 0.0, 1.2184696791468346e-07, 0.0, 0.0, 0.0, 1.2184696791468346e-07]",,-0.3530394,-1.0198916,10.4538889,"[8.999999999999999e-08, 0.0, 0.0, 0.0, 8.999999999999999e-08, 0.0, 0.0, 0.0, 8.999999999999999e-08]"
1579257162772770069,,562,,1579257162,772540395,"""base_link""",,0.0519039044429,-0.0225147780586,0.364102546211,-0.929638857469,"[1.0, 0.0, 0.0, 0.0, 1.0, 0.0, 0.0, 0.0, 1.0]",,0.107084222138,-0.0413945317268,-0.0416975170374,"[1.2184696791468346e-07, 0.0, 0.0, 0.0, 1.2184696791468346e-07, 0.0, 0.0, 0.0, 1.2184696791468346e-07]",,-0.3334261,-0.73549875,9.77723005,"[8.999999999999999e-08, 0.0, 0.0, 0.0, 8.999999999999999e-08, 0.0, 0.0, 0.0, 8.999999999999999e-08]"
1579257163017969958,,563,,1579257163,17600342,"""base_link""",,0.0451457958549,-0.0191163145867,0.363501583194,-0.930302651103,"[1.0, 0.0, 0.0, 0.0, 1.0, 0.0, 0.0, 0.0, 1.0]",,-0.0573561452329,-0.0293297879398,0.0654435381293,"[1.2184696791468346e-07, 0.0, 0.0, 0.0, 1.2184696791468346e-07, 0.0, 0.0, 0.0, 1.2184696791468346e-07]",,-0.5491724,-0.5295591,9.73800345,"[8.999999999999999e-08, 0.0, 0.0, 0.0, 8.999999999999999e-08, 0.0, 0.0, 0.0, 8.999999999999999e-08]"
1579257163252707471,,564,,1579257163,252545088,"""base_link""",,0.0532231365833,-0.0216274864497,0.358371702302,-0.931809676142,"[1.0, 0.0, 0.0, 0.0, 1.0, 0.0, 0.0, 0.0, 1.0]",,-0.118016608059,-0.00331642269157,0.0487431697547,"[1.2184696791468346e-07, 0.0, 0.0, 0.0, 1.2184696791468346e-07, 0.0, 0.0, 0.0, 1.2184696791468346e-07]",,-0.28439285,-1.2160246,10.0616229,"[8.999999999999999e-08, 0.0, 0.0, 0.0, 8.999999999999999e-08, 0.0, 0.0, 0.0, 8.999999999999999e-08]"
1579257163499897713,,565,,1579257163,499560857,"""base_link""",,0.0550229423232,-0.026586613241,0.351412770369,-0.934224112639,"[1.0, 0.0, 0.0, 0.0, 1.0, 0.0, 0.0, 0.0, 1.0]",,0.100112311542,0.0130501296371,-0.032415471971,"[1.2184696791468346e-07, 0.0, 0.0, 0.0, 1.2184696791468346e-07, 0.0, 0.0, 0.0, 1.2184696791468346e-07]",,-0.53936575,-0.93163175,10.09104285,"[8.999999999999999e-08, 0.0, 0.0, 0.0, 8.999999999999999e-08, 0.0, 0.0, 0.0, 8.999999999999999e-08]"
1579257163742654645,,566,,1579257163,742459031,"""base_link""",,0.0445198567216,-0.0212285119268,0.35909793962,-0.931995709432,"[1.0, 0.0, 0.0, 0.0, 1.0, 0.0, 0.0, 0.0, 1.0]",,0.0850470289588,-0.0102903712541,-0.0267517082393,"[1.2184696791468346e-07, 0.0, 0.0, 0.0, 1.2184696791468346e-07, 0.0, 0.0, 0.0, 1.2184696791468346e-07]",,-0.61781895,-0.588399,10.05181625,"[8.999999999999999e-08, 0.0, 0.0, 0.0, 8.999999999999999e-08, 0.0, 0.0, 0.0, 8.999999999999999e-08]"
